Vers 81
USE_SERIAL_FEEDBACK=true
DEVELOPMENT_MODE=false
USE_RMC_ONLY=false

$GPRMC,142709.250,A,3845.5661,N,07707.7349,W,0.06,359.93,010821,,,A*7B
$GPGGA,142709.500,3845.5660,N,07707.7347,W,1,05,2.26,34.3,M,-33.5,M,,*62
$GPRMC,142709.750,A,3845.5659,N,07707.7346,W,0.07,1.07,010821,,,A*78
$GPGGA,142710.000,3845.5657,N,07707.7344,W,1,05,2.26,34.2,M,-33.5,M,,*69
$GPRMC,142710.250,A,3845.5656,N,07707.7343,W,0.05,52.00,010821,,,A*4C
$GPGGA,142710.500,3845.5655,N,07707.7342,W,1,05,1.70,34.0,M,-33.5,M,,*6A
$GPRMC,142710.750,A,3845.5654,N,07707.7340,W,0.05,19.28,010821,,,A*4D
$GPGGA,142711.000,3845.5653,N,07707.7339,W,1,05,1.70,33.9,M,-33.5,M,,*6A
$GPRMC,142711.250,A,3845.5652,N,07707.7338,W,0.08,36.98,010821,,,A*4B
$GPGGA,142711.500,3845.5651,N,07707.7337,W,1,05,1.70,33.7,M,-33.5,M,,*6D
$GPRMC,142711.750,A,3845.5650,N,07707.7336,W,0.11,9.44,010821,,,A*77
$GPGGA,142712.000,3845.5650,N,07707.7335,W,1,05,2.25,33.7,M,-33.5,M,,*6B
$GPRMC,142712.250,A,3845.5649,N,07707.7334,W,0.14,30.34,010821,,,A*43
$GPGGA,142712.500,3845.5648,N,07707.7333,W,1,05,1.70,33.6,M,-33.5,M,,*63
$GPRMC,142712.750,A,3845.5647,N,07707.7332,W,0.15,31.61,010821,,,A*4E
$GPGGA,142713.000,3845.5645,N,07707.7332,W,1,05,1.70,33.5,M,-33.5,M,,*68
$GPRMC,142713.250,A,3845.5644,N,07707.7331,W,0.06,358.57,010821,,,A*71
$GPGGA,142713.500,3845.5642,N,07707.7330,W,1,05,2.26,33.5,M,-33.5,M,,*68
$GPRMC,142713.750,A,3845.5641,N,07707.7329,W,0.01,50.53,010821,,,A*40
$GPGGA,142714.000,3845.5639,N,07707.7328,W,1,05,1.70,33.4,M,-33.5,M,,*6E
$GPRMC,142714.250,A,3845.5638,N,07707.7328,W,0.02,27.59,010821,,,A*44
$GPGGA,142714.500,3845.5637,N,07707.7327,W,1,05,1.70,33.3,M,-33.5,M,,*6D
$GPRMC,142714.750,A,3845.5636,N,07707.7326,W,0.04,123.76,010821,,,A*7F
$GPGGA,142715.000,3845.5635,N,07707.7326,W,1,05,1.70,33.2,M,-33.5,M,,*6B
$GPRMC,142715.250,A,3845.5634,N,07707.7325,W,0.09,113.43,010821,,,A*72
$GPGGA,142715.500,3845.5633,N,07707.7325,W,1,05,1.70,33.2,M,-33.5,M,,*6B
$GPRMC,142715.750,A,3845.5631,N,07707.7324,W,0.13,173.02,010821,,,A*7B
$GPGGA,142716.000,3845.5630,N,07707.7323,W,1,05,1.70,33.3,M,-33.5,M,,*69
$GPRMC,142716.250,A,3845.5629,N,07707.7322,W,0.09,132.00,010821,,,A*7E
$GPGGA,142716.500,3845.5628,N,07707.7322,W,1,05,1.70,33.3,M,-33.5,M,,*64
$GPRMC,142716.750,A,3845.5627,N,07707.7321,W,0.12,137.07,010821,,,A*7E
$GPGGA,142717.000,3845.5626,N,07707.7320,W,1,05,1.70,33.4,M,-33.5,M,,*6B
$GPRMC,142717.250,A,3845.5625,N,07707.7320,W,0.11,132.57,010821,,,A*7A
$GPGGA,142717.500,3845.5624,N,07707.7319,W,1,05,1.70,33.6,M,-33.5,M,,*64
$GPRMC,142717.750,A,3845.5623,N,07707.7318,W,0.07,151.65,010821,,,A*71
$GPGGA,142718.000,3845.5622,N,07707.7318,W,1,05,1.70,33.7,M,-33.5,M,,*68
$GPRMC,142718.250,A,3845.5620,N,07707.7317,W,0.11,172.00,010821,,,A*72
$GPGGA,142718.500,3845.5619,N,07707.7317,W,1,05,1.70,33.8,M,-33.5,M,,*65
$GPRMC,142718.750,A,3845.5618,N,07707.7316,W,0.18,165.95,010821,,,A*7E
$GPGGA,142719.000,3845.5617,N,07707.7315,W,1,05,1.70,33.9,M,-33.5,M,,*6C
$GPRMC,142719.250,A,3845.5616,N,07707.7314,W,0.24,159.42,010821,,,A*7C
$GPGGA,142719.500,3845.5615,N,07707.7313,W,1,05,1.70,33.9,M,-33.5,M,,*6D
$GPRMC,142719.750,A,3845.5615,N,07707.7313,W,0.21,155.12,010821,,,A*71
$GPGGA,142720.000,3845.5614,N,07707.7312,W,1,05,1.70,33.9,M,-33.5,M,,*62
$GPRMC,142720.250,A,3845.5613,N,07707.7311,W,0.24,149.61,010821,,,A*76
$GPGGA,142720.500,3845.5613,N,07707.7311,W,1,05,1.70,33.9,M,-33.5,M,,*63
$GPRMC,142720.750,A,3845.5612,N,07707.7310,W,0.21,159.06,010821,,,A*76
$GPGGA,142721.000,3845.5611,N,07707.7310,W,1,05,1.70,34.0,M,-33.5,M,,*6A
$GPRMC,142721.250,A,3845.5610,N,07707.7309,W,0.23,164.48,010821,,,A*7E
$GPGGA,142721.500,3845.5610,N,07707.7308,W,1,05,1.70,34.1,M,-33.5,M,,*66
$GPRMC,142721.750,A,3845.5608,N,07707.7308,W,0.24,168.95,010821,,,A*78
$GPGGA,142722.000,3845.5607,N,07707.7307,W,1,05,1.70,34.3,M,-33.5,M,,*6B
$GPRMC,142722.250,A,3845.5607,N,07707.7307,W,0.26,186.41,010821,,,A*75
$GPGGA,142722.500,3845.5607,N,07707.7307,W,1,04,4.50,34.2,M,-33.5,M,,*69
$GPRMC,142722.750,A,3845.5607,N,07707.7307,W,0.30,194.70,010821,,,A*76
$GPGGA,142723.000,3845.5607,N,07707.7307,W,1,04,4.50,34.1,M,-33.5,M,,*6E
$GPRMC,142723.250,A,3845.5607,N,07707.7307,W,0.42,200.93,010821,,,A*74
$GPGGA,142723.500,3845.5607,N,07707.7307,W,1,04,4.50,34.1,M,-33.5,M,,*6B
$GPRMC,142723.750,A,3845.5608,N,07707.7308,W,0.38,206.99,010821,,,A*70
$GPGGA,142724.000,3845.5608,N,07707.7307,W,1,04,4.50,34.1,M,-33.5,M,,*66
$GPRMC,142724.250,A,3845.5608,N,07707.7307,W,0.31,199.56,010821,,,A*72
$GPGGA,142724.500,3845.5609,N,07707.7307,W,1,04,4.50,34.2,M,-33.5,M,,*61
$GPRMC,142724.750,A,3845.5610,N,07707.7307,W,0.25,197.13,010821,,,A*74
$GPGGA,142725.000,3845.5610,N,07707.7307,W,1,04,4.50,34.2,M,-33.5,M,,*6D
$GPRMC,142725.250,A,3845.5610,N,07707.7307,W,0.24,206.12,010821,,,A*7B
$GPGGA,142725.500,3845.5611,N,07707.7307,W,1,04,4.50,34.1,M,-33.5,M,,*6A
$GPRMC,142725.750,A,3845.5611,N,07707.7307,W,0.20,204.64,010821,,,A*78
$GPGGA,142726.000,3845.5611,N,07707.7307,W,1,04,4.50,34.0,M,-33.5,M,,*6D
$GPRMC,142726.250,A,3845.5611,N,07707.7306,W,0.16,186.79,010821,,,A*7F
$GPGGA,142726.500,3845.5611,N,07707.7306,W,1,05,1.70,33.8,M,-33.5,M,,*60
$GPRMC,142726.750,A,3845.5611,N,07707.7306,W,0.16,183.72,010821,,,A*74
$GPGGA,142727.000,3845.5609,N,07707.7304,W,1,05,1.70,33.8,M,-33.5,M,,*6F
$GPRMC,142727.250,A,3845.5607,N,07707.7303,W,0.18,168.23,010821,,,A*7D
$GPGGA,142727.500,3845.5605,N,07707.7302,W,1,05,1.70,34.0,M,-33.5,M,,*6F
$GPRMC,142727.750,A,3845.5603,N,07707.7300,W,0.22,169.49,010821,,,A*7B
$GPGGA,142728.000,3845.5600,N,07707.7298,W,1,05,1.70,34.2,M,-33.5,M,,*60
$GPRMC,142728.250,A,3845.5597,N,07707.7297,W,0.32,155.98,010821,,,A*72
$GPGGA,142728.500,3845.5597,N,07707.7296,W,1,05,1.70,34.2,M,-33.5,M,,*66
$GPRMC,142728.750,A,3845.5597,N,07707.7296,W,0.29,147.40,010821,,,A*7A
$GPGGA,142729.000,3845.5598,N,07707.7295,W,1,05,1.70,33.9,M,-33.5,M,,*62
$GPRMC,142729.250,A,3845.5597,N,07707.7295,W,0.24,145.03,010821,,,A*75
$GPGGA,142729.500,3845.5596,N,07707.7294,W,1,05,1.70,33.7,M,-33.5,M,,*66
$GPRMC,142729.750,A,3845.5596,N,07707.7294,W,0.26,139.23,010821,,,A*7B
$GPGGA,142730.000,3845.5596,N,07707.7294,W,1,05,1.70,33.7,M,-33.5,M,,*6B
$GPRMC,142730.250,A,3845.5596,N,07707.7294,W,0.25,123.24,010821,,,A*79
$GPGGA,142730.500,3845.5596,N,07707.7294,W,1,05,1.70,33.7,M,-33.5,M,,*6E
$GPRMC,142730.750,A,3845.5596,N,07707.7293,W,0.26,121.82,010821,,,A*76
$GPGGA,142731.000,3845.5596,N,07707.7293,W,1,05,1.70,33.7,M,-33.5,M,,*6D
$GPRMC,142731.250,A,3845.5595,N,07707.7293,W,0.35,129.22,010821,,,A*71
$GPGGA,142731.500,3845.5595,N,07707.7293,W,1,05,1.70,33.7,M,-33.5,M,,*6B
$GPRMC,142731.750,A,3845.5595,N,07707.7292,W,0.37,131.02,010821,,,A*7C
$GPGGA,142732.000,3845.5595,N,07707.7292,W,1,05,1.70,33.7,M,-33.5,M,,*6C
$GPRMC,142732.250,A,3845.5595,N,07707.7292,W,0.30,138.21,010821,,,A*75
$GPGGA,142732.500,3845.5595,N,07707.7292,W,1,06,1.65,33.7,M,-33.5,M,,*6E
$GPRMC,142732.750,A,3845.5594,N,07707.7292,W,0.30,148.06,010821,,,A*73
$GPGGA,142733.000,3845.5594,N,07707.7291,W,1,06,1.65,33.7,M,-33.5,M,,*68
$GPRMC,142733.250,A,3845.5594,N,07707.7291,W,0.28,157.40,010821,,,A*71
$GPGGA,142733.500,3845.5594,N,07707.7291,W,1,06,1.65,33.7,M,-33.5,M,,*6D
$GPRMC,142733.750,A,3845.5594,N,07707.7291,W,0.33,156.75,010821,,,A*79
$GPGGA,142734.000,3845.5594,N,07707.7291,W,1,06,1.65,33.7,M,-33.5,M,,*6F
$GPRMC,142734.250,A,3845.5593,N,07707.7291,W,0.28,168.72,010821,,,A*7C
$GPGGA,142734.500,3845.5593,N,07707.7291,W,1,06,1.65,33.7,M,-33.5,M,,*6D
$GPRMC,142734.750,A,3845.5593,N,07707.7291,W,0.25,176.98,010821,,,A*7F
$GPGGA,142735.000,3845.5593,N,07707.7291,W,1,06,1.65,33.7,M,-33.5,M,,*69
$GPRMC,142735.250,A,3845.5593,N,07707.7291,W,0.19,163.41,010821,,,A*74
$GPGGA,142735.500,3845.5593,N,07707.7291,W,1,06,1.65,33.7,M,-33.5,M,,*6C
$GPRMC,142735.750,A,3845.5593,N,07707.7291,W,0.23,147.44,010821,,,A*7B
$GPGGA,142736.000,3845.5592,N,07707.7291,W,1,06,1.65,33.7,M,-33.5,M,,*6B
$GPRMC,142736.250,A,3845.5592,N,07707.7291,W,0.18,142.09,010821,,,A*78
$GPGGA,142736.500,3845.5592,N,07707.7290,W,1,06,1.65,33.7,M,-33.5,M,,*6F
$GPRMC,142736.750,A,3845.5592,N,07707.7290,W,0.12,160.05,010821,,,A*7A
$GPGGA,142737.000,3845.5592,N,07707.7290,W,1,06,1.65,33.7,M,-33.5,M,,*6B
$GPRMC,142737.250,A,3845.5592,N,07707.7290,W,0.10,243.08,010821,,,A*73
$GPGGA,142737.500,3845.5592,N,07707.7290,W,1,06,1.65,33.7,M,-33.5,M,,*6E
$GPRMC,142737.750,A,3845.5592,N,07707.7291,W,0.05,322.12,010821,,,A*7E
$GPGGA,142738.000,3845.5592,N,07707.7291,W,1,06,1.65,33.7,M,-33.5,M,,*65
$GPRMC,142738.250,A,3845.5592,N,07707.7291,W,0.11,346.58,010821,,,A*7D
$GPGGA,142738.500,3845.5592,N,07707.7291,W,1,06,2.19,33.7,M,-33.5,M,,*68
$GPRMC,142738.750,A,3845.5592,N,07707.7291,W,0.15,308.60,010821,,,A*7D
$GPGGA,142739.000,3845.5592,N,07707.7291,W,1,06,1.65,33.7,M,-33.5,M,,*64
$GPRMC,142739.250,A,3845.5593,N,07707.7291,W,0.19,293.18,010821,,,A*78
$GPGGA,142739.500,3845.5593,N,07707.7291,W,1,06,1.65,33.7,M,-33.5,M,,*60
$GPRMC,142739.750,A,3845.5593,N,07707.7291,W,0.15,289.56,010821,,,A*70
$GPGGA,142740.000,3845.5593,N,07707.7291,W,1,06,1.65,33.7,M,-33.5,M,,*6B
$GPRMC,142740.250,A,3845.5593,N,07707.7292,W,0.12,290.37,010821,,,A*70
$GPGGA,142740.500,3845.5593,N,07707.7292,W,1,06,1.65,33.7,M,-33.5,M,,*6D
$GPRMC,142740.750,A,3845.5593,N,07707.7292,W,0.13,322.56,010821,,,A*7B
$GPGGA,142741.000,3845.5593,N,07707.7292,W,1,06,1.65,33.7,M,-33.5,M,,*69
$GPRMC,142741.250,A,3845.5593,N,07707.7292,W,0.07,248.13,010821,,,A*76
$GPGGA,142741.500,3845.5593,N,07707.7292,W,1,06,1.65,33.7,M,-33.5,M,,*6C
$GPRMC,142741.750,A,3845.5593,N,07707.7292,W,0.06,262.12,010821,,,A*7B
$GPGGA,142742.000,3845.5593,N,07707.7292,W,1,06,1.65,33.7,M,-33.5,M,,*6A
$GPRMC,142742.250,A,3845.5593,N,07707.7292,W,0.07,259.91,010821,,,A*7F
$GPGGA,142742.500,3845.5593,N,07707.7292,W,1,06,1.65,33.7,M,-33.5,M,,*6F
$GPRMC,142742.750,A,3845.5593,N,07707.7292,W,0.05,230.24,010821,,,A*79
$GPGGA,142743.000,3845.5593,N,07707.7292,W,1,06,1.65,33.7,M,-33.5,M,,*6B
$GPRMC,142743.250,A,3845.5593,N,07707.7292,W,0.04,200.58,010821,,,A*74
$GPGGA,142743.500,3845.5593,N,07707.7292,W,1,06,1.65,33.7,M,-33.5,M,,*6E
$GPRMC,142743.750,A,3845.5593,N,07707.7292,W,0.08,232.88,010821,,,A*71
$GPGGA,142744.000,3845.5593,N,07707.7292,W,1,06,1.65,33.7,M,-33.5,M,,*6C
$GPRMC,142744.250,A,3845.5593,N,07707.7293,W,0.09,279.01,010821,,,A*7D
$GPGGA,142744.500,3845.5593,N,07707.7293,W,1,06,1.65,33.7,M,-33.5,M,,*68
$GPRMC,142744.750,A,3845.5593,N,07707.7293,W,0.13,257.87,010821,,,A*71
$GPGGA,142745.000,3845.5593,N,07707.7293,W,1,06,1.65,33.7,M,-33.5,M,,*6C
$GPRMC,142745.250,A,3845.5593,N,07707.7293,W,0.18,232.15,010821,,,A*76
$GPGGA,142745.500,3845.5591,N,07707.7294,W,2,06,1.65,33.6,M,-33.5,M,0000,0000*6E
$GPRMC,142745.750,A,3845.5590,N,07707.7294,W,0.21,201.86,010821,,,D*72
$GPGGA,142746.000,3845.5590,N,07707.7295,W,2,06,1.65,33.6,M,-33.5,M,0000,0000*68
$GPRMC,142746.250,A,3845.5591,N,07707.7295,W,0.13,202.98,010821,,,D*79
$GPGGA,142746.500,3845.5591,N,07707.7295,W,2,06,1.65,33.5,M,-33.5,M,0000,0000*6F
$GPRMC,142746.750,A,3845.5591,N,07707.7296,W,0.07,147.86,010821,,,D*77
$GPGGA,142747.000,3845.5591,N,07707.7296,W,2,06,1.65,33.4,M,-33.5,M,0000,0000*69
$GPRMC,142747.250,A,3845.5590,N,07707.7296,W,0.11,122.54,010821,,,D*79
$GPGGA,142747.500,3845.5589,N,07707.7297,W,2,06,1.65,33.4,M,-33.5,M,0000,0000*64
$GPRMC,142747.750,A,3845.5588,N,07707.7298,W,0.13,182.98,010821,,,D*73
$GPGGA,142748.000,3845.5588,N,07707.7298,W,2,06,1.65,33.4,M,-33.5,M,0000,0000*60
$GPRMC,142748.250,A,3845.5588,N,07707.7299,W,0.14,203.79,010821,,,D*7A
$GPGGA,142748.500,3845.5587,N,07707.7299,W,2,06,1.65,33.4,M,-33.5,M,0000,0000*6B
$GPRMC,142748.750,A,3845.5587,N,07707.7300,W,0.12,174.59,010821,,,D*76
$GPGGA,142749.000,3845.5586,N,07707.7301,W,2,06,1.65,33.5,M,-33.5,M,0000,0000*6F
$GPRMC,142749.250,A,3845.5585,N,07707.7301,W,0.18,185.03,010821,,,D*7A
$GPGGA,142749.500,3845.5585,N,07707.7302,W,2,06,1.65,33.5,M,-33.5,M,0000,0000*6A
$GPRMC,142749.750,A,3845.5586,N,07707.7302,W,0.14,178.40,010821,,,D*76
$GPGGA,142750.000,3845.5585,N,07707.7303,W,2,06,1.65,33.6,M,-33.5,M,0000,0000*65
$GPRMC,142750.250,A,3845.5584,N,07707.7303,W,0.20,159.89,010821,,,D*79
$GPGGA,142750.500,3845.5584,N,07707.7304,W,2,06,1.65,33.8,M,-33.5,M,0000,0000*68
$GPRMC,142750.750,A,3845.5583,N,07707.7304,W,0.24,159.28,010821,,,D*73
$GPGGA,142751.000,3845.5584,N,07707.7305,W,2,06,1.65,34.0,M,-33.5,M,0000,0000*62
$GPRMC,142751.250,A,3845.5584,N,07707.7306,W,0.19,150.84,010821,,,D*73
$GPGGA,142751.500,3845.5585,N,07707.7306,W,2,06,1.65,34.2,M,-33.5,M,0000,0000*67
$GPRMC,142751.750,A,3845.5586,N,07707.7307,W,0.10,168.54,010821,,,D*7A
$GPGGA,142752.000,3845.5586,N,07707.7309,W,2,06,1.65,34.4,M,-33.5,M,0000,0000*6B
$GPRMC,142752.250,A,3845.5587,N,07707.7309,W,0.12,144.12,010821,,,D*7D
$GPGGA,142752.500,3845.5587,N,07707.7309,W,2,06,1.65,34.6,M,-33.5,M,0000,0000*6D
$GPRMC,142752.750,A,3845.5587,N,07707.7310,W,0.12,152.72,010821,,,D*71
$GPGGA,142753.000,3845.5589,N,07707.7311,W,2,06,1.65,34.8,M,-33.5,M,0000,0000*60
$GPRMC,142753.250,A,3845.5590,N,07707.7312,W,0.07,238.00,010821,,,D*7F
$GPGGA,142753.500,3845.5591,N,07707.7313,W,2,06,1.65,35.2,M,-33.5,M,0000,0000*65
$GPRMC,142753.750,A,3845.5591,N,07707.7314,W,0.08,212.98,010821,,,D*7B
$GPGGA,142754.000,3845.5592,N,07707.7315,W,2,06,1.65,35.5,M,-33.5,M,0000,0000*65
$GPRMC,142754.250,A,3845.5593,N,07707.7316,W,0.09,236.97,010821,,,D*71
$GPGGA,142754.500,3845.5594,N,07707.7317,W,2,06,1.65,35.9,M,-33.5,M,0000,0000*68
$GPRMC,142754.750,A,3845.5594,N,07707.7317,W,0.13,222.19,010821,,,D*7A
$GPGGA,142755.000,3845.5595,N,07707.7318,W,2,06,1.65,36.2,M,-33.5,M,0000,0000*6A
$GPRMC,142755.250,A,3845.5597,N,07707.7318,W,0.13,194.78,010821,,,D*7B
$GPGGA,142755.500,3845.5598,N,07707.7319,W,2,06,1.65,36.6,M,-33.5,M,0000,0000*67
$GPRMC,142755.750,A,3845.5600,N,07707.7320,W,0.07,167.09,010821,,,D*77
$GPGGA,142756.000,3845.5601,N,07707.7320,W,2,06,1.65,36.8,M,-33.5,M,0000,0000*66
$GPRMC,142756.250,A,3845.5602,N,07707.7321,W,0.06,104.72,010821,,,D*7A
$GPGGA,142756.500,3845.5604,N,07707.7321,W,2,06,1.65,37.1,M,-33.5,M,0000,0000*6F
$GPRMC,142756.750,A,3845.5605,N,07707.7322,W,0.04,64.81,010821,,,D*42
$GPGGA,142757.000,3845.5607,N,07707.7322,W,2,06,1.65,37.3,M,-33.5,M,0000,0000*69
$GPRMC,142757.250,A,3845.5607,N,07707.7323,W,0.11,36.59,010821,,,D*43
$GPGGA,142757.500,3845.5608,N,07707.7323,W,2,06,1.65,37.5,M,-33.5,M,0000,0000*64
$GPRMC,142757.750,A,3845.5608,N,07707.7324,W,0.05,35.65,010821,,,D*47
$GPGGA,142758.000,3845.5608,N,07707.7324,W,2,06,1.65,37.7,M,-33.5,M,0000,0000*6B
$GPRMC,142758.250,A,3845.5610,N,07707.7325,W,0.09,327.01,010821,,,D*7B
$GPGGA,142758.500,3845.5611,N,07707.7325,W,2,06,1.65,37.8,M,-33.5,M,0000,0000*68
$GPRMC,142758.750,A,3845.5611,N,07707.7326,W,0.10,359.91,010821,,,D*74
$GPGGA,142759.000,3845.5611,N,07707.7326,W,2,06,2.18,37.9,M,-33.5,M,0000,0000*67
$GPRMC,142759.250,A,3845.5612,N,07707.7327,W,0.13,332.81,010821,,,D*7D
$GPGGA,142759.500,3845.5612,N,07707.7327,W,2,06,1.65,38.0,M,-33.5,M,0000,0000*6F
$GPRMC,142759.750,A,3845.5611,N,07707.7327,W,0.09,347.20,010821,,,D*79
$GPGGA,142800.000,3845.5610,N,07707.7327,W,2,06,2.18,38.1,M,-33.5,M,0000,0000*63
$GPRMC,142800.250,A,3845.5610,N,07707.7327,W,0.04,241.27,010821,,,D*73
$GPGGA,142800.500,3845.5611,N,07707.7327,W,2,06,1.65,38.0,M,-33.5,M,0000,0000*6F
$GPRMC,142800.750,A,3845.5611,N,07707.7327,W,0.08,68.48,010821,,,D*4B
$GPGGA,142801.000,3845.5611,N,07707.7327,W,2,06,1.65,38.0,M,-33.5,M,0000,0000*6B
$GPRMC,142801.250,A,3845.5612,N,07707.7327,W,0.06,36.94,010821,,,D*48
$GPGGA,142801.500,3845.5612,N,07707.7327,W,2,06,1.65,37.9,M,-33.5,M,0000,0000*6B
$GPRMC,142801.750,A,3845.5613,N,07707.7327,W,0.07,348.31,010821,,,D*78
$GPGGA,142802.000,3845.5613,N,07707.7328,W,2,06,2.18,37.8,M,-33.5,M,0000,0000*6B
$GPRMC,142802.250,A,3845.5612,N,07707.7328,W,0.09,275.87,010821,,,D*7C
$GPGGA,142802.500,3845.5612,N,07707.7328,W,2,06,1.65,37.7,M,-33.5,M,0000,0000*69
$GPRMC,142802.750,A,3845.5613,N,07707.7328,W,0.04,255.53,010821,,,D*7E
$GPGGA,142803.000,3845.5613,N,07707.7327,W,2,06,1.65,37.7,M,-33.5,M,0000,0000*63
$GPRMC,142803.250,A,3845.5613,N,07707.7327,W,0.03,67.86,010821,,,D*49
$GPGGA,142803.500,3845.5614,N,07707.7327,W,2,06,1.65,37.6,M,-33.5,M,0000,0000*60
$GPRMC,142803.750,A,3845.5615,N,07707.7328,W,0.05,341.56,010821,,,D*79
$GPGGA,142804.000,3845.5615,N,07707.7327,W,2,06,1.65,37.6,M,-33.5,M,0000,0000*63
$GPRMC,142804.250,A,3845.5616,N,07707.7328,W,0.06,347.10,010821,,,D*7F
$GPGGA,142804.500,3845.5617,N,07707.7328,W,2,06,2.18,37.6,M,-33.5,M,0000,0000*62
$GPRMC,142804.750,A,3845.5618,N,07707.7328,W,0.14,320.26,010821,,,D*73
$GPGGA,142805.000,3845.5619,N,07707.7328,W,2,06,1.65,37.5,M,-33.5,M,0000,0000*62
$GPRMC,142805.250,A,3845.5618,N,07707.7327,W,0.06,64.66,010821,,,D*4C
$GPGGA,142805.500,3845.5619,N,07707.7327,W,2,06,1.65,37.5,M,-33.5,M,0000,0000*68
$GPRMC,142805.750,A,3845.5620,N,07707.7327,W,0.07,41.07,010821,,,D*43
$GPGGA,142806.000,3845.5622,N,07707.7328,W,2,06,1.65,37.6,M,-33.5,M,0000,0000*6A
$GPRMC,142806.250,A,3845.5623,N,07707.7328,W,0.11,27.59,010821,,,D*45
$GPGGA,142806.500,3845.5624,N,07707.7328,W,2,06,1.65,37.6,M,-33.5,M,0000,0000*69
$GPRMC,142806.750,A,3845.5625,N,07707.7328,W,0.11,35.16,010821,,,D*4E
$GPGGA,142807.000,3845.5626,N,07707.7328,W,2,06,1.65,37.7,M,-33.5,M,0000,0000*6E
$GPRMC,142807.250,A,3845.5626,N,07707.7328,W,0.11,50.77,010821,,,D*4D
$GPGGA,142807.500,3845.5628,N,07707.7328,W,2,06,1.65,37.7,M,-33.5,M,0000,0000*65
$GPRMC,142807.750,A,3845.5629,N,07707.7328,W,0.16,50.53,010821,,,D*46
$GPGGA,142808.000,3845.5631,N,07707.7327,W,2,06,1.65,37.8,M,-33.5,M,0000,0000*67
$GPRMC,142808.250,A,3845.5632,N,07707.7327,W,0.21,60.81,010821,,,D*41
$GPGGA,142808.500,3845.5633,N,07707.7327,W,2,06,1.65,37.9,M,-33.5,M,0000,0000*61
$GPRMC,142808.750,A,3845.5634,N,07707.7327,W,0.17,63.79,010821,,,D*43
$GPGGA,142809.000,3845.5635,N,07707.7328,W,2,06,1.65,37.9,M,-33.5,M,0000,0000*6C
$GPRMC,142809.250,A,3845.5636,N,07707.7328,W,0.02,52.59,010821,,,D*4E
$GPGGA,142809.500,3845.5637,N,07707.7328,W,2,06,1.65,38.1,M,-33.5,M,0000,0000*6C
$GPRMC,142809.750,A,3845.5639,N,07707.7328,W,0.04,331.46,010821,,,D*7A
$GPGGA,142810.000,3845.5641,N,07707.7329,W,2,06,1.65,38.2,M,-33.5,M,0000,0000*62
$GPRMC,142810.250,A,3845.5642,N,07707.7329,W,0.10,358.88,010821,,,D*72
$GPGGA,142810.500,3845.5644,N,07707.7329,W,2,06,2.18,38.3,M,-33.5,M,0000,0000*6A
$GPRMC,142810.750,A,3845.5645,N,07707.7329,W,0.12,354.27,010821,,,D*7B
$GPGGA,142811.000,3845.5645,N,07707.7329,W,2,06,2.18,38.3,M,-33.5,M,0000,0000*6F
$GPRMC,142811.250,A,3845.5644,N,07707.7329,W,0.01,259.32,010821,,,D*74
$GPGGA,142811.500,3845.5645,N,07707.7329,W,2,06,1.65,38.4,M,-33.5,M,0000,0000*64
$GPRMC,142811.750,A,3845.5645,N,07707.7330,W,0.08,231.02,010821,,,D*7C
$GPGGA,142812.000,3845.5644,N,07707.7329,W,2,06,1.65,38.4,M,-33.5,M,0000,0000*63
$GPRMC,142812.250,A,3845.5645,N,07707.7330,W,0.04,241.62,010821,,,D*77
$GPGGA,142812.500,3845.5646,N,07707.7330,W,2,06,1.65,38.3,M,-33.5,M,0000,0000*6B
$GPRMC,142812.750,A,3845.5647,N,07707.7329,W,0.13,27.95,010821,,,D*44
$GPGGA,142813.000,3845.5648,N,07707.7330,W,2,06,1.65,38.3,M,-33.5,M,0000,0000*61
$GPRMC,142813.250,A,3845.5649,N,07707.7330,W,0.22,357.14,010821,,,D*79
$GPGGA,142813.500,3845.5650,N,07707.7330,W,2,06,2.18,38.2,M,-33.5,M,0000,0000*65
$GPRMC,142813.750,A,3845.5650,N,07707.7331,W,0.30,348.74,010821,,,D*7E
$GPGGA,142814.000,3845.5651,N,07707.7330,W,2,06,2.18,38.2,M,-33.5,M,0000,0000*66
$GPRMC,142814.250,A,3845.5651,N,07707.7331,W,0.34,353.43,010821,,,D*77
$GPGGA,142814.500,3845.5651,N,07707.7331,W,2,06,2.18,38.1,M,-33.5,M,0000,0000*61
$GPRMC,142814.750,A,3845.5651,N,07707.7331,W,0.33,344.00,010821,,,D*74
$GPGGA,142815.000,3845.5649,N,07707.7331,W,2,06,1.65,38.0,M,-33.5,M,0000,0000*64
$GPRMC,142815.250,A,3845.5649,N,07707.7330,W,0.22,2.34,010821,,,D*7E
$GPGGA,142815.500,3845.5648,N,07707.7331,W,2,06,2.18,37.9,M,-33.5,M,0000,0000*6F
$GPRMC,142815.750,A,3845.5649,N,07707.7331,W,0.30,349.12,010821,,,D*71
$GPGGA,142816.000,3845.5650,N,07707.7332,W,2,06,2.18,37.8,M,-33.5,M,0000,0000*62
$GPRMC,142816.250,A,3845.5651,N,07707.7332,W,0.41,345.32,010821,,,D*75
$GPGGA,142816.500,3845.5650,N,07707.7332,W,2,06,2.18,37.7,M,-33.5,M,0000,0000*68
$GPRMC,142816.750,A,3845.5651,N,07707.7332,W,0.43,351.22,010821,,,D*76
$GPGGA,142817.000,3845.5651,N,07707.7332,W,2,06,2.18,37.6,M,-33.5,M,0000,0000*6C
$GPRMC,142817.250,A,3845.5652,N,07707.7333,W,0.51,347.33,010821,,,D*74
$GPGGA,142817.500,3845.5651,N,07707.7333,W,2,06,2.18,37.4,M,-33.5,M,0000,0000*6A
$GPRMC,142817.750,A,3845.5651,N,07707.7333,W,0.50,342.94,010821,,,D*7B
$GPGGA,142818.000,3845.5651,N,07707.7333,W,2,06,1.65,37.3,M,-33.5,M,0000,0000*6E
$GPRMC,142818.250,A,3845.5651,N,07707.7333,W,0.44,352.93,010821,,,D*72
$GPGGA,142818.500,3845.5650,N,07707.7333,W,2,06,2.18,37.2,M,-33.5,M,0000,0000*62
$GPRMC,142818.750,A,3845.5650,N,07707.7333,W,0.38,347.45,010821,,,D*72
$GPGGA,142819.000,3845.5649,N,07707.7333,W,2,06,2.18,37.1,M,-33.5,M,0000,0000*6D
$GPRMC,142819.250,A,3845.5648,N,07707.7333,W,0.31,350.26,010821,,,D*75
$GPGGA,142819.500,3845.5648,N,07707.7333,W,2,06,2.18,37.0,M,-33.5,M,0000,0000*68
$GPRMC,142819.750,A,3845.5648,N,07707.7333,W,0.28,334.41,010821,,,D*7B
$GPGGA,142820.000,3845.5646,N,07707.7333,W,2,06,1.65,36.9,M,-33.5,M,0000,0000*68
$GPRMC,142820.250,A,3845.5646,N,07707.7333,W,0.25,318.09,010821,,,D*75
$GPGGA,142820.500,3845.5646,N,07707.7333,W,2,06,1.65,36.9,M,-33.5,M,0000,0000*6D
$GPRMC,142820.750,A,3845.5646,N,07707.7333,W,0.21,335.48,010821,,,D*7E
$GPGGA,142821.000,3845.5645,N,07707.7333,W,2,06,1.65,36.7,M,-33.5,M,0000,0000*64
$GPRMC,142821.250,A,3845.5645,N,07707.7333,W,0.21,357.29,010821,,,D*7A
$GPGGA,142821.500,3845.5645,N,07707.7333,W,2,06,2.18,36.6,M,-33.5,M,0000,0000*69
$GPRMC,142821.750,A,3845.5645,N,07707.7333,W,0.19,2.00,010821,,,D*7C
$GPGGA,142822.000,3845.5645,N,07707.7333,W,2,06,2.18,36.6,M,-33.5,M,0000,0000*6F
$GPRMC,142822.250,A,3845.5645,N,07707.7333,W,0.17,5.89,010821,,,D*72
$GPGGA,142822.500,3845.5645,N,07707.7333,W,2,06,2.18,36.5,M,-33.5,M,0000,0000*69
$GPRMC,142822.750,A,3845.5645,N,07707.7333,W,0.16,2.28,010821,,,D*7A
$GPGGA,142823.000,3845.5645,N,07707.7333,W,2,06,2.18,36.4,M,-33.5,M,0000,0000*6C
$GPRMC,142823.250,A,3845.5645,N,07707.7333,W,0.16,356.73,010821,,,D*72
$GPGGA,142823.500,3845.5645,N,07707.7333,W,2,06,2.18,36.3,M,-33.5,M,0000,0000*6E
$GPRMC,142823.750,A,3845.5646,N,07707.7333,W,0.16,354.25,010821,,,D*75
$GPGGA,142824.000,3845.5646,N,07707.7333,W,2,06,2.18,36.2,M,-33.5,M,0000,0000*6E
$GPRMC,142824.250,A,3845.5647,N,07707.7333,W,0.16,349.55,010821,,,D*7D
$GPGGA,142824.500,3845.5647,N,07707.7333,W,2,06,2.17,36.2,M,-33.5,M,0000,0000*65
$GPRMC,142824.750,A,3845.5647,N,07707.7333,W,0.14,354.87,010821,,,D*79
$GPGGA,142825.000,3845.5648,N,07707.7333,W,2,06,2.18,36.1,M,-33.5,M,0000,0000*62
$GPRMC,142825.250,A,3845.5649,N,07707.7333,W,0.18,357.40,010821,,,D*77
$GPGGA,142825.500,3845.5649,N,07707.7333,W,2,06,2.18,36.1,M,-33.5,M,0000,0000*66
$GPRMC,142825.750,A,3845.5650,N,07707.7333,W,0.22,356.85,010821,,,D*7B
$GPGGA,142826.000,3845.5651,N,07707.7333,W,2,06,2.18,36.1,M,-33.5,M,0000,0000*69
$GPRMC,142826.250,A,3845.5651,N,07707.7333,W,0.27,0.23,010821,,,D*75
$GPGGA,142826.500,3845.5652,N,07707.7333,W,2,06,2.18,36.0,M,-33.5,M,0000,0000*6E
$GPRMC,142826.750,A,3845.5652,N,07707.7333,W,0.27,358.66,010821,,,D*7C
$GPGGA,142827.000,3845.5652,N,07707.7333,W,2,06,2.17,35.9,M,-33.5,M,0000,0000*6F
$GPRMC,142827.250,A,3845.5652,N,07707.7332,W,0.22,23.62,010821,,,D*47
$GPGGA,142827.500,3845.5652,N,07707.7332,W,2,06,1.65,35.8,M,-33.5,M,0000,0000*6C
$GPRMC,142827.750,A,3845.5652,N,07707.7332,W,0.16,19.48,010821,,,D*44
$GPGGA,142828.000,3845.5652,N,07707.7332,W,2,06,1.65,35.8,M,-33.5,M,0000,0000*66
$GPRMC,142828.250,A,3845.5652,N,07707.7332,W,0.10,8.61,010821,,,D*73
$GPGGA,142828.500,3845.5652,N,07707.7332,W,2,06,2.17,35.7,M,-33.5,M,0000,0000*6A
$GPRMC,142828.750,A,3845.5652,N,07707.7332,W,0.07,311.07,010821,,,D*7B
$GPGGA,142829.000,3845.5652,N,07707.7332,W,2,06,1.65,35.7,M,-33.5,M,0000,0000*68
$GPRMC,142829.250,A,3845.5652,N,07707.7332,W,0.10,267.72,010821,,,D*7B
$GPGGA,142829.500,3845.5652,N,07707.7332,W,2,06,1.65,35.7,M,-33.5,M,0000,0000*6D
$GPRMC,142829.750,A,3845.5652,N,07707.7332,W,0.08,332.69,010821,,,D*7C
$GPGGA,142830.000,3845.5652,N,07707.7333,W,2,06,1.65,35.7,M,-33.5,M,0000,0000*61
$GPRMC,142830.250,A,3845.5652,N,07707.7333,W,0.00,21.11,010821,,,D*46
$GPGGA,142830.500,3845.5652,N,07707.7333,W,2,06,1.65,35.7,M,-33.5,M,0000,0000*64
$GPRMC,142830.750,A,3845.5652,N,07707.7333,W,0.05,199.64,010821,,,D*76
$GPGGA,142831.000,3845.5652,N,07707.7333,W,2,06,1.65,35.7,M,-33.5,M,0000,0000*60
$GPRMC,142831.250,A,3845.5652,N,07707.7333,W,0.13,215.32,010821,,,D*71
$GPGGA,142831.500,3845.5652,N,07707.7333,W,2,06,1.65,35.7,M,-33.5,M,0000,0000*65
$GPRMC,142831.750,A,3845.5652,N,07707.7333,W,0.19,211.56,010821,,,D*78
$GPGGA,142832.000,3845.5652,N,07707.7333,W,2,06,1.65,35.7,M,-33.5,M,0000,0000*63
$GPRMC,142832.250,A,3845.5652,N,07707.7333,W,0.19,222.57,010821,,,D*7F
$GPGGA,142832.500,3845.5652,N,07707.7333,W,2,07,1.17,35.7,M,-33.5,M,0000,0000*62
$GPRMC,142832.750,A,3845.5651,N,07707.7333,W,0.23,228.55,010821,,,D*78
$GPGGA,142833.000,3845.5651,N,07707.7333,W,2,07,1.17,35.7,M,-33.5,M,0000,0000*65
$GPRMC,142833.250,A,3845.5651,N,07707.7333,W,0.28,229.38,010821,,,D*7D
$GPGGA,142833.500,3845.5651,N,07707.7334,W,2,07,1.17,35.6,M,-33.5,M,0000,0000*66
$GPRMC,142833.750,A,3845.5651,N,07707.7334,W,0.27,233.30,010821,,,D*73
$GPGGA,142834.000,3845.5651,N,07707.7334,W,2,07,1.17,35.6,M,-33.5,M,0000,0000*64
$GPRMC,142834.250,A,3845.5650,N,07707.7334,W,0.32,232.33,010821,,,D*76
$GPGGA,142834.500,3845.5650,N,07707.7334,W,2,07,1.17,35.6,M,-33.5,M,0000,0000*60
$GPRMC,142834.750,A,3845.5650,N,07707.7335,W,0.26,233.50,010821,,,D*73
$GPGGA,142835.000,3845.5650,N,07707.7335,W,2,07,1.17,35.6,M,-33.5,M,0000,0000*65
$GPRMC,142835.250,A,3845.5650,N,07707.7335,W,0.23,210.03,010821,,,D*75
$GPGGA,142835.500,3845.5650,N,07707.7335,W,2,07,1.17,35.6,M,-33.5,M,0000,0000*60
$GPRMC,142835.750,A,3845.5650,N,07707.7335,W,0.21,193.51,010821,,,D*7D
$GPGGA,142836.000,3845.5649,N,07707.7335,W,2,07,1.17,35.6,M,-33.5,M,0000,0000*6E
$GPRMC,142836.250,A,3845.5649,N,07707.7335,W,0.22,186.42,010821,,,D*76
$GPGGA,142836.500,3845.5649,N,07707.7335,W,2,07,1.17,35.6,M,-33.5,M,0000,0000*6B
$GPRMC,142836.750,A,3845.5649,N,07707.7335,W,0.22,184.20,010821,,,D*75
$GPGGA,142837.000,3845.5649,N,07707.7335,W,2,07,1.17,35.6,M,-33.5,M,0000,0000*6F
$GPRMC,142837.250,A,3845.5649,N,07707.7335,W,0.20,183.48,010821,,,D*7A
$GPGGA,142837.500,3845.5649,N,07707.7335,W,2,07,1.17,35.6,M,-33.5,M,0000,0000*6A
$GPRMC,142837.750,A,3845.5648,N,07707.7335,W,0.02,181.58,010821,,,D*7D
$GPGGA,142838.000,3845.5648,N,07707.7335,W,2,07,1.17,35.6,M,-33.5,M,0000,0000*61
$GPRMC,142838.250,A,3845.5648,N,07707.7335,W,0.03,13.66,010821,,,D*41
$GPGGA,142838.500,3845.5648,N,07707.7335,W,2,07,1.27,35.6,M,-33.5,M,0000,0000*67
$GPRMC,142838.750,A,3845.5649,N,07707.7335,W,0.13,11.56,010821,,,D*45
$GPGGA,142839.000,3845.5649,N,07707.7335,W,2,07,1.27,35.6,M,-33.5,M,0000,0000*62
$GPRMC,142839.250,A,3845.5649,N,07707.7335,W,0.10,0.31,010821,,,D*73
$GPGGA,142839.500,3845.5649,N,07707.7335,W,2,07,1.27,35.6,M,-33.5,M,0000,0000*67
$GPRMC,142839.750,A,3845.5649,N,07707.7335,W,0.13,358.06,010821,,,D*7F
$GPGGA,142840.000,3845.5649,N,07707.7335,W,2,07,1.27,35.6,M,-33.5,M,0000,0000*6C
$GPRMC,142840.250,A,3845.5649,N,07707.7335,W,0.12,349.21,010821,,,D*70
$GPGGA,142840.500,3845.5649,N,07707.7335,W,2,07,1.27,35.6,M,-33.5,M,0000,0000*69
$GPRMC,142840.750,A,3845.5649,N,07707.7335,W,0.07,327.07,010821,,,D*7D
$GPGGA,142841.000,3845.5649,N,07707.7335,W,2,07,1.17,35.6,M,-33.5,M,0000,0000*6E
$GPRMC,142841.250,A,3845.5649,N,07707.7335,W,0.06,339.54,010821,,,D*71
$GPGGA,142841.500,3845.5649,N,07707.7335,W,2,07,1.17,35.6,M,-33.5,M,0000,0000*6B
$GPRMC,142841.750,A,3845.5649,N,07707.7335,W,0.08,5.79,010821,,,D*79
$GPGGA,142842.000,3845.5649,N,07707.7335,W,2,07,1.27,35.6,M,-33.5,M,0000,0000*6E
$GPRMC,142842.250,A,3845.5649,N,07707.7335,W,0.04,16.04,010821,,,D*4B
$GPGGA,142842.500,3845.5649,N,07707.7335,W,2,07,1.17,35.6,M,-33.5,M,0000,0000*68
$GPRMC,142842.750,A,3845.5650,N,07707.7335,W,0.04,190.26,010821,,,D*79
$GPGGA,142843.000,3845.5649,N,07707.7335,W,2,07,1.17,35.6,M,-33.5,M,0000,0000*6C
$GPRMC,142843.250,A,3845.5649,N,07707.7335,W,0.04,149.04,010821,,,D*71
$GPGGA,142843.500,3845.5649,N,07707.7335,W,2,07,1.17,35.6,M,-33.5,M,0000,0000*69
$GPRMC,142843.750,A,3845.5649,N,07707.7335,W,0.06,99.05,010821,,,D*4B
$GPGGA,142844.000,3845.5649,N,07707.7335,W,2,07,1.17,35.5,M,-33.5,M,0000,0000*68
$GPRMC,142844.250,A,3845.5649,N,07707.7335,W,0.08,64.60,010821,,,D*46
$GPGGA,142844.500,3845.5649,N,07707.7335,W,2,07,1.17,35.5,M,-33.5,M,0000,0000*6D
$GPRMC,142844.750,A,3845.5649,N,07707.7335,W,0.05,103.62,010821,,,D*7C
$GPGGA,142845.000,3845.5649,N,07707.7335,W,2,07,1.17,35.5,M,-33.5,M,0000,0000*69
$GPRMC,142845.250,A,3845.5649,N,07707.7335,W,0.07,164.12,010821,,,D*7C
$GPGGA,142845.500,3845.5649,N,07707.7335,W,2,07,1.17,35.5,M,-33.5,M,0000,0000*6C
$GPRMC,142845.750,A,3845.5649,N,07707.7335,W,0.11,175.28,010821,,,D*77
$GPGGA,142846.000,3845.5649,N,07707.7335,W,2,07,1.17,35.5,M,-33.5,M,0000,0000*6A
$GPRMC,142846.250,A,3845.5649,N,07707.7335,W,0.14,171.75,010821,,,D*78
$GPGGA,142846.500,3845.5649,N,07707.7334,W,2,07,1.17,35.5,M,-33.5,M,0000,0000*6E
$GPRMC,142846.750,A,3845.5649,N,07707.7334,W,0.15,181.03,010821,,,D*73
$GPGGA,142847.000,3845.5649,N,07707.7334,W,2,07,1.17,35.5,M,-33.5,M,0000,0000*6A
$GPRMC,142847.250,A,3845.5649,N,07707.7334,W,0.09,169.91,010821,,,D*77
$GPGGA,142847.500,3845.5649,N,07707.7334,W,2,07,1.17,35.5,M,-33.5,M,0000,0000*6F
$GPRMC,142847.750,A,3845.5649,N,07707.7334,W,0.10,226.95,010821,,,D*76
$GPGGA,142848.000,3845.5648,N,07707.7335,W,2,07,1.17,35.5,M,-33.5,M,0000,0000*65
$GPRMC,142848.250,A,3845.5648,N,07707.7335,W,0.24,243.77,010821,,,D*74
$GPGGA,142848.500,3845.5648,N,07707.7335,W,2,07,1.17,35.5,M,-33.5,M,0000,0000*60
$GPRMC,142848.750,A,3845.5648,N,07707.7335,W,0.19,234.81,010821,,,D*76
$GPGGA,142849.000,3845.5648,N,07707.7335,W,2,07,1.17,35.5,M,-33.5,M,0000,0000*64
$GPRMC,142849.250,A,3845.5648,N,07707.7335,W,0.10,318.35,010821,,,D*7B
$GPGGA,142849.500,3845.5648,N,07707.7335,W,2,07,1.17,35.5,M,-33.5,M,0000,0000*61
$GPRMC,142849.750,A,3845.5648,N,07707.7335,W,0.04,342.55,010821,,,D*72
$GPGGA,142850.000,3845.5648,N,07707.7335,W,2,07,1.17,35.5,M,-33.5,M,0000,0000*6C
$GPRMC,142850.250,A,3845.5648,N,07707.7335,W,0.05,272.30,010821,,,D*7F
$GPGGA,142850.500,3845.5648,N,07707.7335,W,2,07,1.17,35.5,M,-33.5,M,0000,0000*69
$GPRMC,142850.750,A,3845.5648,N,07707.7335,W,0.01,240.60,010821,,,D*7A
$GPGGA,142851.000,3845.5648,N,07707.7335,W,2,07,1.17,35.5,M,-33.5,M,0000,0000*6D
$GPRMC,142851.250,A,3845.5648,N,07707.7335,W,0.02,257.52,010821,,,D*7A
$GPGGA,142851.500,3845.5648,N,07707.7335,W,2,07,1.17,35.5,M,-33.5,M,0000,0000*68
$GPRMC,142851.750,A,3845.5648,N,07707.7335,W,0.02,166.48,010821,,,D*75
$GPGGA,142852.000,3845.5648,N,07707.7335,W,2,07,1.17,35.5,M,-33.5,M,0000,0000*6E
$GPRMC,142852.250,A,3845.5648,N,07707.7335,W,0.05,165.14,010821,,,D*7E
$GPGGA,142852.500,3845.5648,N,07707.7335,W,2,07,1.17,35.5,M,-33.5,M,0000,0000*6B
$GPRMC,142852.750,A,3845.5648,N,07707.7335,W,0.01,215.13,010821,,,D*7C
$GPGGA,142853.000,3845.5648,N,07707.7335,W,2,07,1.17,35.5,M,-33.5,M,0000,0000*6F
$GPRMC,142853.250,A,3845.5648,N,07707.7335,W,0.02,353.94,010821,,,D*77
$GPGGA,142853.500,3845.5648,N,07707.7335,W,2,07,1.17,35.5,M,-33.5,M,0000,0000*6A
$GPRMC,142853.750,A,3845.5648,N,07707.7335,W,0.04,332.11,010821,,,D*7E
$GPGGA,142854.000,3845.5648,N,07707.7335,W,2,07,1.17,35.5,M,-33.5,M,0000,0000*68
$GPRMC,142854.250,A,3845.5648,N,07707.7335,W,0.02,8.78,010821,,,D*7F
$GPGGA,142854.500,3845.5648,N,07707.7335,W,2,07,1.17,35.5,M,-33.5,M,0000,0000*6D
$GPRMC,142854.750,A,3845.5648,N,07707.7335,W,0.03,173.44,010821,,,D*79
$GPGGA,142855.000,3845.5648,N,07707.7335,W,2,07,1.17,35.5,M,-33.5,M,0000,0000*69
$GPRMC,142855.250,A,3845.5648,N,07707.7335,W,0.01,251.71,010821,,,D*7A
$GPGGA,142855.500,3845.5648,N,07707.7335,W,2,07,1.17,35.5,M,-33.5,M,0000,0000*6C
$GPRMC,142855.750,A,3845.5648,N,07707.7335,W,0.01,202.74,010821,,,D*7C
$GPGGA,142856.000,3845.5648,N,07707.7335,W,2,07,1.17,35.5,M,-33.5,M,0000,0000*6A
$GPRMC,142856.250,A,3845.5648,N,07707.7335,W,0.00,229.02,010821,,,D*73
$GPGGA,142856.500,3845.5648,N,07707.7335,W,2,07,1.17,35.5,M,-33.5,M,0000,0000*6F
$GPRMC,142856.750,A,3845.5648,N,07707.7335,W,0.00,204.18,010821,,,D*72
$GPGGA,142857.000,3845.5648,N,07707.7335,W,2,07,1.17,35.5,M,-33.5,M,0000,0000*6B
$GPRMC,142857.250,A,3845.5648,N,07707.7335,W,0.00,237.36,010821,,,D*7A
$GPGGA,142857.500,3845.5648,N,07707.7335,W,2,07,1.17,35.5,M,-33.5,M,0000,0000*6E
$GPRMC,142857.750,A,3845.5648,N,07707.7335,W,0.00,170.50,010821,,,D*7F
$GPGGA,142858.000,3845.5648,N,07707.7335,W,2,07,1.17,35.5,M,-33.5,M,0000,0000*64
$GPRMC,142858.250,A,3845.5648,N,07707.7335,W,0.01,208.34,010821,,,D*7A
$GPGGA,142858.500,3845.5648,N,07707.7335,W,2,07,1.17,35.5,M,-33.5,M,0000,0000*61
$GPRMC,142858.750,A,3845.5648,N,07707.7335,W,0.01,109.57,010821,,,D*78
$GPGGA,142859.000,3845.5648,N,07707.7335,W,2,07,1.17,35.5,M,-33.5,M,0000,0000*65
$GPRMC,142859.250,A,3845.5648,N,07707.7335,W,0.00,165.13,010821,,,D*77
$GPGGA,142859.500,3845.5648,N,07707.7335,W,2,07,1.17,35.5,M,-33.5,M,0000,0000*60
$GPRMC,142859.750,A,3845.5648,N,07707.7335,W,0.00,154.52,010821,,,D*75
$GPGGA,142900.000,3845.5648,N,07707.7335,W,2,07,1.17,35.5,M,-33.5,M,0000,0000*68
$GPRMC,142900.250,A,3845.5648,N,07707.7335,W,0.01,148.34,010821,,,D*71
$GPGGA,142900.500,3845.5648,N,07707.7335,W,2,07,1.17,35.5,M,-33.5,M,0000,0000*6D
$GPRMC,142900.750,A,3845.5648,N,07707.7335,W,0.00,70.33,010821,,,D*48
$GPGGA,142901.000,3845.5648,N,07707.7335,W,2,07,1.17,35.5,M,-33.5,M,0000,0000*69
$GPRMC,142901.250,A,3845.5648,N,07707.7335,W,0.00,106.37,010821,,,D*78
$GPGGA,142901.500,3845.5648,N,07707.7335,W,2,07,1.17,35.5,M,-33.5,M,0000,0000*6C
$GPRMC,142901.750,A,3845.5648,N,07707.7335,W,0.01,275.99,010821,,,D*7F
$GPGGA,142902.000,3845.5648,N,07707.7335,W,2,07,1.17,35.5,M,-33.5,M,0000,0000*6A
$GPRMC,142902.250,A,3845.5648,N,07707.7335,W,0.01,271.62,010821,,,D*79
$GPGGA,142902.500,3845.5648,N,07707.7335,W,2,07,1.17,35.5,M,-33.5,M,0000,0000*6F
$GPRMC,142902.750,A,3845.5648,N,07707.7335,W,0.00,118.00,010821,,,D*75
$GPGGA,142903.000,3845.5648,N,07707.7335,W,2,07,1.17,35.5,M,-33.5,M,0000,0000*6B
$GPRMC,142903.250,A,3845.5648,N,07707.7335,W,0.00,185.66,010821,,,D*75
$GPGGA,142903.500,3845.5648,N,07707.7335,W,2,07,1.17,35.5,M,-33.5,M,0000,0000*6E
$GPRMC,142903.750,A,3845.5648,N,07707.7335,W,0.01,162.39,010821,,,D*72
$GPGGA,142904.000,3845.5648,N,07707.7335,W,2,07,1.17,35.5,M,-33.5,M,0000,0000*6C
$GPRMC,142904.250,A,3845.5648,N,07707.7335,W,0.01,211.36,010821,,,D*78
$GPGGA,142904.500,3845.5648,N,07707.7335,W,2,07,1.17,35.5,M,-33.5,M,0000,0000*69
$GPRMC,142904.750,A,3845.5648,N,07707.7335,W,0.01,203.51,010821,,,D*7F
$GPGGA,142905.000,3845.5648,N,07707.7335,W,2,07,1.17,35.5,M,-33.5,M,0000,0000*6D
$GPRMC,142905.250,A,3845.5648,N,07707.7335,W,0.01,230.82,010821,,,D*75
$GPGGA,142905.500,3845.5648,N,07707.7335,W,2,07,1.17,35.5,M,-33.5,M,0000,0000*68
$GPRMC,142905.750,A,3845.5648,N,07707.7335,W,0.01,215.66,010821,,,D*7D
$GPGGA,142906.000,3845.5648,N,07707.7335,W,2,07,1.17,35.5,M,-33.5,M,0000,0000*6E
$GPRMC,142906.250,A,3845.5648,N,07707.7335,W,0.02,215.75,010821,,,D*7A
$GPGGA,142906.500,3845.5648,N,07707.7335,W,2,07,1.17,35.5,M,-33.5,M,0000,0000*6B
$GPRMC,142906.750,A,3845.5648,N,07707.7335,W,0.01,185.67,010821,,,D*75
$GPGGA,142907.000,3845.5648,N,07707.7335,W,2,07,1.17,35.5,M,-33.5,M,0000,0000*6F
$GPRMC,142907.250,A,3845.5648,N,07707.7335,W,0.01,149.04,010821,,,D*74
$GPGGA,142907.500,3845.5648,N,07707.7335,W,2,07,1.17,35.5,M,-33.5,M,0000,0000*6A
$GPRMC,142907.750,A,3845.5648,N,07707.7335,W,0.01,172.54,010821,,,D*7C
$GPGGA,142908.000,3845.5648,N,07707.7335,W,2,07,1.17,35.5,M,-33.5,M,0000,0000*60
$GPRMC,142908.250,A,3845.5648,N,07707.7335,W,0.00,177.13,010821,,,D*71
$GPGGA,142908.500,3845.5648,N,07707.7335,W,2,07,1.17,35.5,M,-33.5,M,0000,0000*65
$GPRMC,142908.750,A,3845.5648,N,07707.7335,W,0.01,164.41,010821,,,D*70
$GPGGA,142909.000,3845.5648,N,07707.7335,W,2,07,1.17,35.5,M,-33.5,M,0000,0000*61
$GPRMC,142909.250,A,3845.5648,N,07707.7335,W,0.01,164.21,010821,,,D*72
$GPGGA,142909.500,3845.5648,N,07707.7335,W,2,07,1.17,35.5,M,-33.5,M,0000,0000*64
$GPRMC,142909.750,A,3845.5648,N,07707.7335,W,0.01,194.29,010821,,,D*70
$GPGGA,142910.000,3845.5648,N,07707.7335,W,2,07,1.17,35.5,M,-33.5,M,0000,0000*69
$GPRMC,142910.250,A,3845.5648,N,07707.7335,W,0.01,188.83,010821,,,D*70
$GPGGA,142910.500,3845.5648,N,07707.7335,W,2,07,1.17,35.5,M,-33.5,M,0000,0000*6C
$GPRMC,142910.750,A,3845.5648,N,07707.7335,W,0.01,192.81,010821,,,D*7C
$GPGGA,142911.000,3845.5648,N,07707.7335,W,2,07,1.17,35.5,M,-33.5,M,0000,0000*68
$GPRMC,142911.250,A,3845.5648,N,07707.7335,W,0.01,253.85,010821,,,D*72
$GPGGA,142911.500,3845.5648,N,07707.7335,W,2,07,1.17,35.5,M,-33.5,M,0000,0000*6D
$GPRMC,142911.750,A,3845.5648,N,07707.7335,W,0.01,290.36,010821,,,D*70
$GPGGA,142912.000,3845.5648,N,07707.7335,W,2,07,1.17,35.5,M,-33.5,M,0000,0000*6B
$GPRMC,142912.250,A,3845.5648,N,07707.7335,W,0.02,350.31,010821,,,D*7F
$GPGGA,142912.500,3845.5648,N,07707.7335,W,2,07,1.17,35.5,M,-33.5,M,0000,0000*6E
$GPRMC,142912.750,A,3845.5648,N,07707.7335,W,0.01,78.70,010821,,,D*45
$GPGGA,142913.000,3845.5648,N,07707.7335,W,2,07,1.17,35.5,M,-33.5,M,0000,0000*6A
$GPRMC,142913.250,A,3845.5648,N,07707.7335,W,0.00,16.10,010821,,,D*4E
$GPGGA,142913.500,3845.5648,N,07707.7335,W,2,07,1.17,35.5,M,-33.5,M,0000,0000*6F
$GPRMC,142913.750,A,3845.5648,N,07707.7335,W,0.01,320.10,010821,,,D*7C
$GPGGA,142914.000,3845.5648,N,07707.7335,W,2,07,1.17,35.5,M,-33.5,M,0000,0000*6D
$GPRMC,142914.250,A,3845.5648,N,07707.7335,W,0.01,56.77,010821,,,D*4D
$GPGGA,142914.500,3845.5648,N,07707.7335,W,2,07,1.17,35.5,M,-33.5,M,0000,0000*68
$GPRMC,142914.750,A,3845.5648,N,07707.7335,W,0.01,328.45,010821,,,D*73
$GPGGA,142915.000,3845.5648,N,07707.7335,W,2,07,1.17,35.5,M,-33.5,M,0000,0000*6C
$GPRMC,142915.250,A,3845.5648,N,07707.7335,W,0.00,0.00,010821,,,D*7E
$GPGGA,142915.500,3845.5648,N,07707.7335,W,2,07,1.17,35.5,M,-33.5,M,0000,0000*69
$GPRMC,142915.750,A,3845.5648,N,07707.7335,W,0.01,135.96,010821,,,D*72
$GPGGA,142916.000,3845.5648,N,07707.7335,W,2,07,1.17,35.5,M,-33.5,M,0000,0000*6F
$GPRMC,142916.250,A,3845.5648,N,07707.7335,W,0.01,195.63,010821,,,D*74
$GPGGA,142916.500,3845.5648,N,07707.7335,W,2,07,1.17,35.5,M,-33.5,M,0000,0000*6A
$GPRMC,142916.750,A,3845.5648,N,07707.7335,W,0.02,129.47,010821,,,D*73
$GPGGA,142917.000,3845.5648,N,07707.7335,W,2,07,1.17,35.5,M,-33.5,M,0000,0000*6E
$GPRMC,142917.250,A,3845.5648,N,07707.7335,W,0.00,96.92,010821,,,D*48
$GPGGA,142917.500,3845.5648,N,07707.7335,W,2,07,1.17,35.5,M,-33.5,M,0000,0000*6B
$GPRMC,142917.750,A,3845.5648,N,07707.7335,W,0.00,348.26,010821,,,D*72
$GPGGA,142918.000,3845.5648,N,07707.7335,W,2,07,1.17,35.5,M,-33.5,M,0000,0000*61
$GPRMC,142918.250,A,3845.5648,N,07707.7335,W,0.00,266.72,010821,,,D*74
$GPGGA,142918.500,3845.5648,N,07707.7335,W,2,07,1.17,35.5,M,-33.5,M,0000,0000*64
$GPRMC,142918.750,A,3845.5648,N,07707.7335,W,0.00,300.06,010821,,,D*73
$GPGGA,142919.000,3845.5648,N,07707.7335,W,2,07,1.17,35.5,M,-33.5,M,0000,0000*60
$GPRMC,142919.250,A,3845.5648,N,07707.7335,W,0.02,207.45,010821,,,D*74
$GPGGA,142919.500,3845.5648,N,07707.7335,W,2,07,1.17,35.5,M,-33.5,M,0000,0000*65
$GPRMC,142919.750,A,3845.5648,N,07707.7335,W,0.00,120.09,010821,,,D*7D
$GPGGA,142920.000,3845.5648,N,07707.7335,W,2,07,1.17,35.5,M,-33.5,M,0000,0000*6A
$GPRMC,142920.250,A,3845.5648,N,07707.7335,W,0.01,163.99,010821,,,D*7D
$GPGGA,142920.500,3845.5648,N,07707.7335,W,2,07,1.17,35.5,M,-33.5,M,0000,0000*6F
$GPRMC,142920.750,A,3845.5648,N,07707.7335,W,0.01,148.91,010821,,,D*79
$GPGGA,142921.000,3845.5647,N,07707.7335,W,2,07,1.17,35.5,M,-33.5,M,0000,0000*64
$GPRMC,142921.250,A,3845.5647,N,07707.7335,W,0.01,125.72,010821,,,D*74
$GPGGA,142921.500,3845.5647,N,07707.7335,W,2,07,1.17,35.5,M,-33.5,M,0000,0000*61
$GPRMC,142921.750,A,3845.5647,N,07707.7335,W,0.01,198.29,010821,,,D*79
$GPGGA,142922.000,3845.5647,N,07707.7335,W,2,07,1.17,35.5,M,-33.5,M,0000,0000*67
$GPRMC,142922.250,A,3845.5647,N,07707.7335,W,0.03,191.62,010821,,,D*7B
$GPGGA,142922.500,3845.5647,N,07707.7335,W,2,07,1.17,35.5,M,-33.5,M,0000,0000*62
$GPRMC,142922.750,A,3845.5647,N,07707.7335,W,0.01,217.27,010821,,,D*70
$GPGGA,142923.000,3845.5647,N,07707.7335,W,2,07,1.17,35.5,M,-33.5,M,0000,0000*66
$GPRMC,142923.250,A,3845.5647,N,07707.7335,W,0.01,158.15,010821,,,D*7D
$GPGGA,142923.500,3845.5647,N,07707.7335,W,2,07,1.17,35.5,M,-33.5,M,0000,0000*63
$GPRMC,142923.750,A,3845.5647,N,07707.7335,W,0.01,126.76,010821,,,D*74
$GPGGA,142924.000,3845.5647,N,07707.7335,W,2,07,1.17,35.5,M,-33.5,M,0000,0000*61
$GPRMC,142924.250,A,3845.5647,N,07707.7335,W,0.01,149.35,010821,,,D*78
$GPGGA,142924.500,3845.5647,N,07707.7335,W,2,07,1.17,35.5,M,-33.5,M,0000,0000*64
$GPRMC,142924.750,A,3845.5647,N,07707.7335,W,0.01,208.12,010821,,,D*7E
$GPGGA,142925.000,3845.5647,N,07707.7335,W,2,07,1.17,35.5,M,-33.5,M,0000,0000*60
$GPRMC,142925.250,A,3845.5647,N,07707.7335,W,0.01,229.15,010821,,,D*7E
$GPGGA,142925.500,3845.5647,N,07707.7335,W,2,07,1.17,35.5,M,-33.5,M,0000,0000*65
$GPRMC,142925.750,A,3845.5647,N,07707.7335,W,0.02,198.49,010821,,,D*78
$GPGGA,142926.000,3845.5647,N,07707.7335,W,2,07,1.17,35.5,M,-33.5,M,0000,0000*63
$GPRMC,142926.250,A,3845.5647,N,07707.7335,W,0.01,183.56,010821,,,D*79
$GPGGA,142926.500,3845.5647,N,07707.7335,W,2,07,1.17,35.5,M,-33.5,M,0000,0000*66
$GPRMC,142926.750,A,3845.5647,N,07707.7335,W,0.00,0.00,010821,,,D*74
$GPGGA,142927.000,3845.5647,N,07707.7335,W,2,07,1.17,35.5,M,-33.5,M,0000,0000*62
$GPRMC,142927.250,A,3845.5647,N,07707.7335,W,0.01,106.85,010821,,,D*7B
$GPGGA,142927.500,3845.5647,N,07707.7335,W,2,07,1.17,35.5,M,-33.5,M,0000,0000*67
$GPRMC,142927.750,A,3845.5647,N,07707.7335,W,0.00,168.24,010821,,,D*7C
$GPGGA,142928.000,3845.5647,N,07707.7335,W,2,07,1.17,35.5,M,-33.5,M,0000,0000*6D
$GPRMC,142928.250,A,3845.5647,N,07707.7335,W,0.01,124.39,010821,,,D*73
$GPGGA,142928.500,3845.5647,N,07707.7335,W,2,07,1.17,35.5,M,-33.5,M,0000,0000*68
$GPRMC,142928.750,A,3845.5647,N,07707.7335,W,0.01,228.46,010821,,,D*71
$GPGGA,142929.000,3845.5647,N,07707.7335,W,2,07,1.17,35.5,M,-33.5,M,0000,0000*6C
$GPRMC,142929.250,A,3845.5647,N,07707.7335,W,0.00,219.64,010821,,,D*76
$GPGGA,142929.500,3845.5647,N,07707.7335,W,2,07,1.17,35.5,M,-33.5,M,0000,0000*69
$GPRMC,142929.750,A,3845.5647,N,07707.7335,W,0.01,164.37,010821,,,D*7D
$GPGGA,142930.000,3845.5647,N,07707.7335,W,2,07,1.17,35.5,M,-33.5,M,0000,0000*64
$GPRMC,142930.250,A,3845.5647,N,07707.7335,W,0.01,165.13,010821,,,D*77
$GPGGA,142930.500,3845.5647,N,07707.7335,W,2,07,1.17,35.5,M,-33.5,M,0000,0000*61
$GPRMC,142930.750,A,3845.5647,N,07707.7335,W,0.01,158.59,010821,,,D*72
$GPGGA,142931.000,3845.5647,N,07707.7335,W,2,07,1.17,35.5,M,-33.5,M,0000,0000*65
$GPRMC,142931.250,A,3845.5647,N,07707.7335,W,0.01,168.22,010821,,,D*79
$GPGGA,142931.500,3845.5647,N,07707.7335,W,2,07,1.17,35.5,M,-33.5,M,0000,0000*60
$GPRMC,142931.750,A,3845.5647,N,07707.7335,W,0.01,138.45,010821,,,D*78
$GPGGA,142932.000,3845.5647,N,07707.7335,W,2,07,1.17,35.5,M,-33.5,M,0000,0000*66
$GPRMC,142932.250,A,3845.5647,N,07707.7335,W,0.00,199.18,010821,,,D*7C
$GPGGA,142932.500,3845.5647,N,07707.7335,W,2,07,1.17,35.5,M,-33.5,M,0000,0000*63
$GPRMC,142932.750,A,3845.5647,N,07707.7335,W,0.01,142.58,010821,,,D*7A
$GPGGA,142933.000,3845.5647,N,07707.7335,W,2,07,1.17,35.5,M,-33.5,M,0000,0000*67
$GPRMC,142933.250,A,3845.5647,N,07707.7335,W,0.00,171.73,010821,,,D*76
$GPGGA,142933.500,3845.5647,N,07707.7335,W,2,07,1.17,35.5,M,-33.5,M,0000,0000*62
$GPRMC,142933.750,A,3845.5647,N,07707.7335,W,0.01,166.52,010821,,,D*77
$GPGGA,142934.000,3845.5647,N,07707.7335,W,2,07,1.17,35.5,M,-33.5,M,0000,0000*60
$GPRMC,142934.250,A,3845.5647,N,07707.7335,W,0.01,156.89,010821,,,D*70
$GPGGA,142934.500,3845.5647,N,07707.7335,W,2,07,1.17,35.5,M,-33.5,M,0000,0000*65
$GPRMC,142934.750,A,3845.5647,N,07707.7335,W,0.02,148.54,010821,,,D*79
$GPGGA,142935.000,3845.5647,N,07707.7335,W,2,07,1.17,35.5,M,-33.5,M,0000,0000*61
$GPRMC,142935.250,A,3845.5647,N,07707.7335,W,0.01,92.46,010821,,,D*4B
$GPGGA,142935.500,3845.5647,N,07707.7335,W,2,07,1.17,35.5,M,-33.5,M,0000,0000*64
$GPRMC,142935.750,A,3845.5647,N,07707.7335,W,0.00,97.78,010821,,,D*47
$GPGGA,142936.000,3845.5647,N,07707.7335,W,2,07,1.17,35.5,M,-33.5,M,0000,0000*62
$GPRMC,142936.250,A,3845.5647,N,07707.7335,W,0.01,95.82,010821,,,D*47
$GPGGA,142936.500,3845.5647,N,07707.7335,W,2,07,1.17,35.5,M,-33.5,M,0000,0000*67
$GPRMC,142936.750,A,3845.5647,N,07707.7335,W,0.01,156.21,010821,,,D*75
$GPGGA,142937.000,3845.5647,N,07707.7335,W,2,07,1.17,35.5,M,-33.5,M,0000,0000*63
$GPRMC,142937.250,A,3845.5647,N,07707.7335,W,0.01,81.34,010821,,,D*4E
$GPGGA,142937.500,3845.5647,N,07707.7335,W,2,07,1.17,35.5,M,-33.5,M,0000,0000*66
$GPRMC,142937.750,A,3845.5647,N,07707.7335,W,0.01,104.02,010821,,,D*72
$GPGGA,142938.000,3845.5647,N,07707.7335,W,2,07,1.17,35.5,M,-33.5,M,0000,0000*6C
$GPRMC,142938.250,A,3845.5647,N,07707.7335,W,0.01,103.29,010821,,,D*76
$GPGGA,142938.500,3845.5647,N,07707.7335,W,2,07,1.17,35.5,M,-33.5,M,0000,0000*69
$GPRMC,142938.750,A,3845.5647,N,07707.7335,W,0.01,89.48,010821,,,D*47
$GPGGA,142939.000,3845.5647,N,07707.7335,W,2,07,1.17,35.5,M,-33.5,M,0000,0000*6D
$GPRMC,142939.250,A,3845.5647,N,07707.7335,W,0.01,157.34,010821,,,D*7A
$GPGGA,142939.500,3845.5647,N,07707.7335,W,2,07,1.17,35.5,M,-33.5,M,0000,0000*68
$GPRMC,142939.750,A,3845.5647,N,07707.7335,W,0.01,129.30,010821,,,D*72
$GPGGA,142940.000,3845.5647,N,07707.7335,W,2,07,1.17,35.5,M,-33.5,M,0000,0000*63
$GPRMC,142940.250,A,3845.5647,N,07707.7335,W,0.00,44.54,010821,,,D*40
$GPGGA,142940.500,3845.5647,N,07707.7335,W,2,07,1.17,35.5,M,-33.5,M,0000,0000*66
$GPRMC,142940.750,A,3845.5646,N,07707.7334,W,0.00,133.01,010821,,,D*74
$GPGGA,142941.000,3845.5646,N,07707.7334,W,2,07,1.17,35.5,M,-33.5,M,0000,0000*62
$GPRMC,142941.250,A,3845.5646,N,07707.7334,W,0.00,129.21,010821,,,D*79
$GPGGA,142941.500,3845.5646,N,07707.7334,W,2,07,1.17,35.5,M,-33.5,M,0000,0000*67
$GPRMC,142941.750,A,3845.5646,N,07707.7334,W,0.01,121.34,010821,,,D*71
$GPGGA,142942.000,3845.5646,N,07707.7334,W,2,07,1.17,35.5,M,-33.5,M,0000,0000*61
$GPRMC,142942.250,A,3845.5646,N,07707.7334,W,0.01,152.14,010821,,,D*71
$GPGGA,142942.500,3845.5646,N,07707.7334,W,2,07,1.17,35.5,M,-33.5,M,0000,0000*64
$GPRMC,142942.750,A,3845.5646,N,07707.7334,W,0.01,193.43,010821,,,D*7B
$GPGGA,142943.000,3845.5646,N,07707.7334,W,2,07,1.17,35.5,M,-33.5,M,0000,0000*60
$GPRMC,142943.250,A,3845.5646,N,07707.7334,W,0.01,173.29,010821,,,D*7D
$GPGGA,142943.500,3845.5646,N,07707.7334,W,2,07,1.17,35.5,M,-33.5,M,0000,0000*65
$GPRMC,142943.750,A,3845.5646,N,07707.7334,W,0.01,98.10,010821,,,D*46
$GPGGA,142944.000,3845.5646,N,07707.7334,W,2,07,1.17,35.5,M,-33.5,M,0000,0000*67
$GPRMC,142944.250,A,3845.5646,N,07707.7334,W,0.01,102.67,010821,,,D*76
$GPGGA,142944.500,3845.5646,N,07707.7334,W,2,07,1.17,35.5,M,-33.5,M,0000,0000*62
$GPRMC,142944.750,A,3845.5646,N,07707.7334,W,0.01,99.23,010821,,,D*40
$GPGGA,142945.000,3845.5646,N,07707.7334,W,2,07,1.17,35.5,M,-33.5,M,0000,0000*66
$GPRMC,142945.250,A,3845.5646,N,07707.7334,W,0.01,184.13,010821,,,D*7A
$GPGGA,142945.500,3845.5646,N,07707.7334,W,2,07,1.17,35.5,M,-33.5,M,0000,0000*63
$GPRMC,142945.750,A,3845.5646,N,07707.7334,W,0.01,135.85,010821,,,D*7A
$GPGGA,142946.000,3845.5646,N,07707.7334,W,2,07,1.17,35.5,M,-33.5,M,0000,0000*65
$GPRMC,142946.250,A,3845.5646,N,07707.7334,W,0.01,63.87,010821,,,D*4C
$GPGGA,142946.500,3845.5646,N,07707.7334,W,2,07,1.17,35.5,M,-33.5,M,0000,0000*60
$GPRMC,142946.750,A,3845.5646,N,07707.7334,W,0.00,44.12,010821,,,D*41
$GPGGA,142947.000,3845.5646,N,07707.7334,W,2,07,1.17,35.5,M,-33.5,M,0000,0000*64
$GPRMC,142947.250,A,3845.5646,N,07707.7334,W,0.00,152.18,010821,,,D*79
$GPGGA,142947.500,3845.5646,N,07707.7334,W,2,07,1.17,35.5,M,-33.5,M,0000,0000*61
$GPRMC,142947.750,A,3845.5646,N,07707.7334,W,0.00,107.22,010821,,,D*75
$GPGGA,142948.000,3845.5646,N,07707.7334,W,2,07,1.17,35.5,M,-33.5,M,0000,0000*6B
$GPRMC,142948.250,A,3845.5646,N,07707.7334,W,0.00,164.13,010821,,,D*78
$GPGGA,142948.500,3845.5646,N,07707.7334,W,2,07,1.17,35.5,M,-33.5,M,0000,0000*6E
$GPRMC,142948.750,A,3845.5646,N,07707.7334,W,0.00,109.11,010821,,,D*74
$GPGGA,142949.000,3845.5646,N,07707.7334,W,2,07,1.17,35.5,M,-33.5,M,0000,0000*6A
$GPRMC,142949.250,A,3845.5646,N,07707.7334,W,0.00,356.58,010821,,,D*75
$GPGGA,142949.500,3845.5646,N,07707.7334,W,2,07,1.17,35.5,M,-33.5,M,0000,0000*6F
$GPRMC,142949.750,A,3845.5646,N,07707.7334,W,0.01,76.81,010821,,,D*44
$GPGGA,142950.000,3845.5646,N,07707.7334,W,2,07,1.17,35.5,M,-33.5,M,0000,0000*62
$GPRMC,142950.250,A,3845.5646,N,07707.7334,W,0.00,160.05,010821,,,D*72
$GPGGA,142950.500,3845.5646,N,07707.7334,W,2,07,1.17,35.5,M,-33.5,M,0000,0000*67
$GPRMC,142950.750,A,3845.5646,N,07707.7334,W,0.00,92.19,010821,,,D*46
$GPGGA,142951.000,3845.5646,N,07707.7334,W,2,07,1.17,35.5,M,-33.5,M,0000,0000*63
$GPRMC,142951.250,A,3845.5646,N,07707.7334,W,0.01,95.08,010821,,,D*44
$GPGGA,142951.500,3845.5646,N,07707.7334,W,2,07,1.17,35.5,M,-33.5,M,0000,0000*66
$GPRMC,142951.750,A,3845.5646,N,07707.7334,W,0.00,149.62,010821,,,D*7C
$GPGGA,142952.000,3845.5646,N,07707.7334,W,2,07,1.17,35.5,M,-33.5,M,0000,0000*60
$GPRMC,142952.250,A,3845.5646,N,07707.7334,W,0.02,243.98,010821,,,D*74
$GPGGA,142952.500,3845.5646,N,07707.7334,W,2,07,1.17,35.5,M,-33.5,M,0000,0000*65
$GPRMC,142952.750,A,3845.5646,N,07707.7334,W,0.00,249.79,010821,,,D*76
$GPGGA,142953.000,3845.5646,N,07707.7334,W,2,07,1.17,35.5,M,-33.5,M,0000,0000*61
$GPRMC,142953.250,A,3845.5646,N,07707.7334,W,0.01,77.42,010821,,,D*44
$GPGGA,142953.500,3845.5646,N,07707.7334,W,2,07,1.17,35.5,M,-33.5,M,0000,0000*64
$GPRMC,142953.750,A,3845.5646,N,07707.7334,W,0.00,63.33,010821,,,D*43
$GPGGA,142954.000,3845.5646,N,07707.7334,W,2,07,1.17,35.5,M,-33.5,M,0000,0000*66
$GPRMC,142954.250,A,3845.5646,N,07707.7334,W,0.01,30.96,010821,,,D*49
$GPGGA,142954.500,3845.5646,N,07707.7334,W,2,07,1.17,35.5,M,-33.5,M,0000,0000*63
$GPRMC,142954.750,A,3845.5646,N,07707.7334,W,0.01,276.41,010821,,,D*76
$GPGGA,142955.000,3845.5646,N,07707.7334,W,2,07,1.17,35.5,M,-33.5,M,0000,0000*67
$GPRMC,142955.250,A,3845.5647,N,07707.7334,W,0.00,353.16,010821,,,D*76
$GPGGA,142955.500,3845.5647,N,07707.7333,W,2,07,1.17,35.5,M,-33.5,M,0000,0000*64
$GPRMC,142955.750,A,3845.5647,N,07707.7333,W,0.00,210.38,010821,,,D*7E
$GPGGA,142956.000,3845.5647,N,07707.7333,W,2,07,1.17,35.5,M,-33.5,M,0000,0000*62
$GPRMC,142956.250,A,3845.5647,N,07707.7332,W,0.01,60.73,010821,,,D*42
$GPGGA,142956.500,3845.5646,N,07707.7332,W,2,07,1.17,35.5,M,-33.5,M,0000,0000*67
$GPRMC,142956.750,A,3845.5646,N,07707.7332,W,0.00,107.03,010821,,,D*70
$GPGGA,142957.000,3845.5646,N,07707.7331,W,2,07,1.17,35.5,M,-33.5,M,0000,0000*60
$GPRMC,142957.250,A,3845.5645,N,07707.7331,W,0.01,192.72,010821,,,D*7F
$GPGGA,142957.500,3845.5645,N,07707.7331,W,2,07,1.17,35.6,M,-33.5,M,0000,0000*65
$GPRMC,142957.750,A,3845.5645,N,07707.7331,W,0.00,160.49,010821,,,D*7E
$GPGGA,142958.000,3845.5645,N,07707.7331,W,2,07,1.17,35.6,M,-33.5,M,0000,0000*6F
$GPRMC,142958.250,A,3845.5645,N,07707.7331,W,0.01,202.67,010821,,,D*7E
$GPGGA,142958.500,3845.5645,N,07707.7331,W,2,07,1.17,35.6,M,-33.5,M,0000,0000*6A
$GPRMC,142958.750,A,3845.5645,N,07707.7331,W,0.00,154.64,010821,,,D*79
$GPGGA,142959.000,3845.5645,N,07707.7331,W,2,07,1.17,35.6,M,-33.5,M,0000,0000*6E
$GPRMC,142959.250,A,3845.5645,N,07707.7331,W,0.00,49.94,010821,,,D*4F
$GPGGA,142959.500,3845.5645,N,07707.7331,W,2,07,1.17,35.6,M,-33.5,M,0000,0000*6B
$GPRMC,142959.750,A,3845.5645,N,07707.7331,W,0.01,133.15,010821,,,D*7E
$GPGGA,143000.000,3845.5644,N,07707.7331,W,2,07,1.17,35.6,M,-33.5,M,0000,0000*6B
$GPRMC,143000.250,A,3845.5643,N,07707.7331,W,0.01,205.56,010821,,,D*78
$GPGGA,143000.500,3845.5642,N,07707.7331,W,2,07,1.17,35.6,M,-33.5,M,0000,0000*68
$GPRMC,143000.750,A,3845.5642,N,07707.7331,W,0.01,208.01,010821,,,D*73
$GPGGA,143001.000,3845.5641,N,07707.7330,W,2,07,1.17,35.5,M,-33.5,M,0000,0000*6D
$GPRMC,143001.250,A,3845.5641,N,07707.7330,W,0.01,155.83,010821,,,D*74
$GPGGA,143001.500,3845.5640,N,07707.7330,W,2,07,1.17,35.5,M,-33.5,M,0000,0000*69
$GPRMC,143001.750,A,3845.5640,N,07707.7329,W,0.01,142.05,010821,,,D*70
$GPGGA,143002.000,3845.5639,N,07707.7329,W,2,07,1.17,35.5,M,-33.5,M,0000,0000*69
$GPRMC,143002.250,A,3845.5638,N,07707.7329,W,0.01,134.16,010821,,,D*7A
$GPGGA,143002.500,3845.5638,N,07707.7328,W,2,07,1.17,35.4,M,-33.5,M,0000,0000*6D
$GPRMC,143002.750,A,3845.5638,N,07707.7328,W,0.00,109.90,010821,,,D*7F
$GPGGA,143003.000,3845.5638,N,07707.7328,W,2,07,1.17,35.5,M,-33.5,M,0000,0000*68
$GPRMC,143003.250,A,3845.5638,N,07707.7328,W,0.01,356.80,010821,,,D*73
$GPGGA,143003.500,3845.5638,N,07707.7328,W,2,07,1.17,35.5,M,-33.5,M,0000,0000*6D
$GPRMC,143003.750,A,3845.5638,N,07707.7328,W,0.01,344.50,010821,,,D*78
$GPGGA,143004.000,3845.5638,N,07707.7328,W,2,07,1.17,35.5,M,-33.5,M,0000,0000*6F
$GPRMC,143004.250,A,3845.5638,N,07707.7328,W,0.01,288.81,010821,,,D*77
$GPGGA,143004.500,3845.5638,N,07707.7328,W,2,07,1.17,35.5,M,-33.5,M,0000,0000*6A
$GPRMC,143004.750,A,3845.5638,N,07707.7328,W,0.01,180.10,010821,,,D*71
$GPGGA,143005.000,3845.5638,N,07707.7328,W,2,07,1.17,35.5,M,-33.5,M,0000,0000*6E
$GPRMC,143005.250,A,3845.5638,N,07707.7328,W,0.01,208.28,010821,,,D*7D
$GPGGA,143005.500,3845.5638,N,07707.7328,W,2,07,1.17,35.5,M,-33.5,M,0000,0000*6B
$GPRMC,143005.750,A,3845.5638,N,07707.7328,W,0.01,183.43,010821,,,D*75
$GPGGA,143006.000,3845.5638,N,07707.7328,W,2,07,1.17,35.5,M,-33.5,M,0000,0000*6D
$GPRMC,143006.250,A,3845.5638,N,07707.7328,W,0.00,338.53,010821,,,D*71
$GPGGA,143006.500,3845.5638,N,07707.7328,W,2,07,1.17,35.5,M,-33.5,M,0000,0000*68
$GPRMC,143006.750,A,3845.5638,N,07707.7328,W,0.01,186.85,010821,,,D*79
$GPGGA,143007.000,3845.5638,N,07707.7328,W,2,07,1.17,35.5,M,-33.5,M,0000,0000*6C
$GPRMC,143007.250,A,3845.5638,N,07707.7328,W,0.01,227.46,010821,,,D*7A
$GPGGA,143007.500,3845.5638,N,07707.7328,W,2,07,1.17,35.5,M,-33.5,M,0000,0000*69
$GPRMC,143007.750,A,3845.5638,N,07707.7328,W,0.01,268.75,010821,,,D*74
$GPGGA,143008.000,3845.5638,N,07707.7328,W,2,07,1.17,35.5,M,-33.5,M,0000,0000*63
$GPRMC,143008.250,A,3845.5638,N,07707.7328,W,0.01,340.18,010821,,,D*7E
$GPGGA,143008.500,3845.5638,N,07707.7328,W,2,07,1.17,35.5,M,-33.5,M,0000,0000*66
$GPRMC,143008.750,A,3845.5638,N,07707.7328,W,0.01,328.82,010821,,,D*76
$GPGGA,143009.000,3845.5638,N,07707.7328,W,2,07,1.17,35.5,M,-33.5,M,0000,0000*62
$GPRMC,143009.250,A,3845.5638,N,07707.7328,W,0.01,262.38,010821,,,D*7C
$GPGGA,143009.500,3845.5638,N,07707.7328,W,2,07,1.17,35.5,M,-33.5,M,0000,0000*67
$GPRMC,143009.750,A,3845.5638,N,07707.7328,W,0.01,161.03,010821,,,D*71
$GPGGA,143010.000,3845.5638,N,07707.7328,W,2,07,1.17,35.5,M,-33.5,M,0000,0000*6A
$GPRMC,143010.250,A,3845.5638,N,07707.7328,W,0.01,180.21,010821,,,D*73
$GPGGA,143010.500,3845.5638,N,07707.7328,W,2,07,1.17,35.5,M,-33.5,M,0000,0000*6F
$GPRMC,143010.750,A,3845.5638,N,07707.7328,W,0.00,154.23,010821,,,D*7C
$GPGGA,143011.000,3845.5638,N,07707.7328,W,2,07,1.17,35.5,M,-33.5,M,0000,0000*6B
$GPRMC,143011.250,A,3845.5638,N,07707.7328,W,0.01,162.36,010821,,,D*78
$GPGGA,143011.500,3845.5638,N,07707.7328,W,2,07,1.17,35.5,M,-33.5,M,0000,0000*6E
$GPRMC,143011.750,A,3845.5638,N,07707.7328,W,0.01,155.96,010821,,,D*73
$GPGGA,143012.000,3845.5638,N,07707.7328,W,2,07,1.17,35.5,M,-33.5,M,0000,0000*68
$GPRMC,143012.250,A,3845.5638,N,07707.7328,W,0.00,162.14,010821,,,D*7A
$GPGGA,143012.500,3845.5638,N,07707.7328,W,2,07,1.17,35.5,M,-33.5,M,0000,0000*6D
$GPRMC,143012.750,A,3845.5638,N,07707.7328,W,0.00,70.56,010821,,,D*4B
$GPGGA,143013.000,3845.5638,N,07707.7328,W,2,07,1.17,35.5,M,-33.5,M,0000,0000*69
$GPRMC,143013.250,A,3845.5638,N,07707.7328,W,0.00,153.36,010821,,,D*79
$GPGGA,143013.500,3845.5638,N,07707.7328,W,2,07,1.17,35.5,M,-33.5,M,0000,0000*6C
$GPRMC,143013.750,A,3845.5638,N,07707.7328,W,0.01,271.69,010821,,,D*74
$GPGGA,143014.000,3845.5638,N,07707.7328,W,2,07,1.17,35.5,M,-33.5,M,0000,0000*6E
$GPRMC,143014.250,A,3845.5638,N,07707.7328,W,0.00,299.59,010821,,,D*72
$GPGGA,143014.500,3845.5638,N,07707.7328,W,2,07,1.17,35.5,M,-33.5,M,0000,0000*6B
$GPRMC,143014.750,A,3845.5638,N,07707.7328,W,0.00,24.22,010821,,,D*4F
$GPGGA,143015.000,3845.5638,N,07707.7328,W,2,07,1.17,35.5,M,-33.5,M,0000,0000*6F
$GPRMC,143015.250,A,3845.5638,N,07707.7328,W,0.00,66.94,010821,,,D*40
$GPGGA,143015.500,3845.5638,N,07707.7328,W,2,07,1.17,35.5,M,-33.5,M,0000,0000*6A
$GPRMC,143015.750,A,3845.5638,N,07707.7328,W,0.01,302.48,010821,,,D*74
$GPGGA,143016.000,3845.5638,N,07707.7328,W,2,07,1.17,35.5,M,-33.5,M,0000,0000*6C
$GPRMC,143016.250,A,3845.5638,N,07707.7328,W,0.01,318.49,010821,,,D*78
$GPGGA,143016.500,3845.5638,N,07707.7328,W,2,07,1.17,35.5,M,-33.5,M,0000,0000*69
$GPRMC,143016.750,A,3845.5638,N,07707.7328,W,0.01,54.62,010821,,,D*4F
$GPGGA,143017.000,3845.5638,N,07707.7328,W,2,07,1.17,35.5,M,-33.5,M,0000,0000*6D
$GPRMC,143017.250,A,3845.5638,N,07707.7328,W,0.01,359.19,010821,,,D*79
$GPGGA,143017.500,3845.5638,N,07707.7328,W,2,07,1.17,35.5,M,-33.5,M,0000,0000*68
$GPRMC,143017.750,A,3845.5638,N,07707.7328,W,0.01,323.45,010821,,,D*78
$GPGGA,143018.000,3845.5638,N,07707.7328,W,2,07,1.17,35.5,M,-33.5,M,0000,0000*62
$GPRMC,143018.250,A,3845.5638,N,07707.7328,W,0.01,351.04,010821,,,D*72
$GPGGA,143018.500,3845.5638,N,07707.7328,W,2,07,1.17,35.5,M,-33.5,M,0000,0000*67
$GPRMC,143018.750,A,3845.5638,N,07707.7328,W,0.01,348.58,010821,,,D*76
$GPGGA,143019.000,3845.5638,N,07707.7328,W,2,07,1.17,35.5,M,-33.5,M,0000,0000*63
$GPRMC,143019.250,A,3845.5638,N,07707.7328,W,0.01,7.76,010821,,,D*76
$GPGGA,143019.500,3845.5638,N,07707.7328,W,2,07,1.17,35.4,M,-33.5,M,0000,0000*67
$GPRMC,143019.750,A,3845.5638,N,07707.7328,W,0.00,0.92,010821,,,D*7F
$GPGGA,143020.000,3845.5638,N,07707.7328,W,2,07,1.17,35.4,M,-33.5,M,0000,0000*68
$GPRMC,143020.250,A,3845.5638,N,07707.7328,W,0.00,36.06,010821,,,D*48
$GPGGA,143020.500,3845.5638,N,07707.7328,W,2,07,1.17,35.4,M,-33.5,M,0000,0000*6D
$GPRMC,143020.750,A,3845.5638,N,07707.7328,W,0.00,98.36,010821,,,D*4A
$GPGGA,143021.000,3845.5638,N,07707.7328,W,2,07,1.17,35.4,M,-33.5,M,0000,0000*69
$GPRMC,143021.250,A,3845.5638,N,07707.7328,W,0.01,151.21,010821,,,D*7D
$GPGGA,143021.500,3845.5638,N,07707.7328,W,2,07,1.17,35.4,M,-33.5,M,0000,0000*6C
$GPRMC,143021.750,A,3845.5638,N,07707.7328,W,0.00,0.00,010821,,,D*7F
$GPGGA,143022.000,3845.5638,N,07707.7328,W,2,07,1.17,35.4,M,-33.5,M,0000,0000*6A
$GPRMC,143022.250,A,3845.5638,N,07707.7328,W,0.00,164.79,010821,,,D*74
$GPGGA,143022.500,3845.5638,N,07707.7328,W,2,07,1.17,35.4,M,-33.5,M,0000,0000*6F
$GPRMC,143022.750,A,3845.5638,N,07707.7328,W,0.00,171.00,010821,,,D*7B
$GPGGA,143023.000,3845.5638,N,07707.7328,W,2,07,1.17,35.4,M,-33.5,M,0000,0000*6B
$GPRMC,143023.250,A,3845.5638,N,07707.7328,W,0.00,277.62,010821,,,D*7E
$GPGGA,143023.500,3845.5638,N,07707.7328,W,2,07,1.17,35.4,M,-33.5,M,0000,0000*6E
$GPRMC,143023.750,A,3845.5638,N,07707.7328,W,0.00,293.97,010821,,,D*7B
$GPGGA,143024.000,3845.5638,N,07707.7328,W,2,07,1.17,35.4,M,-33.5,M,0000,0000*6C
$GPRMC,143024.250,A,3845.5638,N,07707.7328,W,0.00,0.00,010821,,,D*7F
$GPGGA,143024.500,3845.5638,N,07707.7328,W,2,07,1.17,35.4,M,-33.5,M,0000,0000*69
$GPRMC,143024.750,A,3845.5639,N,07707.7328,W,0.00,311.62,010821,,,D*7C
$GPGGA,143025.000,3845.5639,N,07707.7328,W,2,07,1.17,35.4,M,-33.5,M,0000,0000*6C
$GPRMC,143025.250,A,3845.5639,N,07707.7328,W,0.00,239.70,010821,,,D*70
$GPGGA,143025.500,3845.5639,N,07707.7328,W,2,07,1.17,35.4,M,-33.5,M,0000,0000*69
$GPRMC,143025.750,A,3845.5639,N,07707.7328,W,0.00,96.36,010821,,,D*40
$GPGGA,143026.000,3845.5639,N,07707.7328,W,2,07,1.17,35.4,M,-33.5,M,0000,0000*6F
$GPRMC,143026.250,A,3845.5639,N,07707.7328,W,0.01,74.62,010821,,,D*4A
$GPGGA,143026.500,3845.5639,N,07707.7328,W,2,07,1.17,35.4,M,-33.5,M,0000,0000*6A
$GPRMC,143026.750,A,3845.5639,N,07707.7328,W,0.01,71.72,010821,,,D*4B
$GPGGA,143027.000,3845.5639,N,07707.7328,W,2,07,1.17,35.4,M,-33.5,M,0000,0000*6E
$GPRMC,143027.250,A,3845.5639,N,07707.7328,W,0.00,356.12,010821,,,D*7E
$GPGGA,143027.500,3845.5639,N,07707.7328,W,2,07,1.17,35.4,M,-33.5,M,0000,0000*6B
$GPRMC,143027.750,A,3845.5639,N,07707.7328,W,0.00,271.99,010821,,,D*7C
$GPGGA,143028.000,3845.5639,N,07707.7328,W,2,07,1.17,35.4,M,-33.5,M,0000,0000*61
$GPRMC,143028.250,A,3845.5639,N,07707.7328,W,0.00,93.90,010821,,,D*41
