Vers 81
USE_SERIAL_FEEDBACK=true
DEVELOPMENT_MODE=false
USE_RMC_ONLY=false

$GPRMC,134600.500,A,4308.3025,N,07726.2680,W,0.05,95.54,120821,,,A*4A
$GPGGA,134600.750,4308.3025,N,07726.2679,W,1,05,1.39,168.2,M,-34.4,M,,*54
$GPRMC,134601.000,A,4308.3025,N,07726.2680,W,0.04,191.75,120821,,,A*79
$GPGGA,134601.250,4308.3025,N,07726.2679,W,1,05,1.39,168.4,M,-34.4,M,,*56
$GPRMC,134601.500,A,4308.3025,N,07726.2679,W,0.07,71.46,120821,,,A*46
$GPGGA,134601.750,4308.3025,N,07726.2678,W,1,05,1.39,168.4,M,-34.4,M,,*52
$GPRMC,134602.000,A,4308.3024,N,07726.2677,W,0.06,148.93,120821,,,A*7D
$GPGGA,134602.250,4308.3024,N,07726.2678,W,1,06,1.20,168.6,M,-34.4,M,,*5C
$GPRMC,134602.500,A,4308.3024,N,07726.2680,W,0.01,145.24,120821,,,A*76
$GPGGA,134602.750,4308.3023,N,07726.2681,W,1,06,1.20,169.0,M,-34.4,M,,*5F
$GPRMC,134603.000,A,4308.3023,N,07726.2681,W,0.03,122.81,120821,,,A*78
$GPGGA,134603.250,4308.3022,N,07726.2681,W,1,06,1.20,168.9,M,-34.4,M,,*52
$GPRMC,134603.500,A,4308.3022,N,07726.2681,W,0.02,115.61,120821,,,A*77
$GPGGA,134603.750,4308.3022,N,07726.2682,W,1,06,1.20,168.8,M,-34.4,M,,*55
$GPRMC,134604.000,A,4308.3021,N,07726.2682,W,0.04,55.49,120821,,,A*4C
$GPGGA,134604.250,4308.3021,N,07726.2681,W,1,06,1.20,168.7,M,-34.4,M,,*58
$GPRMC,134604.500,A,4308.3021,N,07726.2681,W,0.04,17.56,120821,,,A*42
$GPGGA,134604.750,4308.3021,N,07726.2681,W,1,06,1.20,168.7,M,-34.4,M,,*5D
$GPRMC,134605.000,A,4308.3021,N,07726.2681,W,0.03,20.78,120821,,,A*49
$GPGGA,134605.250,4308.3021,N,07726.2681,W,1,06,1.20,168.7,M,-34.4,M,,*59
$GPRMC,134605.500,A,4308.3022,N,07726.2681,W,0.03,21.94,120821,,,A*4C
$GPGGA,134605.750,4308.3022,N,07726.2681,W,1,06,1.20,168.5,M,-34.4,M,,*5D
$GPRMC,134606.000,A,4308.3022,N,07726.2681,W,0.05,64.74,120821,,,A*43
$GPGGA,134606.250,4308.3022,N,07726.2681,W,1,06,1.20,168.3,M,-34.4,M,,*5D
$GPRMC,134606.500,A,4308.3022,N,07726.2681,W,0.02,95.29,120821,,,A*47
$GPGGA,134606.750,4308.3022,N,07726.2680,W,1,06,1.20,167.9,M,-34.4,M,,*5C
$GPRMC,134607.000,A,4308.3022,N,07726.2680,W,0.02,193.59,120821,,,A*72
$GPGGA,134607.250,4308.3022,N,07726.2680,W,1,06,1.20,167.5,M,-34.4,M,,*54
$GPRMC,134607.500,A,4308.3022,N,07726.2679,W,0.10,113.01,120821,,,A*77
$GPGGA,134607.750,4308.3022,N,07726.2679,W,1,06,1.20,167.1,M,-34.4,M,,*53
$GPRMC,134608.000,A,4308.3022,N,07726.2678,W,0.06,134.80,120821,,,A*77
$GPGGA,134608.250,4308.3022,N,07726.2678,W,1,06,1.20,166.9,M,-34.4,M,,*51
$GPRMC,134608.500,A,4308.3022,N,07726.2679,W,0.06,221.31,120821,,,A*7E
$GPGGA,134608.750,4308.3022,N,07726.2679,W,1,06,1.20,166.8,M,-34.4,M,,*54
$GPRMC,134609.000,A,4308.3023,N,07726.2678,W,0.06,195.66,120821,,,A*74
$GPGGA,134609.250,4308.3023,N,07726.2678,W,1,06,1.20,166.7,M,-34.4,M,,*5F
$GPRMC,134609.500,A,4308.3023,N,07726.2678,W,0.02,233.64,120821,,,A*78
$GPGGA,134609.750,4308.3023,N,07726.2678,W,1,06,1.20,166.5,M,-34.4,M,,*58
$GPRMC,134610.000,A,4308.3024,N,07726.2678,W,0.02,287.22,120821,,,A*7F
$GPGGA,134610.250,4308.3024,N,07726.2678,W,1,06,1.20,166.3,M,-34.4,M,,*54
$GPRMC,134610.500,A,4308.3025,N,07726.2678,W,0.04,56.86,120821,,,A*4D
$GPGGA,134610.750,4308.3025,N,07726.2678,W,1,06,1.20,166.1,M,-34.4,M,,*52
$GPRMC,134611.000,A,4308.3025,N,07726.2678,W,0.07,2.31,120821,,,A*77
$GPGGA,134611.250,4308.3026,N,07726.2678,W,1,06,1.44,166.0,M,-34.4,M,,*56
$GPRMC,134611.500,A,4308.3026,N,07726.2678,W,0.02,132.98,120821,,,A*75
$GPGGA,134611.750,4308.3026,N,07726.2678,W,1,06,1.20,166.1,M,-34.4,M,,*50
$GPRMC,134612.000,A,4308.3026,N,07726.2678,W,0.03,266.52,120821,,,A*76
$GPGGA,134612.250,4308.3026,N,07726.2678,W,1,06,1.20,166.2,M,-34.4,M,,*55
$GPRMC,134612.500,A,4308.3027,N,07726.2679,W,0.10,284.46,120821,,,A*78
$GPGGA,134612.750,4308.3027,N,07726.2679,W,1,06,1.20,166.2,M,-34.4,M,,*50
$GPRMC,134613.000,A,4308.3027,N,07726.2679,W,0.09,280.39,120821,,,A*78
$GPGGA,134613.250,4308.3027,N,07726.2679,W,1,06,1.20,166.1,M,-34.4,M,,*57
$GPRMC,134613.500,A,4308.3027,N,07726.2678,W,0.06,261.87,120821,,,A*79
$GPGGA,134613.750,4308.3027,N,07726.2678,W,1,06,1.20,166.1,M,-34.4,M,,*53
$GPRMC,134614.000,A,4308.3027,N,07726.2678,W,0.04,221.86,120821,,,A*7C
$GPGGA,134614.250,4308.3028,N,07726.2679,W,1,06,1.20,166.1,M,-34.4,M,,*5F
$GPRMC,134614.500,A,4308.3028,N,07726.2679,W,0.10,266.67,120821,,,A*7E
$GPGGA,134614.750,4308.3028,N,07726.2678,W,1,06,1.20,166.1,M,-34.4,M,,*5B
$GPRMC,134615.000,A,4308.3029,N,07726.2678,W,0.06,307.42,120821,,,A*7C
$GPGGA,134615.250,4308.3030,N,07726.2678,W,1,06,1.20,166.2,M,-34.4,M,,*55
$GPRMC,134615.500,A,4308.3030,N,07726.2678,W,0.14,1.61,120821,,,A*76
$GPGGA,134615.750,4308.3030,N,07726.2678,W,1,06,1.44,166.1,M,-34.4,M,,*51
$GPRMC,134616.000,A,4308.3031,N,07726.2678,W,0.16,11.02,120821,,,A*47
$GPGGA,134616.250,4308.3031,N,07726.2678,W,1,06,1.44,165.9,M,-34.4,M,,*5D
$GPRMC,134616.500,A,4308.3031,N,07726.2678,W,0.10,1.85,120821,,,A*7A
$GPGGA,134616.750,4308.3031,N,07726.2678,W,1,06,1.44,165.8,M,-34.4,M,,*59
$GPRMC,134617.000,A,4308.3031,N,07726.2678,W,0.05,350.33,120821,,,A*70
$GPGGA,134617.250,4308.3031,N,07726.2678,W,1,06,1.44,165.8,M,-34.4,M,,*5D
$GPRMC,134617.500,A,4308.3031,N,07726.2677,W,0.03,209.65,120821,,,A*72
$GPGGA,134617.750,4308.3031,N,07726.2677,W,1,06,1.20,165.8,M,-34.4,M,,*55
$GPRMC,134618.000,A,4308.3032,N,07726.2677,W,0.04,169.32,120821,,,A*7B
$GPGGA,134618.250,4308.3032,N,07726.2677,W,1,06,1.20,165.8,M,-34.4,M,,*5C
$GPRMC,134618.500,A,4308.3032,N,07726.2677,W,0.01,147.90,120821,,,A*7F
$GPGGA,134618.750,4308.3033,N,07726.2677,W,1,06,1.20,165.7,M,-34.4,M,,*57
$GPRMC,134619.000,A,4308.3033,N,07726.2676,W,0.07,54.04,120821,,,A*43
$GPGGA,134619.250,4308.3034,N,07726.2676,W,1,06,1.20,165.5,M,-34.4,M,,*57
$GPRMC,134619.500,A,4308.3034,N,07726.2675,W,0.15,62.21,120821,,,A*43
$GPGGA,134619.750,4308.3034,N,07726.2675,W,1,06,1.20,165.4,M,-34.4,M,,*50
$GPRMC,134620.000,A,4308.3035,N,07726.2676,W,0.11,16.97,120821,,,A*44
$GPGGA,134620.250,4308.3035,N,07726.2676,W,1,06,1.20,165.3,M,-34.4,M,,*5A
$GPRMC,134620.500,A,4308.3035,N,07726.2676,W,0.13,359.33,120821,,,A*75
$GPGGA,134620.750,4308.3035,N,07726.2676,W,1,06,1.44,165.3,M,-34.4,M,,*5D
$GPRMC,134621.000,A,4308.3036,N,07726.2676,W,0.14,33.75,120821,,,A*48
$GPGGA,134621.250,4308.3036,N,07726.2675,W,1,06,1.20,165.3,M,-34.4,M,,*5B
$GPRMC,134621.500,A,4308.3036,N,07726.2676,W,0.16,7.36,120821,,,A*7F
$GPGGA,134621.750,4308.3036,N,07726.2676,W,1,06,1.44,165.3,M,-34.4,M,,*5F
$GPRMC,134622.000,A,4308.3036,N,07726.2676,W,0.13,353.33,120821,,,A*7B
$GPGGA,134622.250,4308.3037,N,07726.2677,W,1,06,1.44,165.2,M,-34.4,M,,*58
$GPRMC,134622.500,A,4308.3037,N,07726.2677,W,0.14,322.93,120821,,,A*75
$GPGGA,134622.750,4308.3037,N,07726.2678,W,1,06,1.20,165.1,M,-34.4,M,,*53
$GPRMC,134623.000,A,4308.3037,N,07726.2678,W,0.13,310.80,120821,,,A*7A
$GPGGA,134623.250,4308.3037,N,07726.2678,W,1,06,1.20,165.0,M,-34.4,M,,*56
$GPRMC,134623.500,A,4308.3037,N,07726.2678,W,0.15,348.14,120821,,,A*79
$GPGGA,134623.750,4308.3038,N,07726.2678,W,1,06,1.44,165.0,M,-34.4,M,,*5E
$GPRMC,134624.000,A,4308.3038,N,07726.2679,W,0.16,346.16,120821,,,A*7A
$GPGGA,134624.250,4308.3038,N,07726.2679,W,1,06,1.44,165.0,M,-34.4,M,,*5D
$GPRMC,134624.500,A,4308.3039,N,07726.2679,W,0.20,346.44,120821,,,A*7C
$GPGGA,134624.750,4308.3039,N,07726.2679,W,1,06,1.44,164.9,M,-34.4,M,,*51
$GPRMC,134625.000,A,4308.3039,N,07726.2679,W,0.19,359.62,120821,,,A*78
$GPGGA,134625.250,4308.3039,N,07726.2679,W,1,06,1.44,164.8,M,-34.4,M,,*54
$GPRMC,134625.500,A,4308.3039,N,07726.2678,W,0.24,29.11,120821,,,A*42
$GPGGA,134625.750,4308.3040,N,07726.2678,W,1,06,1.20,164.7,M,-34.4,M,,*53
$GPRMC,134626.000,A,4308.3040,N,07726.2678,W,0.26,47.72,120821,,,A*45
$GPGGA,134626.250,4308.3039,N,07726.2678,W,1,06,1.20,164.6,M,-34.4,M,,*5A
$GPRMC,134626.500,A,4308.3039,N,07726.2678,W,0.10,72.16,120821,,,A*4F
$GPGGA,134626.750,4308.3038,N,07726.2678,W,1,06,1.20,164.5,M,-34.4,M,,*5D
$GPRMC,134627.000,A,4308.3038,N,07726.2678,W,0.06,95.26,120821,,,A*47
$GPGGA,134627.250,4308.3038,N,07726.2678,W,1,06,1.20,164.5,M,-34.4,M,,*59
$GPRMC,134627.500,A,4308.3039,N,07726.2678,W,0.03,41.51,120821,,,A*4F
$GPGGA,134627.750,4308.3039,N,07726.2679,W,1,06,1.20,164.5,M,-34.4,M,,*5C
$GPRMC,134628.000,A,4308.3038,N,07726.2679,W,0.02,120.17,120821,,,A*70
$GPGGA,134628.250,4308.3039,N,07726.2679,W,1,06,1.20,164.4,M,-34.4,M,,*57
$GPRMC,134628.500,A,4308.3039,N,07726.2679,W,0.02,251.43,120821,,,A*70
$GPGGA,134628.750,4308.3039,N,07726.2680,W,1,06,1.20,164.4,M,-34.4,M,,*54
$GPRMC,134629.000,A,4308.3039,N,07726.2680,W,0.09,269.59,120821,,,A*79
$GPGGA,134629.250,4308.3039,N,07726.2681,W,1,06,1.20,164.3,M,-34.4,M,,*56
$GPRMC,134629.500,A,4308.3039,N,07726.2681,W,0.13,271.53,120821,,,A*75
$GPGGA,134629.750,4308.3039,N,07726.2681,W,1,06,1.20,164.3,M,-34.4,M,,*53
$GPRMC,134630.000,A,4308.3039,N,07726.2681,W,0.16,267.18,120821,,,A*75
$GPGGA,134630.250,4308.3039,N,07726.2681,W,1,06,1.20,164.3,M,-34.4,M,,*5E
$GPRMC,134630.500,A,4308.3039,N,07726.2682,W,0.17,289.07,120821,,,A*7C
$GPGGA,134630.750,4308.3039,N,07726.2682,W,1,06,1.20,164.3,M,-34.4,M,,*58
$GPRMC,134631.000,A,4308.3039,N,07726.2682,W,0.15,309.02,120821,,,A*76
$GPGGA,134631.250,4308.3039,N,07726.2682,W,1,06,1.20,164.3,M,-34.4,M,,*5C
$GPRMC,134631.500,A,4308.3039,N,07726.2682,W,0.20,309.29,120821,,,A*7C
$GPGGA,134631.750,4308.3039,N,07726.2682,W,1,06,1.20,164.3,M,-34.4,M,,*59
$GPRMC,134632.000,A,4308.3039,N,07726.2682,W,0.19,304.87,120821,,,A*79
$GPGGA,134632.250,4308.3039,N,07726.2683,W,1,06,1.20,164.3,M,-34.4,M,,*5E
$GPRMC,134632.500,A,4308.3039,N,07726.2683,W,0.14,300.70,120821,,,A*7C
$GPGGA,134632.750,4308.3039,N,07726.2683,W,1,06,1.20,164.3,M,-34.4,M,,*5B
$GPRMC,134633.000,A,4308.3039,N,07726.2683,W,0.11,300.36,120821,,,A*7F
$GPGGA,134633.250,4308.3040,N,07726.2683,W,1,06,1.20,164.2,M,-34.4,M,,*50
$GPRMC,134633.500,A,4308.3040,N,07726.2683,W,0.11,6.29,120821,,,A*7F
$GPGGA,134633.750,4308.3040,N,07726.2683,W,1,06,1.44,164.2,M,-34.4,M,,*57
$GPRMC,134634.000,A,4308.3040,N,07726.2683,W,0.11,31.93,120821,,,A*48
$GPGGA,134634.250,4308.3040,N,07726.2683,W,1,06,1.20,164.2,M,-34.4,M,,*57
$GPRMC,134634.500,A,4308.3040,N,07726.2683,W,0.10,33.37,120821,,,A*40
$GPGGA,134634.750,4308.3040,N,07726.2683,W,1,06,1.20,164.2,M,-34.4,M,,*52
$GPRMC,134635.000,A,4308.3040,N,07726.2683,W,0.11,7.05,120821,,,A*73
$GPGGA,134635.250,4308.3040,N,07726.2683,W,1,06,1.44,164.2,M,-34.4,M,,*54
$GPRMC,134635.500,A,4308.3040,N,07726.2683,W,0.14,348.55,120821,,,A*7E
$GPGGA,134635.750,4308.3040,N,07726.2683,W,1,06,1.44,164.2,M,-34.4,M,,*51
$GPRMC,134636.000,A,4308.3040,N,07726.2683,W,0.09,327.24,120821,,,A*7B
$GPGGA,134636.250,4308.3040,N,07726.2683,W,1,06,1.20,164.2,M,-34.4,M,,*55
$GPRMC,134636.500,A,4308.3040,N,07726.2683,W,0.09,305.27,120821,,,A*7D
$GPGGA,134636.750,4308.3040,N,07726.2683,W,1,06,1.20,164.2,M,-34.4,M,,*50
$GPRMC,134637.000,A,4308.3040,N,07726.2683,W,0.11,11.29,120821,,,A*48
$GPGGA,134637.250,4308.3041,N,07726.2683,W,1,06,1.44,164.2,M,-34.4,M,,*57
$GPRMC,134637.500,A,4308.3041,N,07726.2683,W,0.15,31.33,120821,,,A*41
$GPGGA,134637.750,4308.3041,N,07726.2683,W,1,06,1.20,164.2,M,-34.4,M,,*50
$GPRMC,134638.000,A,4308.3041,N,07726.2683,W,0.13,30.93,120821,,,A*46
$GPGGA,134638.250,4308.3041,N,07726.2683,W,1,06,1.20,164.2,M,-34.4,M,,*5A
$GPRMC,134638.500,A,4308.3041,N,07726.2683,W,0.09,44.90,120821,,,A*48
$GPGGA,134638.750,4308.3041,N,07726.2683,W,1,06,1.20,164.2,M,-34.4,M,,*5F
$GPRMC,134639.000,A,4308.3041,N,07726.2682,W,0.05,46.96,120821,,,A*45
$GPGGA,134639.250,4308.3041,N,07726.2682,W,1,06,1.20,164.2,M,-34.4,M,,*5A
$GPRMC,134639.500,A,4308.3041,N,07726.2682,W,0.02,37.22,120821,,,A*4E
$GPGGA,134639.750,4308.3041,N,07726.2682,W,1,06,1.20,164.2,M,-34.4,M,,*5F
$GPRMC,134640.000,A,4308.3041,N,07726.2682,W,0.02,31.48,120821,,,A*4F
$GPGGA,134640.250,4308.3041,N,07726.2682,W,1,06,1.20,164.2,M,-34.4,M,,*54
$GPRMC,134640.500,A,4308.3041,N,07726.2682,W,0.03,253.60,120821,,,A*77
$GPGGA,134640.750,4308.3041,N,07726.2682,W,1,06,1.20,164.2,M,-34.4,M,,*51
$GPRMC,134641.000,A,4308.3041,N,07726.2682,W,0.11,241.91,120821,,,A*7D
$GPGGA,134641.250,4308.3041,N,07726.2683,W,1,06,1.20,164.2,M,-34.4,M,,*54
$GPRMC,134641.500,A,4308.3041,N,07726.2683,W,0.11,221.60,120821,,,A*71
$GPGGA,134641.750,4308.3041,N,07726.2683,W,1,06,1.20,164.2,M,-34.4,M,,*51
$GPRMC,134642.000,A,4308.3041,N,07726.2683,W,0.19,172.99,120821,,,A*7C
$GPGGA,134642.250,4308.3041,N,07726.2683,W,1,06,1.20,164.2,M,-34.4,M,,*57
$GPRMC,134642.500,A,4308.3040,N,07726.2683,W,0.25,168.52,120821,,,A*7B
$GPGGA,134642.750,4308.3040,N,07726.2683,W,1,06,1.20,164.2,M,-34.4,M,,*53
$GPRMC,134643.000,A,4308.3040,N,07726.2683,W,0.32,174.87,120821,,,A*7C
$GPGGA,134643.250,4308.3040,N,07726.2682,W,1,06,1.20,164.2,M,-34.4,M,,*56
$GPRMC,134643.500,A,4308.3040,N,07726.2682,W,0.09,162.06,120821,,,A*7E
$GPGGA,134643.750,4308.3040,N,07726.2682,W,1,06,1.44,164.2,M,-34.4,M,,*51
$GPRMC,134644.000,A,4308.3040,N,07726.2682,W,0.03,62.81,120821,,,A*48
$GPGGA,134644.250,4308.3040,N,07726.2682,W,1,06,1.44,164.2,M,-34.4,M,,*53
$GPRMC,134644.500,A,4308.3040,N,07726.2682,W,0.03,347.79,120821,,,A*7E
$GPGGA,134644.750,4308.3040,N,07726.2682,W,1,06,1.44,164.2,M,-34.4,M,,*56
$GPRMC,134645.000,A,4308.3040,N,07726.2682,W,0.06,168.65,120821,,,A*7D
$GPGGA,134645.250,4308.3040,N,07726.2682,W,1,06,1.44,164.2,M,-34.4,M,,*52
$GPRMC,134645.500,A,4308.3039,N,07726.2682,W,0.06,190.39,120821,,,A*78
$GPGGA,134645.750,4308.3039,N,07726.2682,W,1,06,1.44,164.2,M,-34.4,M,,*59
$GPRMC,134646.000,A,4308.3039,N,07726.2682,W,0.02,228.20,120821,,,A*72
$GPGGA,134646.250,4308.3039,N,07726.2682,W,1,06,1.44,164.2,M,-34.4,M,,*5F
$GPRMC,134646.500,A,4308.3039,N,07726.2682,W,0.04,180.21,120821,,,A*71
$GPGGA,134646.750,4308.3039,N,07726.2682,W,1,06,1.44,164.2,M,-34.4,M,,*5A
$GPRMC,134647.000,A,4308.3039,N,07726.2682,W,0.02,231.42,120821,,,A*7F
$GPGGA,134647.250,4308.3039,N,07726.2682,W,1,06,1.44,164.2,M,-34.4,M,,*5E
$GPRMC,134647.500,A,4308.3039,N,07726.2682,W,0.03,136.26,120821,,,A*7D
$GPGGA,134647.750,4308.3039,N,07726.2682,W,1,06,1.44,164.2,M,-34.4,M,,*5B
$GPRMC,134648.000,A,4308.3039,N,07726.2682,W,0.04,150.91,120821,,,A*7C
$GPGGA,134648.250,4308.3039,N,07726.2682,W,1,06,1.44,164.2,M,-34.4,M,,*51
$GPRMC,134648.500,A,4308.3039,N,07726.2682,W,0.01,167.29,120821,,,A*7B
$GPGGA,134648.750,4308.3039,N,07726.2682,W,1,06,1.44,164.2,M,-34.4,M,,*54
$GPRMC,134649.000,A,4308.3039,N,07726.2682,W,0.01,203.99,120821,,,A*75
$GPGGA,134649.250,4308.3039,N,07726.2682,W,1,06,1.44,164.2,M,-34.4,M,,*50
$GPRMC,134649.500,A,4308.3039,N,07726.2682,W,0.02,74.17,120821,,,A*47
$GPGGA,134649.750,4308.3039,N,07726.2682,W,1,06,1.44,164.2,M,-34.4,M,,*55
$GPRMC,134650.000,A,4308.3039,N,07726.2682,W,0.01,131.04,120821,,,A*7B
$GPGGA,134650.250,4308.3039,N,07726.2682,W,1,06,1.44,164.2,M,-34.4,M,,*58
$GPRMC,134650.500,A,4308.3039,N,07726.2682,W,0.01,210.03,120821,,,A*79
$GPGGA,134650.750,4308.3039,N,07726.2682,W,1,06,1.44,164.2,M,-34.4,M,,*5D
$GPRMC,134651.000,A,4308.3039,N,07726.2682,W,0.01,127.88,120821,,,A*79
$GPGGA,134651.250,4308.3039,N,07726.2682,W,1,06,1.44,164.2,M,-34.4,M,,*59
$GPRMC,134651.500,A,4308.3039,N,07726.2682,W,0.01,135.96,120821,,,A*70
$GPGGA,134651.750,4308.3039,N,07726.2682,W,1,06,1.44,164.2,M,-34.4,M,,*5C
$GPRMC,134652.000,A,4308.3039,N,07726.2682,W,0.01,94.25,120821,,,A*44
$GPGGA,134652.250,4308.3039,N,07726.2682,W,1,06,1.44,164.2,M,-34.4,M,,*5A
$GPRMC,134652.500,A,4308.3039,N,07726.2682,W,0.01,67.21,120821,,,A*49
$GPGGA,134652.750,4308.3039,N,07726.2682,W,1,06,1.44,164.2,M,-34.4,M,,*5F
$GPRMC,134653.000,A,4308.3039,N,07726.2682,W,0.01,209.08,120821,,,A*7C
$GPGGA,134653.250,4308.3039,N,07726.2682,W,1,06,1.44,164.2,M,-34.4,M,,*5B
$GPRMC,134653.500,A,4308.3039,N,07726.2682,W,0.01,352.93,120821,,,A*74
$GPGGA,134653.750,4308.3039,N,07726.2682,W,1,06,1.44,164.2,M,-34.4,M,,*5E
$GPRMC,134654.000,A,4308.3039,N,07726.2682,W,0.01,230.94,120821,,,A*74
$GPGGA,134654.250,4308.3039,N,07726.2682,W,1,06,1.44,164.2,M,-34.4,M,,*5C
$GPRMC,134654.500,A,4308.3039,N,07726.2682,W,0.01,193.16,120821,,,A*71
$GPGGA,134654.750,4308.3039,N,07726.2682,W,1,06,1.44,164.2,M,-34.4,M,,*59
$GPRMC,134655.000,A,4308.3039,N,07726.2682,W,0.01,225.98,120821,,,A*7D
$GPGGA,134655.250,4308.3039,N,07726.2682,W,1,06,1.44,164.2,M,-34.4,M,,*5D
$GPRMC,134655.500,A,4308.3039,N,07726.2682,W,0.02,187.66,120821,,,A*71
$GPGGA,134655.750,4308.3039,N,07726.2682,W,1,06,1.44,164.2,M,-34.4,M,,*58
$GPRMC,134656.000,A,4308.3039,N,07726.2682,W,0.01,190.46,120821,,,A*70
$GPGGA,134656.250,4308.3039,N,07726.2682,W,1,06,1.44,164.2,M,-34.4,M,,*5E
$GPRMC,134656.500,A,4308.3039,N,07726.2682,W,0.01,191.90,120821,,,A*7F
$GPGGA,134656.750,4308.3039,N,07726.2683,W,1,06,1.44,164.2,M,-34.4,M,,*5A
$GPRMC,134657.000,A,4308.3039,N,07726.2683,W,0.01,183.94,120821,,,A*7D
$GPGGA,134657.250,4308.3039,N,07726.2683,W,1,06,1.44,164.2,M,-34.4,M,,*5E
$GPRMC,134657.500,A,4308.3039,N,07726.2683,W,0.01,132.09,120821,,,A*76
$GPGGA,134657.750,4308.3039,N,07726.2683,W,1,06,1.44,164.2,M,-34.4,M,,*5B
$GPRMC,134658.000,A,4308.3039,N,07726.2683,W,0.01,174.09,120821,,,A*7E
$GPGGA,134658.250,4308.3039,N,07726.2683,W,1,06,1.44,164.2,M,-34.4,M,,*51
$GPRMC,134658.500,A,4308.3039,N,07726.2683,W,0.02,180.77,120821,,,A*7A
$GPGGA,134658.750,4308.3039,N,07726.2683,W,1,06,1.44,164.2,M,-34.4,M,,*54
$GPRMC,134659.000,A,4308.3039,N,07726.2683,W,0.01,176.85,120821,,,A*79
$GPGGA,134659.250,4308.3039,N,07726.2683,W,1,06,1.44,164.2,M,-34.4,M,,*50
$GPRMC,134659.500,A,4308.3039,N,07726.2683,W,0.01,190.57,120821,,,A*7B
$GPGGA,134659.750,4308.3039,N,07726.2683,W,1,06,1.44,164.2,M,-34.4,M,,*55
$GPRMC,134700.000,A,4308.3039,N,07726.2683,W,0.02,181.64,120821,,,A*70
$GPGGA,134700.250,4308.3039,N,07726.2683,W,1,06,1.44,164.2,M,-34.4,M,,*5D
$GPRMC,134700.500,A,4308.3039,N,07726.2683,W,0.01,330.43,120821,,,A*7B
$GPGGA,134700.750,4308.3039,N,07726.2683,W,1,06,1.44,164.2,M,-34.4,M,,*58
$GPRMC,134701.000,A,4308.3039,N,07726.2683,W,0.00,189.61,120821,,,A*7E
$GPGGA,134701.250,4308.3039,N,07726.2683,W,1,06,1.44,164.2,M,-34.4,M,,*5C
$GPRMC,134701.500,A,4308.3039,N,07726.2683,W,0.01,161.69,120821,,,A*74
$GPGGA,134701.750,4308.3039,N,07726.2683,W,1,06,1.44,164.2,M,-34.4,M,,*59
$GPRMC,134702.000,A,4308.3039,N,07726.2683,W,0.01,6.13,120821,,,A*7F
$GPGGA,134702.250,4308.3039,N,07726.2683,W,1,07,1.28,164.2,M,-34.4,M,,*54
$GPRMC,134702.500,A,4308.3039,N,07726.2683,W,0.01,51.29,120821,,,A*41
$GPGGA,134702.750,4308.3039,N,07726.2683,W,1,07,1.28,164.2,M,-34.4,M,,*51
$GPRMC,134703.000,A,4308.3039,N,07726.2683,W,0.00,162.90,120821,,,A*77
$GPGGA,134703.250,4308.3039,N,07726.2683,W,1,07,1.28,164.2,M,-34.4,M,,*55
$GPRMC,134703.500,A,4308.3039,N,07726.2683,W,0.00,4.77,120821,,,A*7A
$GPGGA,134703.750,4308.3039,N,07726.2682,W,1,07,1.28,164.2,M,-34.4,M,,*51
$GPRMC,134704.000,A,4308.3039,N,07726.2682,W,0.00,98.52,120821,,,A*4B
$GPGGA,134704.250,4308.3039,N,07726.2682,W,1,07,1.28,164.2,M,-34.4,M,,*53
$GPRMC,134704.500,A,4308.3039,N,07726.2682,W,0.01,15.32,120821,,,A*4C
$GPGGA,134704.750,4308.3039,N,07726.2682,W,1,07,1.28,164.2,M,-34.4,M,,*56
$GPRMC,134705.000,A,4308.3039,N,07726.2682,W,0.00,214.08,120821,,,A*73
$GPGGA,134705.250,4308.3039,N,07726.2682,W,1,07,1.28,164.2,M,-34.4,M,,*52
$GPRMC,134705.500,A,4308.3039,N,07726.2682,W,0.01,161.09,120821,,,A*77
$GPGGA,134705.750,4308.3039,N,07726.2682,W,1,07,1.28,164.2,M,-34.4,M,,*57
$GPRMC,134706.000,A,4308.3039,N,07726.2682,W,0.00,165.82,120821,,,A*77
$GPGGA,134706.250,4308.3039,N,07726.2682,W,1,07,1.28,164.2,M,-34.4,M,,*51
$GPRMC,134706.500,A,4308.3039,N,07726.2682,W,0.00,107.20,120821,,,A*7E
$GPGGA,134706.750,4308.3039,N,07726.2682,W,1,07,1.28,164.2,M,-34.4,M,,*54
$GPRMC,134707.000,A,4308.3039,N,07726.2682,W,0.01,153.22,120821,,,A*78
$GPGGA,134707.250,4308.3039,N,07726.2682,W,1,07,1.28,164.2,M,-34.4,M,,*50
$GPRMC,134707.500,A,4308.3039,N,07726.2682,W,0.02,251.44,120821,,,A*7F
$GPGGA,134707.750,4308.3039,N,07726.2682,W,1,07,1.28,164.2,M,-34.4,M,,*55
$GPRMC,134708.000,A,4308.3039,N,07726.2682,W,0.01,136.65,120821,,,A*77
$GPGGA,134708.250,4308.3039,N,07726.2682,W,1,07,1.28,164.2,M,-34.4,M,,*5F
$GPRMC,134708.500,A,4308.3039,N,07726.2682,W,0.00,149.05,120821,,,A*7D
$GPGGA,134708.750,4308.3039,N,07726.2682,W,1,07,1.28,164.2,M,-34.4,M,,*5A
$GPRMC,134709.000,A,4308.3039,N,07726.2682,W,0.00,203.70,120821,,,A*76
$GPGGA,134709.250,4308.3039,N,07726.2682,W,1,07,1.28,164.2,M,-34.4,M,,*5E
$GPRMC,134709.500,A,4308.3038,N,07726.2682,W,0.01,98.36,120821,,,A*41
$GPGGA,134709.750,4308.3038,N,07726.2682,W,1,07,1.28,164.2,M,-34.4,M,,*5A
$GPRMC,134710.000,A,4308.3038,N,07726.2682,W,0.01,211.25,120821,,,A*7D
$GPGGA,134710.250,4308.3038,N,07726.2682,W,1,07,1.28,164.2,M,-34.4,M,,*57
$GPRMC,134710.500,A,4308.3038,N,07726.2682,W,0.01,218.01,120821,,,A*77
$GPGGA,134710.750,4308.3038,N,07726.2682,W,1,07,1.28,164.1,M,-34.4,M,,*51
$GPRMC,134711.000,A,4308.3038,N,07726.2682,W,0.01,109.63,120821,,,A*74
$GPGGA,134711.250,4308.3038,N,07726.2682,W,1,07,1.28,164.1,M,-34.4,M,,*55
$GPRMC,134711.500,A,4308.3038,N,07726.2682,W,0.01,63.08,120821,,,A*41
$GPGGA,134711.750,4308.3038,N,07726.2682,W,1,07,1.28,164.1,M,-34.4,M,,*50
$GPRMC,134712.000,A,4308.3038,N,07726.2682,W,0.01,136.86,120821,,,A*70
$GPGGA,134712.250,4308.3038,N,07726.2682,W,1,07,1.28,164.1,M,-34.4,M,,*56
$GPRMC,134712.500,A,4308.3038,N,07726.2682,W,0.01,238.36,120821,,,A*73
$GPGGA,134712.750,4308.3038,N,07726.2682,W,1,07,1.28,164.1,M,-34.4,M,,*53
$GPRMC,134713.000,A,4308.3038,N,07726.2682,W,0.01,153.46,120821,,,A*7E
$GPGGA,134713.250,4308.3038,N,07726.2682,W,1,07,1.28,164.1,M,-34.4,M,,*57
$GPRMC,134713.500,A,4308.3038,N,07726.2682,W,0.01,46.08,120821,,,A*44
$GPGGA,134713.750,4308.3038,N,07726.2682,W,1,07,1.28,164.1,M,-34.4,M,,*52
$GPRMC,134714.000,A,4308.3038,N,07726.2682,W,0.00,338.24,120821,,,A*73
$GPGGA,134714.250,4308.3038,N,07726.2682,W,1,07,1.28,164.1,M,-34.4,M,,*50
$GPRMC,134714.500,A,4308.3038,N,07726.2682,W,0.00,0.00,120821,,,A*78
$GPGGA,134714.750,4308.3038,N,07726.2682,W,1,07,1.28,164.1,M,-34.4,M,,*55
$GPRMC,134715.000,A,4308.3038,N,07726.2682,W,0.01,258.91,120821,,,A*7A
$GPGGA,134715.250,4308.3038,N,07726.2682,W,1,07,1.28,164.1,M,-34.4,M,,*51
$GPRMC,134715.500,A,4308.3038,N,07726.2682,W,0.00,0.00,120821,,,A*79
$GPGGA,134715.750,4308.3038,N,07726.2682,W,1,07,1.28,164.1,M,-34.4,M,,*54
$GPRMC,134716.000,A,4308.3038,N,07726.2682,W,0.01,159.46,120821,,,A*71
$GPGGA,134716.250,4308.3038,N,07726.2682,W,1,07,1.28,164.1,M,-34.4,M,,*52
$GPRMC,134716.500,A,4308.3038,N,07726.2682,W,0.01,187.29,120821,,,A*7E
$GPGGA,134716.750,4308.3038,N,07726.2682,W,1,07,1.28,164.1,M,-34.4,M,,*57
$GPRMC,134717.000,A,4308.3038,N,07726.2682,W,0.01,167.64,120821,,,A*7D
$GPGGA,134717.250,4308.3038,N,07726.2682,W,1,07,1.28,164.1,M,-34.4,M,,*53
$GPRMC,134717.500,A,4308.3038,N,07726.2682,W,0.01,199.15,120821,,,A*7F
$GPGGA,134717.750,4308.3038,N,07726.2682,W,1,07,1.28,164.1,M,-34.4,M,,*56
$GPRMC,134718.000,A,4308.3038,N,07726.2682,W,0.00,143.64,120821,,,A*75
$GPGGA,134718.250,4308.3038,N,07726.2682,W,1,07,1.28,164.1,M,-34.4,M,,*5C
$GPRMC,134718.500,A,4308.3038,N,07726.2682,W,0.00,208.57,120821,,,A*7C
$GPGGA,134718.750,4308.3038,N,07726.2682,W,1,07,1.28,164.1,M,-34.4,M,,*59
$GPRMC,134719.000,A,4308.3038,N,07726.2682,W,0.01,119.73,120821,,,A*7C
$GPGGA,134719.250,4308.3038,N,07726.2682,W,1,07,1.28,164.1,M,-34.4,M,,*5D
$GPRMC,134719.500,A,4308.3038,N,07726.2682,W,0.01,177.68,120821,,,A*7B
$GPGGA,134719.750,4308.3038,N,07726.2682,W,1,07,1.28,164.1,M,-34.4,M,,*58
$GPRMC,134720.000,A,4308.3038,N,07726.2682,W,0.01,199.36,120821,,,A*7F
$GPGGA,134720.250,4308.3038,N,07726.2682,W,1,07,1.28,164.1,M,-34.4,M,,*57
$GPRMC,134720.500,A,4308.3038,N,07726.2682,W,0.01,241.67,120821,,,A*78
$GPGGA,134720.750,4308.3038,N,07726.2682,W,1,07,1.28,164.1,M,-34.4,M,,*52
$GPRMC,134721.000,A,4308.3038,N,07726.2682,W,0.00,74.56,120821,,,A*4B
$GPGGA,134721.250,4308.3038,N,07726.2682,W,1,07,1.28,164.1,M,-34.4,M,,*56
$GPRMC,134721.500,A,4308.3038,N,07726.2682,W,0.00,261.47,120821,,,A*78
$GPGGA,134721.750,4308.3038,N,07726.2682,W,1,07,1.28,164.1,M,-34.4,M,,*53
$GPRMC,134722.000,A,4308.3038,N,07726.2682,W,0.01,17.13,120821,,,A*4D
$GPGGA,134722.250,4308.3038,N,07726.2682,W,1,07,1.28,164.1,M,-34.4,M,,*55
$GPRMC,134722.500,A,4308.3038,N,07726.2682,W,0.00,298.74,120821,,,A*7D
$GPGGA,134722.750,4308.3038,N,07726.2682,W,1,07,1.28,164.1,M,-34.4,M,,*50
$GPRMC,134723.000,A,4308.3038,N,07726.2682,W,0.00,345.88,120821,,,A*7B
$GPGGA,134723.250,4308.3038,N,07726.2682,W,1,07,1.28,164.1,M,-34.4,M,,*54
$GPRMC,134723.500,A,4308.3038,N,07726.2682,W,0.00,8.70,120821,,,A*73
$GPGGA,134723.750,4308.3038,N,07726.2682,W,1,07,1.28,164.1,M,-34.4,M,,*51
$GPRMC,134724.000,A,4308.3038,N,07726.2682,W,0.00,0.00,120821,,,A*7E
$GPGGA,134724.250,4308.3038,N,07726.2682,W,1,07,1.28,164.1,M,-34.4,M,,*53
$GPRMC,134724.500,A,4308.3038,N,07726.2682,W,0.01,107.19,120821,,,A*74
$GPGGA,134724.750,4308.3038,N,07726.2682,W,1,07,1.28,164.1,M,-34.4,M,,*56
$GPRMC,134725.000,A,4308.3038,N,07726.2682,W,0.00,190.65,120821,,,A*74
$GPGGA,134725.250,4308.3038,N,07726.2682,W,1,07,1.28,164.1,M,-34.4,M,,*52
$GPRMC,134725.500,A,4308.3038,N,07726.2682,W,0.00,133.05,120821,,,A*7E
$GPGGA,134725.750,4308.3038,N,07726.2682,W,1,07,1.28,164.1,M,-34.4,M,,*57
$GPRMC,134726.000,A,4308.3038,N,07726.2682,W,0.00,90.67,120821,,,A*44
$GPGGA,134726.250,4308.3038,N,07726.2682,W,1,07,1.28,164.1,M,-34.4,M,,*51
$GPRMC,134726.500,A,4308.3038,N,07726.2682,W,0.01,100.01,120821,,,A*78
$GPGGA,134726.750,4308.3038,N,07726.2682,W,1,07,1.28,164.1,M,-34.4,M,,*54
$GPRMC,134727.000,A,4308.3038,N,07726.2682,W,0.01,127.98,120821,,,A*79
$GPGGA,134727.250,4308.3038,N,07726.2682,W,1,07,1.28,164.1,M,-34.4,M,,*50
$GPRMC,134727.500,A,4308.3038,N,07726.2682,W,0.00,133.24,120821,,,A*7F
$GPGGA,134727.750,4308.3038,N,07726.2682,W,1,07,1.28,164.1,M,-34.4,M,,*55
$GPRMC,134728.000,A,4308.3038,N,07726.2682,W,0.01,76.12,120821,,,A*41
$GPGGA,134728.250,4308.3038,N,07726.2682,W,1,07,1.28,164.1,M,-34.4,M,,*5F
$GPRMC,134728.500,A,4308.3038,N,07726.2682,W,0.01,176.54,120821,,,A*77
$GPGGA,134728.750,4308.3038,N,07726.2682,W,1,07,1.28,164.1,M,-34.4,M,,*5A
$GPRMC,134729.000,A,4308.3038,N,07726.2682,W,0.00,145.41,120821,,,A*76
$GPGGA,134729.250,4308.3038,N,07726.2682,W,1,07,1.28,164.1,M,-34.4,M,,*5E
$GPRMC,134729.500,A,4308.3038,N,07726.2682,W,0.00,22.21,120821,,,A*45
$GPGGA,134729.750,4308.3038,N,07726.2682,W,1,07,1.28,164.1,M,-34.4,M,,*5B
$GPRMC,134730.000,A,4308.3038,N,07726.2682,W,0.01,265.69,120821,,,A*74
$GPGGA,134730.250,4308.3038,N,07726.2682,W,1,07,1.28,164.1,M,-34.4,M,,*56
$GPRMC,134730.500,A,4308.3038,N,07726.2682,W,0.01,16.71,120821,,,A*4E
$GPGGA,134730.750,4308.3038,N,07726.2682,W,1,07,1.28,164.1,M,-34.4,M,,*53
$GPRMC,134731.000,A,4308.3038,N,07726.2682,W,0.00,257.60,120821,,,A*7C
$GPGGA,134731.250,4308.3038,N,07726.2682,W,1,07,1.28,164.1,M,-34.4,M,,*57
$GPRMC,134731.500,A,4308.3038,N,07726.2682,W,0.00,137.97,120821,,,A*74
$GPGGA,134731.750,4308.3038,N,07726.2682,W,1,07,1.28,164.1,M,-34.4,M,,*52
$GPRMC,134732.000,A,4308.3038,N,07726.2682,W,0.01,223.63,120821,,,A*7E
$GPGGA,134732.250,4308.3038,N,07726.2682,W,1,08,1.00,164.1,M,-34.4,M,,*51
$GPRMC,134732.500,A,4308.3038,N,07726.2682,W,0.01,224.19,120821,,,A*71
$GPGGA,134732.750,4308.3038,N,07726.2682,W,1,08,1.00,164.1,M,-34.4,M,,*54
$GPRMC,134733.000,A,4308.3038,N,07726.2682,W,0.01,85.55,120821,,,A*44
$GPGGA,134733.250,4308.3038,N,07726.2682,W,1,08,1.00,164.1,M,-34.4,M,,*50
$GPRMC,134733.500,A,4308.3038,N,07726.2682,W,0.01,48.15,120821,,,A*44
$GPGGA,134733.750,4308.3038,N,07726.2682,W,1,08,1.00,164.1,M,-34.4,M,,*55
$GPRMC,134734.000,A,4308.3038,N,07726.2682,W,0.00,287.78,120821,,,A*7D
$GPGGA,134734.250,4308.3038,N,07726.2682,W,1,08,1.00,164.1,M,-34.4,M,,*57
$GPRMC,134734.500,A,4308.3038,N,07726.2682,W,0.01,123.69,120821,,,A*74
$GPGGA,134734.750,4308.3038,N,07726.2682,W,1,08,1.00,164.1,M,-34.4,M,,*52
$GPRMC,134735.000,A,4308.3038,N,07726.2682,W,0.01,104.73,120821,,,A*7E
$GPGGA,134735.250,4308.3038,N,07726.2682,W,1,08,1.00,164.1,M,-34.4,M,,*56
$GPRMC,134735.500,A,4308.3038,N,07726.2682,W,0.01,216.01,120821,,,A*7E
$GPGGA,134735.750,4308.3038,N,07726.2682,W,1,08,1.00,164.0,M,-34.4,M,,*52
$GPRMC,134736.000,A,4308.3038,N,07726.2682,W,0.00,160.09,120821,,,A*73
$GPGGA,134736.250,4308.3038,N,07726.2682,W,1,08,1.00,164.0,M,-34.4,M,,*54
$GPRMC,134736.500,A,4308.3038,N,07726.2682,W,0.01,38.71,120821,,,A*44
$GPGGA,134736.750,4308.3038,N,07726.2682,W,1,08,1.00,164.0,M,-34.4,M,,*51
$GPRMC,134737.000,A,4308.3038,N,07726.2682,W,0.01,42.54,120821,,,A*4A
$GPGGA,134737.250,4308.3038,N,07726.2682,W,1,08,1.00,164.0,M,-34.4,M,,*55
$GPRMC,134737.500,A,4308.3038,N,07726.2682,W,0.00,146.37,120821,,,A*7E
$GPGGA,134737.750,4308.3038,N,07726.2682,W,1,08,1.00,164.0,M,-34.4,M,,*50
$GPRMC,134738.000,A,4308.3038,N,07726.2682,W,0.02,83.02,120821,,,A*48
$GPGGA,134738.250,4308.3038,N,07726.2682,W,1,08,1.00,164.0,M,-34.4,M,,*5A
$GPRMC,134738.500,A,4308.3038,N,07726.2682,W,0.01,70.33,120821,,,A*40
$GPGGA,134738.750,4308.3038,N,07726.2682,W,1,08,1.00,164.0,M,-34.4,M,,*5F
$GPRMC,134739.000,A,4308.3038,N,07726.2682,W,0.01,65.84,120821,,,A*4C
$GPGGA,134739.250,4308.3038,N,07726.2682,W,1,08,1.00,164.0,M,-34.4,M,,*5B
$GPRMC,134739.500,A,4308.3038,N,07726.2682,W,0.00,60.58,120821,,,A*4C
$GPGGA,134739.750,4308.3038,N,07726.2682,W,1,08,1.00,164.0,M,-34.4,M,,*5E
$GPRMC,134740.000,A,4308.3038,N,07726.2682,W,0.00,72.61,120821,,,A*4E
$GPGGA,134740.250,4308.3038,N,07726.2682,W,1,08,1.00,164.0,M,-34.4,M,,*55
$GPRMC,134740.500,A,4308.3038,N,07726.2682,W,0.01,138.70,120821,,,A*75
$GPGGA,134740.750,4308.3038,N,07726.2682,W,1,08,1.00,164.0,M,-34.4,M,,*50
$GPRMC,134741.000,A,4308.3038,N,07726.2682,W,0.01,87.73,120821,,,A*47
$GPGGA,134741.250,4308.3038,N,07726.2682,W,1,08,1.00,164.0,M,-34.4,M,,*54
$GPRMC,134741.500,A,4308.3038,N,07726.2682,W,0.00,164.03,120821,,,A*78
$GPGGA,134741.750,4308.3038,N,07726.2682,W,1,08,1.00,164.0,M,-34.4,M,,*51
$GPRMC,134742.000,A,4308.3038,N,07726.2682,W,0.01,141.15,120821,,,A*7F
$GPGGA,134742.250,4308.3038,N,07726.2682,W,1,08,1.00,164.0,M,-34.4,M,,*57
$GPRMC,134742.500,A,4308.3038,N,07726.2682,W,0.01,175.47,120821,,,A*7A
$GPGGA,134742.750,4308.3038,N,07726.2682,W,1,08,1.00,164.0,M,-34.4,M,,*52
$GPRMC,134743.000,A,4308.3038,N,07726.2682,W,0.01,133.16,120821,,,A*78
$GPGGA,134743.250,4308.3038,N,07726.2682,W,1,08,1.00,164.0,M,-34.4,M,,*56
$GPRMC,134743.500,A,4308.3038,N,07726.2682,W,0.01,120.89,120821,,,A*79
$GPGGA,134743.750,4308.3038,N,07726.2682,W,1,08,1.00,164.0,M,-34.4,M,,*53
$GPRMC,134744.000,A,4308.3038,N,07726.2682,W,0.01,141.72,120821,,,A*78
$GPGGA,134744.250,4308.3038,N,07726.2682,W,1,08,1.00,164.0,M,-34.4,M,,*51
$GPRMC,134744.500,A,4308.3038,N,07726.2682,W,0.01,156.41,120821,,,A*7B
$GPGGA,134744.750,4308.3038,N,07726.2682,W,1,08,1.00,164.0,M,-34.4,M,,*54
$GPRMC,134745.000,A,4308.3038,N,07726.2681,W,0.01,211.06,120821,,,A*7F
$GPGGA,134745.250,4308.3038,N,07726.2681,W,1,08,1.00,164.0,M,-34.4,M,,*53
$GPRMC,134745.500,A,4308.3038,N,07726.2681,W,0.01,215.03,120821,,,A*7B
$GPGGA,134745.750,4308.3038,N,07726.2681,W,1,08,1.00,164.0,M,-34.4,M,,*56
$GPRMC,134746.000,A,4308.3038,N,07726.2681,W,0.00,290.03,120821,,,A*71
$GPGGA,134746.250,4308.3038,N,07726.2681,W,1,08,1.00,164.0,M,-34.4,M,,*50
$GPRMC,134746.500,A,4308.3038,N,07726.2681,W,0.00,353.88,120821,,,A*79
$GPGGA,134746.750,4308.3038,N,07726.2681,W,1,08,1.00,164.0,M,-34.4,M,,*55
$GPRMC,134747.000,A,4308.3038,N,07726.2681,W,0.00,276.89,120821,,,A*7A
$GPGGA,134747.250,4308.3038,N,07726.2681,W,1,08,1.00,164.0,M,-34.4,M,,*51
$GPRMC,134747.500,A,4308.3038,N,07726.2681,W,0.01,15.57,120821,,,A*4A
$GPGGA,134747.750,4308.3038,N,07726.2681,W,1,08,1.00,164.0,M,-34.4,M,,*54
$GPRMC,134748.000,A,4308.3038,N,07726.2681,W,0.00,208.33,120821,,,A*7D
$GPGGA,134748.250,4308.3038,N,07726.2681,W,1,08,1.00,164.0,M,-34.4,M,,*5E
$GPRMC,134748.500,A,4308.3038,N,07726.2681,W,0.00,20.25,120821,,,A*47
$GPGGA,134748.750,4308.3038,N,07726.2681,W,1,08,1.00,164.0,M,-34.4,M,,*5B
$GPRMC,134749.000,A,4308.3038,N,07726.2681,W,0.00,107.41,120821,,,A*75
$GPGGA,134749.250,4308.3038,N,07726.2681,W,1,08,1.00,164.0,M,-34.4,M,,*5F
$GPRMC,134749.500,A,4308.3038,N,07726.2681,W,0.01,83.16,120821,,,A*4E
$GPGGA,134749.750,4308.3038,N,07726.2681,W,1,08,1.00,164.0,M,-34.4,M,,*5A
$GPRMC,134750.000,A,4308.3038,N,07726.2681,W,0.00,0.00,120821,,,A*7E
$GPGGA,134750.250,4308.3038,N,07726.2681,W,1,08,1.00,164.0,M,-34.4,M,,*57
$GPRMC,134750.500,A,4308.3038,N,07726.2681,W,0.00,190.48,120821,,,A*7F
$GPGGA,134750.750,4308.3038,N,07726.2681,W,1,08,1.00,164.0,M,-34.4,M,,*52
$GPRMC,134751.000,A,4308.3038,N,07726.2681,W,0.00,185.67,120821,,,A*72
$GPGGA,134751.250,4308.3038,N,07726.2681,W,1,08,1.00,164.0,M,-34.4,M,,*56
$GPRMC,134751.500,A,4308.3038,N,07726.2681,W,0.00,326.47,120821,,,A*7E
$GPGGA,134751.750,4308.3038,N,07726.2681,W,1,08,1.00,164.0,M,-34.4,M,,*53
$GPRMC,134752.000,A,4308.3038,N,07726.2681,W,0.01,328.91,120821,,,A*7C
$GPGGA,134752.250,4308.3038,N,07726.2681,W,1,08,1.00,163.9,M,-34.4,M,,*5B
$GPRMC,134752.500,A,4308.3038,N,07726.2681,W,0.00,359.89,120821,,,A*77
$GPGGA,134752.750,4308.3038,N,07726.2681,W,1,08,1.00,163.9,M,-34.4,M,,*5E
$GPRMC,134753.000,A,4308.3038,N,07726.2681,W,0.01,101.70,120821,,,A*7B
$GPGGA,134753.250,4308.3038,N,07726.2681,W,1,08,1.00,163.9,M,-34.4,M,,*5A
$GPRMC,134753.500,A,4308.3038,N,07726.2681,W,0.00,160.14,120821,,,A*7A
$GPGGA,134753.750,4308.3038,N,07726.2681,W,1,08,1.00,163.9,M,-34.4,M,,*5F
$GPRMC,134754.000,A,4308.3038,N,07726.2681,W,0.01,146.09,120821,,,A*71
$GPGGA,134754.250,4308.3038,N,07726.2681,W,1,08,1.00,163.9,M,-34.4,M,,*5D
$GPRMC,134754.500,A,4308.3038,N,07726.2681,W,0.01,152.17,120821,,,A*7E
$GPGGA,134754.750,4308.3038,N,07726.2681,W,1,08,1.00,163.9,M,-34.4,M,,*58
$GPRMC,134755.000,A,4308.3038,N,07726.2681,W,0.01,90.46,120821,,,A*41
$GPGGA,134755.250,4308.3038,N,07726.2681,W,1,08,1.00,163.9,M,-34.4,M,,*5C
$GPRMC,134755.500,A,4308.3038,N,07726.2681,W,0.01,80.34,120821,,,A*40
$GPGGA,134755.750,4308.3038,N,07726.2681,W,1,08,1.00,163.9,M,-34.4,M,,*59
$GPRMC,134756.000,A,4308.3038,N,07726.2681,W,0.01,321.72,120821,,,A*7C
$GPGGA,134756.250,4308.3038,N,07726.2681,W,1,08,1.00,163.9,M,-34.4,M,,*5F
$GPRMC,134756.500,A,4308.3038,N,07726.2681,W,0.00,340.17,120821,,,A*7C
$GPGGA,134756.750,4308.3038,N,07726.2681,W,1,08,1.00,163.9,M,-34.4,M,,*5A
$GPRMC,134757.000,A,4308.3038,N,07726.2681,W,0.00,0.00,120821,,,A*79
$GPGGA,134757.250,4308.3038,N,07726.2681,W,1,08,1.00,163.9,M,-34.4,M,,*5E
$GPRMC,134757.500,A,4308.3038,N,07726.2681,W,0.00,52.51,120821,,,A*4F
$GPGGA,134757.750,4308.3038,N,07726.2681,W,1,08,1.00,163.9,M,-34.4,M,,*5B
$GPRMC,134758.000,A,4308.3038,N,07726.2681,W,0.00,303.39,120821,,,A*7C
$GPGGA,134758.250,4308.3038,N,07726.2681,W,1,08,1.00,163.9,M,-34.4,M,,*51
$GPRMC,134758.500,A,4308.3038,N,07726.2681,W,0.00,277.64,120821,,,A*73
$GPGGA,134758.750,4308.3038,N,07726.2681,W,1,08,1.00,163.9,M,-34.4,M,,*54
$GPRMC,134759.000,A,4308.3038,N,07726.2681,W,0.00,323.20,120821,,,A*77
$GPGGA,134759.250,4308.3038,N,07726.2681,W,1,08,1.00,163.9,M,-34.4,M,,*50
$GPRMC,134759.500,A,4308.3038,N,07726.2681,W,0.01,261.76,120821,,,A*77
$GPGGA,134759.750,4308.3038,N,07726.2681,W,1,08,1.00,163.9,M,-34.4,M,,*55
$GPRMC,134800.000,A,4308.3038,N,07726.2681,W,0.01,155.49,120821,,,A*79
$GPGGA,134800.250,4308.3038,N,07726.2681,W,1,08,1.00,163.9,M,-34.4,M,,*53
$GPRMC,134800.500,A,4308.3038,N,07726.2681,W,0.01,151.71,120821,,,A*73
$GPGGA,134800.750,4308.3038,N,07726.2681,W,1,08,1.00,163.9,M,-34.4,M,,*56
$GPRMC,134801.000,A,4308.3038,N,07726.2681,W,0.00,268.12,120821,,,A*7A
$GPGGA,134801.250,4308.3038,N,07726.2681,W,1,08,1.00,163.9,M,-34.4,M,,*52
$GPRMC,134801.500,A,4308.3038,N,07726.2681,W,0.01,248.80,120821,,,A*77
$GPGGA,134801.750,4308.3038,N,07726.2681,W,1,08,1.00,163.9,M,-34.4,M,,*57
$GPRMC,134802.000,A,4308.3038,N,07726.2681,W,0.00,200.41,120821,,,A*71
$GPGGA,134802.250,4308.3038,N,07726.2681,W,1,08,1.00,163.9,M,-34.4,M,,*51
$GPRMC,134802.500,A,4308.3038,N,07726.2681,W,0.01,250.10,120821,,,A*74
$GPGGA,134802.750,4308.3038,N,07726.2681,W,1,08,1.00,163.9,M,-34.4,M,,*54
$GPRMC,134803.000,A,4308.3038,N,07726.2681,W,0.00,230.51,120821,,,A*72
$GPGGA,134803.250,4308.3038,N,07726.2681,W,1,08,1.00,163.9,M,-34.4,M,,*50
$GPRMC,134803.500,A,4308.3038,N,07726.2681,W,0.01,249.58,120821,,,A*71
$GPGGA,134803.750,4308.3038,N,07726.2681,W,1,08,1.00,163.9,M,-34.4,M,,*55
$GPRMC,134804.000,A,4308.3038,N,07726.2681,W,0.01,258.37,120821,,,A*7A
$GPGGA,134804.250,4308.3038,N,07726.2681,W,1,08,1.00,163.9,M,-34.4,M,,*57
$GPRMC,134804.500,A,4308.3038,N,07726.2681,W,0.01,182.22,120821,,,A*7F
$GPGGA,134804.750,4308.3038,N,07726.2681,W,1,08,1.00,163.9,M,-34.4,M,,*52
$GPRMC,134805.000,A,4308.3038,N,07726.2681,W,0.00,0.00,120821,,,A*71
$GPGGA,134805.250,4308.3038,N,07726.2681,W,1,08,1.00,163.9,M,-34.4,M,,*56
$GPRMC,134805.500,A,4308.3038,N,07726.2681,W,0.01,52.38,120821,,,A*49
$GPGGA,134805.750,4308.3038,N,07726.2681,W,1,08,1.00,163.9,M,-34.4,M,,*53
$GPRMC,134806.000,A,4308.3038,N,07726.2681,W,0.01,333.46,120821,,,A*72
$GPGGA,134806.250,4308.3038,N,07726.2681,W,1,08,1.00,163.9,M,-34.4,M,,*55
$GPRMC,134806.500,A,4308.3038,N,07726.2681,W,0.00,348.90,120821,,,A*71
$GPGGA,134806.750,4308.3038,N,07726.2681,W,1,08,1.00,163.9,M,-34.4,M,,*50
$GPRMC,134807.000,A,4308.3038,N,07726.2681,W,0.00,0.00,120821,,,A*73
$GPGGA,134807.250,4308.3038,N,07726.2681,W,1,08,1.00,163.9,M,-34.4,M,,*54
$GPRMC,134807.500,A,4308.3038,N,07726.2681,W,0.01,58.65,120821,,,A*49
$GPGGA,134807.750,4308.3038,N,07726.2681,W,1,08,1.00,163.9,M,-34.4,M,,*51
$GPRMC,134808.000,A,4308.3038,N,07726.2681,W,0.00,83.13,120821,,,A*45
$GPGGA,134808.250,4308.3038,N,07726.2681,W,1,08,1.00,163.9,M,-34.4,M,,*5B
$GPRMC,134808.500,A,4308.3038,N,07726.2681,W,0.00,24.76,120821,,,A*4E
$GPGGA,134808.750,4308.3038,N,07726.2681,W,1,08,1.00,163.9,M,-34.4,M,,*5E
$GPRMC,134809.000,A,4308.3038,N,07726.2681,W,0.00,32.05,120821,,,A*49
$GPGGA,134809.250,4308.3038,N,07726.2681,W,1,08,1.00,163.9,M,-34.4,M,,*5A
$GPRMC,134809.500,A,4308.3038,N,07726.2681,W,0.01,358.61,120821,,,A*70
$GPGGA,134809.750,4308.3038,N,07726.2681,W,1,08,1.00,163.9,M,-34.4,M,,*5F
$GPRMC,134810.000,A,4308.3038,N,07726.2681,W,0.01,260.97,120821,,,A*7E
$GPGGA,134810.250,4308.3038,N,07726.2681,W,1,08,1.00,163.9,M,-34.4,M,,*52
$GPRMC,134810.500,A,4308.3038,N,07726.2681,W,0.02,31.10,120821,,,A*41
$GPGGA,134810.750,4308.3038,N,07726.2681,W,1,08,1.00,163.9,M,-34.4,M,,*57
$GPRMC,134811.000,A,4308.3038,N,07726.2681,W,0.01,221.19,120821,,,A*7C
$GPGGA,134811.250,4308.3038,N,07726.2681,W,1,08,1.00,163.9,M,-34.4,M,,*53
$GPRMC,134811.500,A,4308.3038,N,07726.2681,W,0.01,355.78,120821,,,A*7C
$GPGGA,134811.750,4308.3038,N,07726.2681,W,1,08,1.00,163.9,M,-34.4,M,,*56
$GPRMC,134812.000,A,4308.3038,N,07726.2681,W,0.00,246.94,120821,,,A*7A
$GPGGA,134812.250,4308.3038,N,07726.2681,W,1,08,1.00,163.9,M,-34.4,M,,*50
$GPRMC,134812.500,A,4308.3038,N,07726.2681,W,0.00,0.00,120821,,,A*72
$GPGGA,134812.750,4308.3038,N,07726.2681,W,1,08,1.00,163.9,M,-34.4,M,,*55
$GPRMC,134813.000,A,4308.3038,N,07726.2681,W,0.00,0.00,120821,,,A*76
$GPGGA,134813.250,4308.3038,N,07726.2681,W,1,08,1.00,163.9,M,-34.4,M,,*51
$GPRMC,134813.500,A,4308.3038,N,07726.2681,W,0.00,22.02,120821,,,A*41
$GPGGA,134813.750,4308.3038,N,07726.2681,W,1,08,1.00,163.9,M,-34.4,M,,*54
$GPRMC,134814.000,A,4308.3038,N,07726.2681,W,0.00,307.18,120821,,,A*7C
$GPGGA,134814.250,4308.3038,N,07726.2681,W,1,08,1.00,163.9,M,-34.4,M,,*56
$GPRMC,134814.500,A,4308.3038,N,07726.2681,W,0.00,224.96,120821,,,A*7F
$GPGGA,134814.750,4308.3038,N,07726.2681,W,1,08,1.00,163.9,M,-34.4,M,,*53
$GPRMC,134815.000,A,4308.3038,N,07726.2681,W,0.00,110.93,120821,,,A*7A
$GPGGA,134815.250,4308.3038,N,07726.2681,W,1,08,1.00,163.9,M,-34.4,M,,*57
$GPRMC,134815.500,A,4308.3038,N,07726.2681,W,0.00,298.11,120821,,,A*76
$GPGGA,134815.750,4308.3038,N,07726.2681,W,1,08,1.00,163.9,M,-34.4,M,,*52
$GPRMC,134816.000,A,4308.3038,N,07726.2681,W,0.00,354.11,120821,,,A*71
$GPGGA,134816.250,4308.3038,N,07726.2681,W,1,08,1.00,163.9,M,-34.4,M,,*54
$GPRMC,134816.500,A,4308.3038,N,07726.2681,W,0.00,357.72,120821,,,A*72
$GPGGA,134816.750,4308.3038,N,07726.2681,W,1,08,1.00,163.8,M,-34.4,M,,*50
$GPRMC,134817.000,A,4308.3038,N,07726.2681,W,0.00,145.33,120821,,,A*72
$GPGGA,134817.250,4308.3038,N,07726.2681,W,1,08,1.00,163.8,M,-34.4,M,,*54
$GPRMC,134817.500,A,4308.3038,N,07726.2681,W,0.00,143.80,120821,,,A*79
$GPGGA,134817.750,4308.3038,N,07726.2681,W,1,08,1.00,163.8,M,-34.4,M,,*51
$GPRMC,134818.000,A,4308.3038,N,07726.2681,W,0.00,185.67,120821,,,A*70
$GPGGA,134818.250,4308.3038,N,07726.2681,W,1,08,1.00,163.8,M,-34.4,M,,*5B
$GPRMC,134818.500,A,4308.3038,N,07726.2681,W,0.01,104.70,120821,,,A*7B
$GPGGA,134818.750,4308.3038,N,07726.2681,W,1,08,1.00,163.8,M,-34.4,M,,*5E
$GPRMC,134819.000,A,4308.3038,N,07726.2681,W,0.00,178.02,120821,,,A*70
$GPGGA,134819.250,4308.3038,N,07726.2681,W,1,08,1.00,163.8,M,-34.4,M,,*5A
$GPRMC,134819.500,A,4308.3038,N,07726.2681,W,0.00,67.82,120821,,,A*42
$GPGGA,134819.750,4308.3038,N,07726.2681,W,1,08,1.00,163.8,M,-34.4,M,,*5F
$GPRMC,134820.000,A,4308.3038,N,07726.2681,W,0.00,210.28,120821,,,A*7F
$GPGGA,134820.250,4308.3038,N,07726.2681,W,1,08,1.00,163.8,M,-34.4,M,,*50
$GPRMC,134820.500,A,4308.3038,N,07726.2681,W,0.00,69.39,120821,,,A*46
$GPGGA,134820.750,4308.3038,N,07726.2681,W,1,08,1.00,163.8,M,-34.4,M,,*55
$GPRMC,134821.000,A,4308.3038,N,07726.2681,W,0.01,303.24,120821,,,A*70
$GPGGA,134821.250,4308.3038,N,07726.2681,W,1,08,1.00,163.8,M,-34.4,M,,*51
$GPRMC,134821.500,A,4308.3038,N,07726.2681,W,0.01,266.45,120821,,,A*70
$GPGGA,134821.750,4308.3038,N,07726.2681,W,1,08,1.00,163.8,M,-34.4,M,,*54
$GPRMC,134822.000,A,4308.3038,N,07726.2681,W,0.00,284.62,120821,,,A*7E
$GPGGA,134822.250,4308.3038,N,07726.2681,W,1,08,1.00,163.8,M,-34.4,M,,*52
$GPRMC,134822.500,A,4308.3038,N,07726.2681,W,0.00,216.32,120821,,,A*75
$GPGGA,134822.750,4308.3038,N,07726.2681,W,1,08,1.00,163.8,M,-34.4,M,,*57
$GPRMC,134823.000,A,4308.3038,N,07726.2681,W,0.00,104.68,120821,,,A*7E
$GPGGA,134823.250,4308.3038,N,07726.2681,W,1,08,1.00,163.8,M,-34.4,M,,*53
$GPRMC,134823.500,A,4308.3038,N,07726.2681,W,0.01,102.90,120821,,,A*7B
$GPGGA,134823.750,4308.3038,N,07726.2681,W,1,08,1.00,163.8,M,-34.4,M,,*56
$GPRMC,134824.000,A,4308.3038,N,07726.2681,W,0.01,54.63,120821,,,A*47
$GPGGA,134824.250,4308.3038,N,07726.2681,W,1,08,1.00,163.8,M,-34.4,M,,*54
$GPRMC,134824.500,A,4308.3038,N,07726.2681,W,0.00,20.82,120821,,,A*4F
$GPGGA,134824.750,4308.3038,N,07726.2681,W,1,08,1.00,163.8,M,-34.4,M,,*51
$GPRMC,134825.000,A,4308.3038,N,07726.2681,W,0.00,285.28,120821,,,A*76
$GPGGA,134825.250,4308.3038,N,07726.2681,W,1,08,1.00,163.8,M,-34.4,M,,*55
$GPRMC,134825.500,A,4308.3038,N,07726.2681,W,0.00,194.80,120821,,,A*72
$GPGGA,134825.750,4308.3038,N,07726.2681,W,1,08,1.00,163.8,M,-34.4,M,,*50
$GPRMC,134826.000,A,4308.3038,N,07726.2681,W,0.01,157.74,120821,,,A*71
$GPGGA,134826.250,4308.3038,N,07726.2681,W,1,08,1.00,163.8,M,-34.4,M,,*56
$GPRMC,134826.500,A,4308.3038,N,07726.2681,W,0.00,264.40,120821,,,A*71
$GPGGA,134826.750,4308.3038,N,07726.2681,W,1,08,1.00,163.8,M,-34.4,M,,*53
$GPRMC,134827.000,A,4308.3038,N,07726.2681,W,0.00,321.83,120821,,,A*7A
$GPGGA,134827.250,4308.3038,N,07726.2681,W,1,08,1.00,163.8,M,-34.4,M,,*57
$GPRMC,134827.500,A,4308.3038,N,07726.2681,W,0.01,259.05,120821,,,A*7E
$GPGGA,134827.750,4308.3038,N,07726.2681,W,1,08,1.00,163.8,M,-34.4,M,,*52
$GPRMC,134828.000,A,4308.3038,N,07726.2681,W,0.01,332.52,120821,,,A*7A
$GPGGA,134828.250,4308.3038,N,07726.2681,W,1,08,1.00,163.8,M,-34.4,M,,*58
$GPRMC,134828.500,A,4308.3038,N,07726.2681,W,0.01,237.04,120821,,,A*78
$GPGGA,134828.750,4308.3038,N,07726.2681,W,1,08,1.00,163.8,M,-34.4,M,,*5D
$GPRMC,134829.000,A,4308.3038,N,07726.2681,W,0.01,139.34,120821,,,A*72
$GPGGA,134829.250,4308.3038,N,07726.2681,W,1,08,1.00,163.8,M,-34.4,M,,*59
$GPRMC,134829.500,A,4308.3038,N,07726.2681,W,0.01,135.90,120821,,,A*75
$GPGGA,134829.750,4308.3038,N,07726.2681,W,1,08,1.00,163.8,M,-34.4,M,,*5C
$GPRMC,134830.000,A,4308.3038,N,07726.2681,W,0.01,351.46,120821,,,A*73
$GPGGA,134830.250,4308.3038,N,07726.2681,W,1,08,1.00,163.8,M,-34.4,M,,*51
$GPRMC,134830.500,A,4308.3038,N,07726.2681,W,0.00,25.99,120821,,,A*45
$GPGGA,134830.750,4308.3038,N,07726.2681,W,1,08,1.00,163.7,M,-34.4,M,,*5B
$GPRMC,134831.000,A,4308.3038,N,07726.2681,W,0.01,204.64,120821,,,A*73
$GPGGA,134831.250,4308.3038,N,07726.2681,W,1,08,1.00,163.7,M,-34.4,M,,*5F
$GPRMC,134831.500,A,4308.3038,N,07726.2681,W,0.01,232.95,120821,,,A*7D
$GPGGA,134831.750,4308.3038,N,07726.2681,W,1,08,1.00,163.7,M,-34.4,M,,*5A
$GPRMC,134832.000,A,4308.3038,N,07726.2681,W,0.00,179.71,120821,,,A*7C
$GPGGA,134832.250,4308.3038,N,07726.2681,W,1,08,1.00,163.7,M,-34.4,M,,*5C
$GPRMC,134832.500,A,4308.3038,N,07726.2681,W,0.01,91.04,120821,,,A*4D
$GPGGA,134832.750,4308.3038,N,07726.2681,W,1,08,1.00,163.7,M,-34.4,M,,*59
$GPRMC,134833.000,A,4308.3038,N,07726.2681,W,0.00,301.80,120821,,,A*7E
$GPGGA,134833.250,4308.3038,N,07726.2681,W,1,08,1.00,163.7,M,-34.4,M,,*5D
$GPRMC,134833.500,A,4308.3038,N,07726.2681,W,0.00,240.34,120821,,,A*70
$GPGGA,134833.750,4308.3038,N,07726.2681,W,1,08,1.00,163.7,M,-34.4,M,,*58
$GPRMC,134834.000,A,4308.3038,N,07726.2681,W,0.01,185.42,120821,,,A*78
$GPGGA,134834.250,4308.3038,N,07726.2681,W,1,08,1.00,163.7,M,-34.4,M,,*5A
$GPRMC,134834.500,A,4308.3038,N,07726.2681,W,0.00,193.51,120821,,,A*79
$GPGGA,134834.750,4308.3038,N,07726.2681,W,1,08,1.00,163.7,M,-34.4,M,,*5F
$GPRMC,134835.000,A,4308.3038,N,07726.2681,W,0.01,41.20,120821,,,A*44
$GPGGA,134835.250,4308.3038,N,07726.2681,W,1,08,1.00,163.7,M,-34.4,M,,*5B
$GPRMC,134835.500,A,4308.3038,N,07726.2681,W,0.00,219.04,120821,,,A*79
$GPGGA,134835.750,4308.3038,N,07726.2681,W,1,08,1.00,163.7,M,-34.4,M,,*5E
$GPRMC,134836.000,A,4308.3038,N,07726.2681,W,0.01,68.56,120821,,,A*4D
$GPGGA,134836.250,4308.3038,N,07726.2681,W,1,08,1.00,163.7,M,-34.4,M,,*58
$GPRMC,134836.500,A,4308.3038,N,07726.2681,W,0.01,347.52,120821,,,A*72
$GPGGA,134836.750,4308.3038,N,07726.2681,W,1,08,1.00,163.7,M,-34.4,M,,*5D
$GPRMC,134837.000,A,4308.3038,N,07726.2681,W,0.00,98.65,120821,,,A*42
$GPGGA,134837.250,4308.3038,N,07726.2681,W,1,08,1.00,163.7,M,-34.4,M,,*59
$GPRMC,134837.500,A,4308.3038,N,07726.2681,W,0.01,192.90,120821,,,A*77
$GPGGA,134837.750,4308.3038,N,07726.2681,W,1,08,1.00,163.7,M,-34.4,M,,*5C
$GPRMC,134838.000,A,4308.3038,N,07726.2681,W,0.00,318.72,120821,,,A*70
$GPGGA,134838.250,4308.3038,N,07726.2681,W,1,08,1.00,163.7,M,-34.4,M,,*56
$GPRMC,134838.500,A,4308.3038,N,07726.2681,W,0.01,39.30,120821,,,A*42
$GPGGA,134838.750,4308.3038,N,07726.2681,W,1,08,1.00,163.7,M,-34.4,M,,*53
$GPRMC,134839.000,A,4308.3038,N,07726.2681,W,0.00,188.77,120821,,,A*7F
$GPGGA,134839.250,4308.3038,N,07726.2681,W,1,08,1.00,163.7,M,-34.4,M,,*57
$GPRMC,134839.500,A,4308.3038,N,07726.2681,W,0.01,215.13,120821,,,A*7E
$GPGGA,134839.750,4308.3038,N,07726.2681,W,1,08,1.00,163.7,M,-34.4,M,,*52
$GPRMC,134840.000,A,4308.3038,N,07726.2681,W,0.01,65.91,120821,,,A*4A
$GPGGA,134840.250,4308.3038,N,07726.2681,W,1,08,1.00,163.7,M,-34.4,M,,*59
$GPRMC,134840.500,A,4308.3038,N,07726.2681,W,0.00,2.52,120821,,,A*70
$GPGGA,134840.750,4308.3038,N,07726.2681,W,1,08,1.00,163.7,M,-34.4,M,,*5C
$GPRMC,134841.000,A,4308.3038,N,07726.2681,W,0.01,263.80,120821,,,A*7F
$GPGGA,134841.250,4308.3038,N,07726.2681,W,1,08,1.00,163.7,M,-34.4,M,,*58
$GPRMC,134841.500,A,4308.3038,N,07726.2681,W,0.00,36.41,120821,,,A*44
$GPGGA,134841.750,4308.3038,N,07726.2681,W,1,08,1.00,163.7,M,-34.4,M,,*5D
$GPRMC,134842.000,A,4308.3038,N,07726.2681,W,0.01,242.65,120821,,,A*74
$GPGGA,134842.250,4308.3038,N,07726.2681,W,1,08,1.00,163.7,M,-34.4,M,,*5B
$GPRMC,134842.500,A,4308.3038,N,07726.2681,W,0.00,0.00,120821,,,A*77
$GPGGA,134842.750,4308.3038,N,07726.2681,W,1,08,1.00,163.7,M,-34.4,M,,*5E
$GPRMC,134843.000,A,4308.3038,N,07726.2681,W,0.00,239.75,120821,,,A*79
$GPGGA,134843.250,4308.3038,N,07726.2681,W,1,08,1.00,163.7,M,-34.4,M,,*5A
$GPRMC,134843.500,A,4308.3038,N,07726.2681,W,0.00,151.57,120821,,,A*71
$GPGGA,134843.750,4308.3038,N,07726.2681,W,1,08,1.00,163.7,M,-34.4,M,,*5F
$GPRMC,134844.000,A,4308.3038,N,07726.2681,W,0.00,313.35,120821,,,A*73
$GPGGA,134844.250,4308.3038,N,07726.2681,W,1,08,1.00,163.6,M,-34.4,M,,*5C
$GPRMC,134844.500,A,4308.3038,N,07726.2681,W,0.01,193.51,120821,,,A*7F
$GPGGA,134844.750,4308.3038,N,07726.2681,W,1,08,1.00,163.6,M,-34.4,M,,*59
$GPRMC,134845.000,A,4308.3038,N,07726.2681,W,0.00,121.73,120821,,,A*73
$GPGGA,134845.250,4308.3038,N,07726.2681,W,1,08,1.00,163.6,M,-34.4,M,,*5D
$GPRMC,134845.500,A,4308.3038,N,07726.2681,W,0.01,76.06,120821,,,A*46
$GPGGA,134845.750,4308.3038,N,07726.2681,W,1,08,1.00,163.6,M,-34.4,M,,*58
$GPRMC,134846.000,A,4308.3038,N,07726.2681,W,0.01,199.81,120821,,,A*7F
$GPGGA,134846.250,4308.3038,N,07726.2681,W,1,08,1.00,163.6,M,-34.4,M,,*5E
$GPRMC,134846.500,A,4308.3038,N,07726.2681,W,0.01,344.69,120821,,,A*7E
$GPGGA,134846.750,4308.3038,N,07726.2681,W,1,08,1.00,163.6,M,-34.4,M,,*5B
$GPRMC,134847.000,A,4308.3038,N,07726.2681,W,0.00,170.11,120821,,,A*71
$GPGGA,134847.250,4308.3038,N,07726.2681,W,1,08,1.00,163.6,M,-34.4,M,,*5F
$GPRMC,134847.500,A,4308.3038,N,07726.2681,W,0.01,69.35,120821,,,A*4A
$GPGGA,134847.750,4308.3038,N,07726.2681,W,1,08,1.00,163.6,M,-34.4,M,,*5A
$GPRMC,134848.000,A,4308.3038,N,07726.2681,W,0.01,99.55,120821,,,A*49
$GPGGA,134848.250,4308.3038,N,07726.2681,W,1,08,1.00,163.6,M,-34.4,M,,*50
$GPRMC,134848.500,A,4308.3038,N,07726.2681,W,0.01,310.79,120821,,,A*70
$GPGGA,134848.750,4308.3038,N,07726.2681,W,1,08,1.00,163.6,M,-34.4,M,,*55
$GPRMC,134849.000,A,4308.3038,N,07726.2681,W,0.01,106.87,120821,,,A*70
$GPGGA,134849.250,4308.3038,N,07726.2681,W,1,08,0.99,163.6,M,-34.4,M,,*50
$GPRMC,134849.500,A,4308.3038,N,07726.2681,W,0.01,178.18,120821,,,A*7A
$GPGGA,134849.750,4308.3038,N,07726.2681,W,1,08,0.99,163.6,M,-34.4,M,,*55
$GPRMC,134850.000,A,4308.3038,N,07726.2681,W,0.00,161.03,120821,,,A*74
$GPGGA,134850.250,4308.3038,N,07726.2681,W,1,08,0.99,163.6,M,-34.4,M,,*58
$GPRMC,134850.500,A,4308.3038,N,07726.2681,W,0.01,203.50,120821,,,A*71
$GPGGA,134850.750,4308.3038,N,07726.2681,W,1,08,0.99,163.6,M,-34.4,M,,*5D
$GPRMC,134851.000,A,4308.3038,N,07726.2681,W,0.01,77.66,120821,,,A*41
$GPGGA,134851.250,4308.3038,N,07726.2681,W,1,08,0.99,163.6,M,-34.4,M,,*59
$GPRMC,134851.500,A,4308.3038,N,07726.2681,W,0.00,196.92,120821,,,A*70
$GPGGA,134851.750,4308.3038,N,07726.2681,W,1,08,0.99,163.6,M,-34.4,M,,*5C
$GPRMC,134852.000,A,4308.3038,N,07726.2681,W,0.00,107.55,120821,,,A*75
$GPGGA,134852.250,4308.3038,N,07726.2681,W,1,08,0.99,163.6,M,-34.4,M,,*5A
$GPRMC,134852.500,A,4308.3038,N,07726.2681,W,0.01,327.17,120821,,,A*77
$GPGGA,134852.750,4308.3038,N,07726.2681,W,1,08,0.99,163.6,M,-34.4,M,,*5F
$GPRMC,134853.000,A,4308.3038,N,07726.2681,W,0.00,146.25,120821,,,A*76
$GPGGA,134853.250,4308.3038,N,07726.2681,W,1,08,0.99,163.6,M,-34.4,M,,*5B
$GPRMC,134853.500,A,4308.3038,N,07726.2681,W,0.00,141.66,120821,,,A*73
$GPGGA,134853.750,4308.3038,N,07726.2681,W,1,08,0.99,163.6,M,-34.4,M,,*5E
$GPRMC,134854.000,A,4308.3038,N,07726.2681,W,0.01,166.00,120821,,,A*75
$GPGGA,134854.250,4308.3038,N,07726.2681,W,1,08,0.99,163.6,M,-34.4,M,,*5C
$GPRMC,134854.500,A,4308.3038,N,07726.2681,W,0.00,91.35,120821,,,A*4E
$GPGGA,134854.750,4308.3038,N,07726.2681,W,1,08,0.99,163.6,M,-34.4,M,,*59
$GPRMC,134855.000,A,4308.3038,N,07726.2681,W,0.00,271.96,120821,,,A*7F
$GPGGA,134855.250,4308.3038,N,07726.2681,W,1,08,0.99,163.6,M,-34.4,M,,*5D
$GPRMC,134855.500,A,4308.3038,N,07726.2681,W,0.00,97.47,120821,,,A*4C
$GPGGA,134855.750,4308.3038,N,07726.2681,W,1,08,0.99,163.6,M,-34.4,M,,*58
$GPRMC,134856.000,A,4308.3038,N,07726.2681,W,0.00,33.98,120821,,,A*46
$GPGGA,134856.250,4308.3038,N,07726.2681,W,1,08,0.99,163.6,M,-34.4,M,,*5E
$GPRMC,134856.500,A,4308.3038,N,07726.2681,W,0.00,0.00,120821,,,A*72
$GPGGA,134856.750,4308.3038,N,07726.2681,W,1,08,0.99,163.6,M,-34.4,M,,*5B
$GPRMC,134857.000,A,4308.3038,N,07726.2681,W,0.00,0.00,120821,,,A*76
$GPGGA,134857.250,4308.3038,N,07726.2681,W,1,08,0.99,163.6,M,-34.4,M,,*5F
$GPRMC,134857.500,A,4308.3038,N,07726.2681,W,0.00,55.11,120821,,,A*43
$GPGGA,134857.750,4308.3038,N,07726.2681,W,1,08,0.99,163.6,M,-34.4,M,,*5A
$GPRMC,134858.000,A,4308.3038,N,07726.2681,W,0.00,236.30,120821,,,A*7D
$GPGGA,134858.250,4308.3038,N,07726.2681,W,1,08,0.99,163.6,M,-34.4,M,,*50
$GPRMC,134858.500,A,4308.3038,N,07726.2681,W,0.00,0.00,120821,,,A*7C
$GPGGA,134858.750,4308.3038,N,07726.2681,W,1,08,0.99,163.6,M,-34.4,M,,*55
$GPRMC,134859.000,A,4308.3038,N,07726.2681,W,0.00,39.04,120821,,,A*46
$GPGGA,134859.250,4308.3038,N,07726.2681,W,1,08,0.99,163.6,M,-34.4,M,,*51
$GPRMC,134859.500,A,4308.3038,N,07726.2681,W,0.00,338.44,120821,,,A*75
$GPGGA,134859.750,4308.3038,N,07726.2681,W,1,08,0.99,163.6,M,-34.4,M,,*54
$GPRMC,134900.000,A,4308.3038,N,07726.2681,W,0.00,0.00,120821,,,A*75
$GPGGA,134900.250,4308.3038,N,07726.2681,W,1,08,0.99,163.6,M,-34.4,M,,*5C
$GPRMC,134900.500,A,4308.3038,N,07726.2681,W,0.00,337.60,120821,,,A*71
$GPGGA,134900.750,4308.3038,N,07726.2681,W,1,08,0.99,163.6,M,-34.4,M,,*59
$GPRMC,134901.000,A,4308.3038,N,07726.2681,W,0.00,0.00,120821,,,A*74
$GPGGA,134901.250,4308.3038,N,07726.2681,W,1,08,0.99,163.6,M,-34.4,M,,*5D
$GPRMC,134901.500,A,4308.3038,N,07726.2681,W,0.00,69.49,120821,,,A*43
$GPGGA,134901.750,4308.3038,N,07726.2681,W,1,08,0.99,163.6,M,-34.4,M,,*58
$GPRMC,134902.000,A,4308.3038,N,07726.2681,W,0.00,106.55,120821,,,A*70
$GPGGA,134902.250,4308.3038,N,07726.2681,W,1,08,0.99,163.6,M,-34.4,M,,*5E
$GPRMC,134902.500,A,4308.3038,N,07726.2681,W,0.01,224.28,120821,,,A*7D
$GPGGA,134902.750,4308.3038,N,07726.2681,W,1,08,0.99,163.6,M,-34.4,M,,*5B
$GPRMC,134903.000,A,4308.3038,N,07726.2681,W,0.00,181.79,120821,,,A*70
$GPGGA,134903.250,4308.3038,N,07726.2681,W,1,08,0.99,163.6,M,-34.4,M,,*5F
$GPRMC,134903.500,A,4308.3038,N,07726.2681,W,0.02,132.92,120821,,,A*7A
$GPGGA,134903.750,4308.3038,N,07726.2681,W,1,08,0.99,163.6,M,-34.4,M,,*5A
$GPRMC,134904.000,A,4308.3038,N,07726.2681,W,0.00,354.49,120821,,,A*7E
$GPGGA,134904.250,4308.3038,N,07726.2681,W,1,08,0.99,163.6,M,-34.4,M,,*58
$GPRMC,134904.500,A,4308.3038,N,07726.2681,W,0.00,113.46,120821,,,A*75
$GPGGA,134904.750,4308.3038,N,07726.2681,W,1,08,0.99,163.6,M,-34.4,M,,*5D
$GPRMC,134905.000,A,4308.3038,N,07726.2681,W,0.00,153.55,120821,,,A*77
$GPGGA,134905.250,4308.3038,N,07726.2681,W,1,08,0.99,163.6,M,-34.4,M,,*59
$GPRMC,134905.500,A,4308.3038,N,07726.2681,W,0.00,34.39,120821,,,A*48
$GPGGA,134905.750,4308.3038,N,07726.2681,W,1,08,0.99,163.6,M,-34.4,M,,*5C
$GPRMC,134906.000,A,4308.3038,N,07726.2681,W,0.00,122.40,120821,,,A*76
$GPGGA,134906.250,4308.3038,N,07726.2681,W,1,08,0.99,163.6,M,-34.4,M,,*5A
$GPRMC,134906.500,A,4308.3038,N,07726.2681,W,0.00,1.77,120821,,,A*77
$GPGGA,134906.750,4308.3038,N,07726.2681,W,1,08,0.99,163.6,M,-34.4,M,,*5F
$GPRMC,134907.000,A,4308.3038,N,07726.2681,W,0.01,280.35,120821,,,A*7F
$GPGGA,134907.250,4308.3038,N,07726.2681,W,1,08,0.99,163.6,M,-34.4,M,,*5B
$GPRMC,134907.500,A,4308.3038,N,07726.2681,W,0.00,76.85,120821,,,A*4B
$GPGGA,134907.750,4308.3038,N,07726.2681,W,1,08,0.99,163.6,M,-34.4,M,,*5E
$GPRMC,134908.000,A,4308.3038,N,07726.2681,W,0.00,91.81,120821,,,A*4C
$GPGGA,134908.250,4308.3038,N,07726.2681,W,1,08,0.99,163.6,M,-34.4,M,,*54
$GPRMC,134908.500,A,4308.3038,N,07726.2681,W,0.01,223.94,120821,,,A*77
$GPGGA,134908.750,4308.3038,N,07726.2681,W,1,08,0.99,163.6,M,-34.4,M,,*51
$GPRMC,134909.000,A,4308.3038,N,07726.2681,W,0.00,284.71,120821,,,A*74
$GPGGA,134909.250,4308.3038,N,07726.2681,W,1,08,0.99,163.6,M,-34.4,M,,*55
$GPRMC,134909.500,A,4308.3038,N,07726.2681,W,0.01,43.42,120821,,,A*49
$GPGGA,134909.750,4308.3038,N,07726.2681,W,1,08,0.99,163.6,M,-34.4,M,,*50
$GPRMC,134910.000,A,4308.3038,N,07726.2681,W,0.00,179.20,120821,,,A*79
$GPGGA,134910.250,4308.3038,N,07726.2681,W,1,08,0.99,163.6,M,-34.4,M,,*5D
$GPRMC,134910.500,A,4308.3038,N,07726.2681,W,0.00,0.00,120821,,,A*71
$GPGGA,134910.750,4308.3038,N,07726.2681,W,1,08,0.99,163.6,M,-34.4,M,,*58
$GPRMC,134911.000,A,4308.3038,N,07726.2681,W,0.01,151.74,120821,,,A*72
$GPGGA,134911.250,4308.3038,N,07726.2681,W,1,08,0.99,163.6,M,-34.4,M,,*5C
$GPRMC,134911.500,A,4308.3038,N,07726.2681,W,0.00,174.69,120821,,,A*7D
$GPGGA,134911.750,4308.3038,N,07726.2681,W,1,08,0.99,163.6,M,-34.4,M,,*59
$GPRMC,134912.000,A,4308.3038,N,07726.2681,W,0.01,148.57,120821,,,A*78
$GPGGA,134912.250,4308.3038,N,07726.2681,W,1,08,0.99,163.6,M,-34.4,M,,*5F
$GPRMC,134912.500,A,4308.3038,N,07726.2681,W,0.00,128.42,120821,,,A*7E
$GPGGA,134912.750,4308.3038,N,07726.2681,W,1,08,0.99,163.6,M,-34.4,M,,*5A
$GPRMC,134913.000,A,4308.3038,N,07726.2681,W,0.00,0.00,120821,,,A*77
$GPGGA,134913.250,4308.3038,N,07726.2681,W,1,08,0.99,163.6,M,-34.4,M,,*5E
$GPRMC,134913.500,A,4308.3038,N,07726.2681,W,0.00,63.90,120821,,,A*4E
$GPGGA,134913.750,4308.3038,N,07726.2681,W,1,08,0.99,163.6,M,-34.4,M,,*5B
$GPRMC,134914.000,A,4308.3038,N,07726.2681,W,0.00,49.19,120821,,,A*45
$GPGGA,134914.250,4308.3038,N,07726.2681,W,1,08,0.99,163.6,M,-34.4,M,,*59
$GPRMC,134914.500,A,4308.3038,N,07726.2681,W,0.01,68.31,120821,,,A*48
$GPGGA,134914.750,4308.3038,N,07726.2681,W,1,08,0.99,163.6,M,-34.4,M,,*5C
$GPRMC,134915.000,A,4308.3038,N,07726.2681,W,0.01,9.65,120821,,,A*7A
$GPGGA,134915.250,4308.3038,N,07726.2681,W,1,08,0.99,163.6,M,-34.4,M,,*58
$GPRMC,134915.500,A,4308.3038,N,07726.2681,W,0.00,146.82,120821,,,A*7D
$GPGGA,134915.750,4308.3038,N,07726.2681,W,1,08,0.99,163.6,M,-34.4,M,,*5D
$GPRMC,134916.000,A,4308.3038,N,07726.2681,W,0.00,334.31,120821,,,A*74
$GPGGA,134916.250,4308.3038,N,07726.2681,W,1,08,0.99,163.6,M,-34.4,M,,*5B
$GPRMC,134916.500,A,4308.3038,N,07726.2681,W,0.00,269.23,120821,,,A*7B
$GPGGA,134916.750,4308.3038,N,07726.2681,W,1,08,0.99,163.6,M,-34.4,M,,*5E
$GPRMC,134917.000,A,4308.3038,N,07726.2681,W,0.01,82.69,120821,,,A*47
$GPGGA,134917.250,4308.3038,N,07726.2681,W,1,08,0.99,163.5,M,-34.4,M,,*59
$GPRMC,134917.500,A,4308.3038,N,07726.2681,W,0.01,56.50,120821,,,A*41
$GPGGA,134917.750,4308.3038,N,07726.2681,W,1,08,0.99,163.5,M,-34.4,M,,*5C
$GPRMC,134918.000,A,4308.3038,N,07726.2681,W,0.01,53.38,120821,,,A*40
$GPGGA,134918.250,4308.3038,N,07726.2681,W,1,08,0.99,163.5,M,-34.4,M,,*56
$GPRMC,134918.500,A,4308.3038,N,07726.2681,W,0.01,269.03,120821,,,A*76
$GPGGA,134918.750,4308.3038,N,07726.2681,W,1,08,0.99,163.5,M,-34.4,M,,*53
$GPRMC,134919.000,A,4308.3038,N,07726.2681,W,0.00,164.16,120821,,,A*79
$GPGGA,134919.250,4308.3038,N,07726.2681,W,1,08,0.99,163.5,M,-34.4,M,,*57
$GPRMC,134919.500,A,4308.3038,N,07726.2681,W,0.00,221.19,120821,,,A*71
$GPGGA,134919.750,4308.3038,N,07726.2681,W,1,08,0.99,163.5,M,-34.4,M,,*52
$GPRMC,134920.000,A,4308.3038,N,07726.2681,W,0.00,0.00,120821,,,A*77
$GPGGA,134920.250,4308.3038,N,07726.2681,W,1,08,0.99,163.5,M,-34.4,M,,*5D
$GPRMC,134920.500,A,4308.3038,N,07726.2681,W,0.00,349.42,120821,,,A*7A
$GPGGA,134920.750,4308.3038,N,07726.2681,W,1,08,0.99,163.5,M,-34.4,M,,*58
$GPRMC,134921.000,A,4308.3038,N,07726.2681,W,0.00,339.91,120821,,,A*77
$GPGGA,134921.250,4308.3038,N,07726.2681,W,1,08,0.99,163.5,M,-34.4,M,,*5C
$GPRMC,134921.500,A,4308.3038,N,07726.2681,W,0.00,119.23,120821,,,A*7B
$GPGGA,134921.750,4308.3038,N,07726.2681,W,1,08,0.99,163.5,M,-34.4,M,,*59
$GPRMC,134922.000,A,4308.3038,N,07726.2681,W,0.00,257.13,120821,,,A*77
$GPGGA,134922.250,4308.3038,N,07726.2681,W,1,08,0.99,163.5,M,-34.4,M,,*5F
$GPRMC,134922.500,A,4308.3038,N,07726.2681,W,0.00,317.21,120821,,,A*76
$GPGGA,134922.750,4308.3038,N,07726.2681,W,1,08,0.99,163.5,M,-34.4,M,,*5A
$GPRMC,134923.000,A,4308.3038,N,07726.2681,W,0.00,162.11,120821,,,A*71
$GPGGA,134923.250,4308.3038,N,07726.2681,W,1,08,0.99,163.5,M,-34.4,M,,*5E
$GPRMC,134923.500,A,4308.3038,N,07726.2681,W,0.00,169.35,120821,,,A*79
$GPGGA,134923.750,4308.3038,N,07726.2681,W,1,08,0.99,163.5,M,-34.4,M,,*5B
$GPRMC,134924.000,A,4308.3038,N,07726.2681,W,0.00,153.30,120821,,,A*77
$GPGGA,134924.250,4308.3037,N,07726.2681,W,1,08,0.99,163.5,M,-34.4,M,,*56
$GPRMC,134924.500,A,4308.3037,N,07726.2681,W,0.00,262.10,120821,,,A*7E
$GPGGA,134924.750,4308.3037,N,07726.2681,W,1,08,0.99,163.5,M,-34.4,M,,*53
$GPRMC,134925.000,A,4308.3037,N,07726.2681,W,0.00,144.99,120821,,,A*7C
$GPGGA,134925.250,4308.3037,N,07726.2681,W,1,08,0.99,163.5,M,-34.4,M,,*57
$GPRMC,134925.500,A,4308.3037,N,07726.2681,W,0.01,184.40,120821,,,A*70
$GPGGA,134925.750,4308.3037,N,07726.2681,W,1,08,0.99,163.5,M,-34.4,M,,*52
$GPRMC,134926.000,A,4308.3037,N,07726.2681,W,0.00,162.61,120821,,,A*7C
$GPGGA,134926.250,4308.3037,N,07726.2681,W,1,08,0.99,163.5,M,-34.4,M,,*54
$GPRMC,134926.500,A,4308.3037,N,07726.2681,W,0.00,87.79,120821,,,A*4A
$GPGGA,134926.750,4308.3037,N,07726.2681,W,1,08,0.99,163.5,M,-34.4,M,,*51
$GPRMC,134927.000,A,4308.3037,N,07726.2681,W,0.00,11.04,120821,,,A*4B
$GPGGA,134927.250,4308.3037,N,07726.2681,W,1,08,0.99,163.5,M,-34.4,M,,*55
