Vers 81
USE_SERIAL_FEEDBACK=true
DEVELOPMENT_MODE=false
USE_RMC_ONLY=false

$GPRMC,140059.750,A,4308.2953,N,07726.2617,W,0.24,179.23,140821,,,A*75
$GPGGA,140100.000,4308.2951,N,07726.2616,W,1,03,5.84,184.3,M,-34.4,M,,*57
$GPRMC,140100.250,A,4308.2951,N,07726.2616,W,0.08,216.94,140821,,,A*76
$GPGGA,140100.500,4308.2953,N,07726.2617,W,1,03,5.84,184.4,M,-34.4,M,,*56
$GPRMC,140100.750,A,4308.2954,N,07726.2618,W,0.39,347.83,140821,,,A*79
$GPGGA,140101.000,4308.2955,N,07726.2618,W,1,03,85.40,184.4,M,-34.4,M,,*6B
$GPRMC,140101.250,A,4308.2954,N,07726.2618,W,0.28,352.92,140821,,,A*79
$GPGGA,140101.500,4308.2953,N,07726.2618,W,1,03,85.41,184.3,M,-34.4,M,,*6E
$GPRMC,140101.750,A,4308.2951,N,07726.2617,W,0.19,3.47,140821,,,A*7B
$GPGGA,140102.000,4308.2952,N,07726.2618,W,1,03,85.41,184.3,M,-34.4,M,,*69
$GPGGA,140102.500,4308.2981,N,07726.2621,W,1,04,19.79,181.9,M,-34.4,M,,*6E
$GPRMC,140102.500,A,4308.2981,N,07726.2621,W,0.29,5.33,140821,,A*71
$GPGGA,140102.750,4308.2974,N,07726.2618,W,1,04,19.79,181.7,M,-34.4,M,,*67
$GPRMC,140102.750,A,4308.2974,N,07726.2618,W,0.27,10.90,140821,,,A*45
$GPGGA,140103.000,4308.2972,N,07726.2618,W,1,04,19.82,181.6,M,-34.4,M,,*67
$GPRMC,140103.000,A,4308.2972,N,07726.2618,W,0.18,21.24,140821,,A*41
$GPGGA,140103.250,4308.2971,N,07726.2618,W,1,04,4.92,181.6,M,-34.4,M,,*5E
$GPRMC,140103.250,A,4308.2971,N,07726.2618,W,0.17,18.72,140821,,A*43
$GPGGA,140103.500,4308.2972,N,07726.2618,W,1,04,4.92,181.5,M,-34.4,M,,*5C
$GPRMC,140103.500,A,4308.2972,N,07726.2618,W,0.21,8.39,140821,,A*79
$GPGGA,140103.750,4308.2972,N,07726.2618,W,1,04,19.83,181.5,M,-34.4,M,,*67
$GPRMC,140103.750,A,4308.2972,N,07726.2618,W,0.23,357.05,140821$GPGGA,140104.000,4308.2972,N,07726.2619,W,1,04,19.85,181.5,M,-34.4,M,,*65
$GPRMC,140104.250,A,4308.2972,N,07726.2618,W,0.34,355.67,140821,,,A*78
$GPGGA,140104.500,4308.2971,N,07726.2618,W,1,04,19.84,181.4,M,-34.4,M,,*62
$GPRMC,140104.750,A,4308.2968,N,07726.2617,W,0.38,7.72,140821,,,A*75
$GPGGA,140105.000,4308.2967,N,07726.2616,W,1,04,19.85,181.2,M,-34.4,M,,*68
$GPRMC,140105.250,A,4308.2965,N,07726.2615,W,0.40,22.53,140821,,,A*45
$GPGGA,140105.500,4308.2964,N,07726.2615,W,1,04,4.92,181.2,M,-34.4,M,,*57
$GPRMC,140105.750,A,4308.2963,N,07726.2615,W,0.22,22.00,140821,,,A*44
$GPGGA,140106.000,4308.2961,N,07726.2615,W,1,04,4.92,181.1,M,-34.4,M,,*57
$GPRMC,140106.250,A,4308.2957,N,07726.2614,W,0.13,53.15,140821,,,A*44
$GPGGA,140106.500,4308.2955,N,07726.2613,W,1,04,4.92,180.9,M,-34.4,M,,*5A
$GPRMC,140106.750,A,4308.2953,N,07726.2612,W,0.15,79.47,140821,,,A*4A
$GPGGA,140107.000,4308.2950,N,07726.2611,W,1,04,4.92,180.8,M,-34.4,M,,*58
$GPRMC,140107.250,A,4308.2949,N,07726.2611,W,0.21,123.54,140821,,,A*7D
$GPGGA,140107.500,4308.2948,N,07726.2611,W,1,04,4.92,180.8,M,-34.4,M,,*54
$GPRMC,140107.750,A,4308.2948,N,07726.2611,W,0.16,148.82,140821,,,A*7B
$GPGGA,140108.000,4308.2948,N,07726.2612,W,1,04,4.92,180.7,M,-34.4,M,,*52
$GPRMC,140108.250,A,4308.2949,N,07726.2612,W,0.11,153.72,140821,,,A*71
$GPGGA,140108.500,4308.2950,N,07726.2612,W,1,04,4.92,180.5,M,-34.4,M,,*5C
$GPRMC,140108.750,A,4308.2949,N,07726.2612,W,0.08,171.57,140821,,,A*7B
$GPGGA,140109.000,4308.2948,N,07726.2611,W,1,04,4.92,180.3,M,-34.4,M,,*54
$GPRMC,140109.250,A,4308.2947,N,07726.2611,W,0.16,179.75,140821,,,A*75
$GPGGA,140109.500,4308.2947,N,07726.2611,W,1,04,4.92,180.2,M,-34.4,M,,*5F
$GPRMC,140109.750,A,4308.2947,N,07726.2612,W,0.21,191.50,140821,,,A*76
$GPGGA,140110.000,4308.2948,N,07726.2611,W,1,04,4.92,180.1,M,-34.4,M,,*5E
$GPRMC,140110.250,A,4308.2950,N,07726.2612,W,0.16,202.32,140821,,,A*74
$GPGGA,140110.500,4308.2951,N,07726.2612,W,1,04,4.92,180.1,M,-34.4,M,,*50
$GPRMC,140110.750,A,4308.2952,N,07726.2612,W,0.16,188.93,140821,,,A*79
$GPGGA,140111.000,4308.2953,N,07726.2613,W,1,04,4.92,180.0,M,-34.4,M,,*56
$GPRMC,140111.250,A,4308.2955,N,07726.2613,W,0.14,192.20,140821,,,A*7A
$GPGGA,140111.500,4308.2957,N,07726.2614,W,1,04,4.92,180.0,M,-34.4,M,,*50
$GPRMC,140111.750,A,4308.2959,N,07726.2614,W,0.05,212.90,140821,,,A*74
$GPGGA,140112.000,4308.2961,N,07726.2615,W,1,04,4.92,179.9,M,-34.4,M,,*5D
$GPRMC,140112.250,A,4308.2961,N,07726.2615,W,0.02,195.97,140821,,,A*74
$GPGGA,140112.500,4308.2961,N,07726.2615,W,1,04,4.92,179.9,M,-34.4,M,,*58
$GPRMC,140112.750,A,4308.2962,N,07726.2616,W,0.09,214.83,140821,,,A*75
$GPGGA,140113.000,4308.2963,N,07726.2616,W,1,04,4.92,179.9,M,-34.4,M,,*5D
$GPRMC,140113.250,A,4308.2963,N,07726.2616,W,0.07,215.63,140821,,,A*71
$GPGGA,140113.500,4308.2965,N,07726.2617,W,1,04,4.92,179.9,M,-34.4,M,,*5F
$GPRMC,140113.750,A,4308.2966,N,07726.2618,W,0.07,278.96,140821,,,A*7E
$GPGGA,140114.000,4308.2966,N,07726.2618,W,1,04,4.92,179.8,M,-34.4,M,,*50
$GPRMC,140114.250,A,4308.2967,N,07726.2618,W,0.02,279.94,140821,,,A*7B
$GPGGA,140114.500,4308.2968,N,07726.2618,W,1,04,4.92,179.8,M,-34.4,M,,*5B
$GPRMC,140114.750,A,4308.2969,N,07726.2619,W,0.03,7.63,140821,,,A*73
$GPGGA,140115.000,4308.2969,N,07726.2619,W,1,04,20.15,179.9,M,-34.4,M,,*67
$GPRMC,140115.250,A,4308.2968,N,07726.2619,W,0.07,120.58,140821,,,A*7E
$GPGGA,140115.500,4308.2969,N,07726.2619,W,1,04,4.92,179.8,M,-34.4,M,,*5A
$GPRMC,140115.750,A,4308.2970,N,07726.2620,W,0.03,65.28,140821,,,A*4B
$GPGGA,140116.000,4308.2970,N,07726.2620,W,1,04,4.92,179.8,M,-34.4,M,,*5E
$GPRMC,140116.250,A,4308.2971,N,07726.2621,W,0.06,7.27,140821,,,A*73
$GPGGA,140116.500,4308.2972,N,07726.2621,W,1,04,20.21,179.8,M,-34.4,M,,*66
$GPRMC,140116.750,A,4308.2972,N,07726.2622,W,0.07,9.30,140821,,,A*7F
$GPGGA,140117.000,4308.2972,N,07726.2622,W,1,04,20.21,179.8,M,-34.4,M,,*61
$GPRMC,140117.250,A,4308.2972,N,07726.2622,W,0.06,32.69,140821,,,A*4E
$GPGGA,140117.500,4308.2972,N,07726.2623,W,1,04,4.92,179.8,M,-34.4,M,,*5B
$GPRMC,140117.750,A,4308.2971,N,07726.2623,W,0.02,346.89,140821,,,A*73
$GPGGA,140118.000,4308.2972,N,07726.2623,W,1,04,20.24,179.8,M,-34.4,M,,*6A
$GPRMC,140118.250,A,4308.2971,N,07726.2624,W,0.03,240.48,140821,,,A*75
$GPGGA,140118.500,4308.2970,N,07726.2624,W,1,04,4.92,179.8,M,-34.4,M,,*51
$GPRMC,140118.750,A,4308.2969,N,07726.2624,W,0.14,202.95,140821,,,A*79
$GPGGA,140119.000,4308.2970,N,07726.2625,W,1,04,4.92,179.8,M,-34.4,M,,*54
$GPRMC,140119.250,A,4308.2972,N,07726.2625,W,0.07,231.35,140821,,,A*7E
$GPGGA,140119.500,4308.2973,N,07726.2626,W,1,04,4.92,179.8,M,-34.4,M,,*51
$GPRMC,140119.750,A,4308.2972,N,07726.2626,W,0.03,259.80,140821,,,A*7C
$GPGGA,140120.000,4308.2972,N,07726.2626,W,1,04,4.92,179.7,M,-34.4,M,,*50
$GPRMC,140120.250,A,4308.2971,N,07726.2627,W,0.09,212.44,140821,,,A*7C
$GPGGA,140120.500,4308.2971,N,07726.2627,W,1,04,4.92,179.7,M,-34.4,M,,*57
$GPRMC,140120.750,A,4308.2971,N,07726.2627,W,0.06,230.43,140821,,,A*71
$GPGGA,140121.000,4308.2971,N,07726.2627,W,1,04,4.92,179.7,M,-34.4,M,,*53
$GPRMC,140121.250,A,4308.2971,N,07726.2627,W,0.06,151.04,140821,,,A*72
$GPGGA,140121.500,4308.2971,N,07726.2627,W,1,04,4.92,179.7,M,-34.4,M,,*56
$GPRMC,140121.750,A,4308.2970,N,07726.2628,W,0.06,158.62,140821,,,A*70
$GPGGA,140122.000,4308.2970,N,07726.2628,W,1,04,4.92,179.7,M,-34.4,M,,*5E
$GPRMC,140122.250,A,4308.2971,N,07726.2628,W,0.02,105.10,140821,,,A*7E
$GPGGA,140122.500,4308.2971,N,07726.2628,W,1,04,4.92,179.7,M,-34.4,M,,*5A
$GPRMC,140122.750,A,4308.2971,N,07726.2628,W,0.05,69.15,140821,,,A*42
$GPGGA,140123.000,4308.2969,N,07726.2627,W,1,04,4.92,179.7,M,-34.4,M,,*58
$GPRMC,140123.250,A,4308.2967,N,07726.2627,W,0.16,123.54,140821,,,A*76
$GPGGA,140123.500,4308.2968,N,07726.2628,W,1,04,4.92,179.7,M,-34.4,M,,*53
$GPRMC,140123.750,A,4308.2968,N,07726.2628,W,0.14,101.06,140821,,,A*76
$GPGGA,140124.000,4308.2968,N,07726.2628,W,1,04,4.91,179.7,M,-34.4,M,,*52
$GPRMC,140124.250,A,4308.2967,N,07726.2628,W,0.17,109.00,140821,,,A*76
$GPGGA,140124.500,4308.2967,N,07726.2628,W,1,04,4.92,179.6,M,-34.4,M,,*5A
$GPRMC,140124.750,A,4308.2967,N,07726.2629,W,0.09,167.80,140821,,,A*7D
$GPGGA,140125.000,4308.2967,N,07726.2630,W,1,04,4.92,179.6,M,-34.4,M,,*57
$GPRMC,140125.250,A,4308.2968,N,07726.2630,W,0.06,137.45,140821,,,A*7D
$GPGGA,140125.500,4308.2969,N,07726.2629,W,1,04,4.92,179.6,M,-34.4,M,,*54
$GPRMC,140125.750,A,4308.2969,N,07726.2630,W,0.09,93.27,140821,,,A*4D
$GPGGA,140126.000,4308.2969,N,07726.2630,W,1,04,4.91,179.5,M,-34.4,M,,*5A
$GPRMC,140126.250,A,4308.2970,N,07726.2630,W,0.06,72.47,140821,,,A*45
$GPGGA,140126.500,4308.2972,N,07726.2631,W,1,04,4.92,179.5,M,-34.4,M,,*57
$GPRMC,140126.750,A,4308.2973,N,07726.2631,W,0.11,6.29,140821,,,A*7F
$GPGGA,140127.000,4308.2973,N,07726.2631,W,1,04,20.48,179.4,M,-34.4,M,,*62
$GPRMC,140127.250,A,4308.2972,N,07726.2631,W,0.04,344.94,140821,,,A*7D
$GPGGA,140127.500,4308.2973,N,07726.2631,W,1,04,4.92,179.4,M,-34.4,M,,*56
$GPRMC,140127.750,A,4308.2974,N,07726.2632,W,0.09,325.00,140821,,,A*7A
$GPGGA,140128.000,4308.2975,N,07726.2632,W,1,04,4.92,179.3,M,-34.4,M,,*5E
$GPRMC,140128.250,A,4308.2975,N,07726.2632,W,0.11,324.70,140821,,,A*7E
$GPGGA,140128.500,4308.2976,N,07726.2632,W,1,04,4.92,179.2,M,-34.4,M,,*59
$GPRMC,140128.750,A,4308.2976,N,07726.2632,W,0.12,342.35,140821,,,A*7A
$GPGGA,140129.000,4308.2976,N,07726.2632,W,1,04,4.91,179.2,M,-34.4,M,,*5E
$GPRMC,140129.250,A,4308.2975,N,07726.2632,W,0.09,12.30,140821,,,A*44
$GPGGA,140129.500,4308.2975,N,07726.2631,W,1,04,20.57,179.1,M,-34.4,M,,*64
$GPRMC,140129.750,A,4308.2974,N,07726.2631,W,0.06,69.52,140821,,,A*44
$GPGGA,140130.000,4308.2973,N,07726.2630,W,1,04,4.91,179.1,M,-34.4,M,,*52
$GPRMC,140130.250,A,4308.2974,N,07726.2630,W,0.12,86.87,140821,,,A*44
$GPGGA,140130.500,4308.2974,N,07726.2630,W,1,04,4.91,179.0,M,-34.4,M,,*51
$GPRMC,140130.750,A,4308.2974,N,07726.2630,W,0.12,92.77,140821,,,A*4B
$GPGGA,140131.000,4308.2975,N,07726.2630,W,1,04,4.91,179.0,M,-34.4,M,,*54
$GPRMC,140131.250,A,4308.2976,N,07726.2630,W,0.09,59.48,140821,,,A*4C
$GPGGA,140131.500,4308.2976,N,07726.2630,W,1,04,4.91,178.9,M,-34.4,M,,*5A
$GPRMC,140131.750,A,4308.2976,N,07726.2630,W,0.10,69.16,140821,,,A*49
$GPGGA,140132.000,4308.2978,N,07726.2630,W,1,04,4.91,178.9,M,-34.4,M,,*52
$GPRMC,140132.250,A,4308.3003,N,07726.2635,W,0.32,4.14,140821,,,A*79
$GPGGA,140132.500,4308.3015,N,07726.2637,W,1,05,2.12,175.6,M,-34.4,M,,*5D
$GPRMC,140132.750,A,4308.3022,N,07726.2638,W,0.29,356.25,140821,,,A*7E
$GPGGA,140133.000,4308.3027,N,07726.2638,W,1,05,2.12,174.2,M,-34.4,M,,*52
$GPRMC,140133.250,A,4308.3031,N,07726.2639,W,0.23,8.00,140821,,,A*7C
$GPGGA,140133.500,4308.3034,N,07726.2639,W,1,05,2.12,173.3,M,-34.4,M,,*52
$GPRMC,140133.750,A,4308.3036,N,07726.2639,W,0.18,10.52,140821,,,A*48
$GPGGA,140134.000,4308.3039,N,07726.2640,W,1,05,2.12,172.9,M,-34.4,M,,*58
$GPRMC,140134.250,A,4308.3041,N,07726.2640,W,0.28,354.81,140821,,,A*7A
$GPGGA,140134.500,4308.3042,N,07726.2640,W,1,05,2.12,172.6,M,-34.4,M,,*5E
$GPRMC,140134.750,A,4308.3044,N,07726.2640,W,0.34,350.30,140821,,,A*79
$GPGGA,140135.000,4308.3046,N,07726.2640,W,1,05,2.12,172.3,M,-34.4,M,,*5B
$GPRMC,140135.250,A,4308.3047,N,07726.2641,W,0.32,334.58,140821,,,A*75
$GPGGA,140135.500,4308.3048,N,07726.2641,W,1,05,1.99,171.9,M,-34.4,M,,*58
$GPRMC,140135.750,A,4308.3049,N,07726.2641,W,0.27,328.35,140821,,,A*7C
$GPGGA,140136.000,4308.3051,N,07726.2641,W,1,05,1.99,171.7,M,-34.4,M,,*58
$GPRMC,140136.250,A,4308.3052,N,07726.2641,W,0.24,336.05,140821,,,A*7F
$GPGGA,140136.500,4308.3053,N,07726.2641,W,1,05,1.99,171.5,M,-34.4,M,,*5D
$GPRMC,140136.750,A,4308.3054,N,07726.2641,W,0.26,332.42,140821,,,A*79
$GPGGA,140137.000,4308.3055,N,07726.2641,W,1,05,1.99,171.4,M,-34.4,M,,*5E
$GPRMC,140137.250,A,4308.3056,N,07726.2641,W,0.24,319.39,140821,,,A*78
$GPGGA,140137.500,4308.3056,N,07726.2641,W,1,05,1.99,171.1,M,-34.4,M,,*5D
$GPRMC,140137.750,A,4308.3056,N,07726.2641,W,0.14,307.09,140821,,,A*72
$GPGGA,140138.000,4308.3056,N,07726.2641,W,1,05,1.99,171.2,M,-34.4,M,,*54
$GPRMC,140138.250,A,4308.3057,N,07726.2641,W,0.14,294.39,140821,,,A*71
$GPGGA,140138.500,4308.3057,N,07726.2641,W,1,05,1.99,171.2,M,-34.4,M,,*50
$GPRMC,140138.750,A,4308.3057,N,07726.2640,W,0.12,293.00,140821,,,A*7E
$GPGGA,140139.000,4308.3057,N,07726.2640,W,1,05,1.99,171.2,M,-34.4,M,,*55
$GPRMC,140139.250,A,4308.3058,N,07726.2640,W,0.09,319.05,140821,,,A*79
$GPGGA,140139.500,4308.3059,N,07726.2640,W,1,05,1.99,171.3,M,-34.4,M,,*5F
$GPRMC,140139.750,A,4308.3060,N,07726.2640,W,0.17,343.82,140821,,,A*78
$GPGGA,140140.000,4308.3061,N,07726.2639,W,1,05,1.99,171.3,M,-34.4,M,,*51
$GPRMC,140140.250,A,4308.3061,N,07726.2639,W,0.23,359.87,140821,,,A*75
$GPGGA,140140.500,4308.3062,N,07726.2638,W,1,05,2.12,171.2,M,-34.4,M,,*57
$GPRMC,140140.750,A,4308.3062,N,07726.2638,W,0.17,14.25,140821,,,A*47
$GPGGA,140141.000,4308.3062,N,07726.2638,W,1,05,2.12,171.2,M,-34.4,M,,*53
$GPRMC,140141.250,A,4308.3062,N,07726.2638,W,0.09,348.45,140821,,,A*70
$GPGGA,140141.500,4308.3062,N,07726.2638,W,1,05,2.12,171.2,M,-34.4,M,,*56
$GPRMC,140141.750,A,4308.3062,N,07726.2638,W,0.11,75.87,140821,,,A*4F
$GPGGA,140142.000,4308.3062,N,07726.2638,W,1,05,1.99,171.2,M,-34.4,M,,*50
$GPRMC,140142.250,A,4308.3062,N,07726.2638,W,0.03,331.74,140821,,,A*75
$GPGGA,140142.500,4308.3062,N,07726.2638,W,1,05,1.99,171.2,M,-34.4,M,,*55
$GPRMC,140142.750,A,4308.3062,N,07726.2638,W,0.06,253.37,140821,,,A*77
$GPGGA,140143.000,4308.3062,N,07726.2638,W,1,05,1.99,171.2,M,-34.4,M,,*51
$GPRMC,140143.250,A,4308.3062,N,07726.2638,W,0.05,318.94,140821,,,A*77
$GPGGA,140143.500,4308.3062,N,07726.2638,W,1,05,1.99,171.2,M,-34.4,M,,*54
$GPRMC,140143.750,A,4308.3062,N,07726.2638,W,0.05,350.91,140821,,,A*7B
$GPGGA,140144.000,4308.3062,N,07726.2638,W,1,05,2.12,171.2,M,-34.4,M,,*56
$GPRMC,140144.250,A,4308.3062,N,07726.2638,W,0.10,328.26,140821,,,A*7E
$GPGGA,140144.500,4308.3062,N,07726.2638,W,1,05,1.99,171.2,M,-34.4,M,,*53
$GPRMC,140144.750,A,4308.3062,N,07726.2639,W,0.15,280.91,140821,,,A*70
$GPGGA,140145.000,4308.3062,N,07726.2639,W,1,05,1.99,171.2,M,-34.4,M,,*56
$GPRMC,140145.250,A,4308.3063,N,07726.2639,W,0.07,295.77,140821,,,A*7A
$GPGGA,140145.500,4308.3063,N,07726.2639,W,1,05,1.99,171.2,M,-34.4,M,,*52
$GPRMC,140145.750,A,4308.3063,N,07726.2639,W,0.04,124.86,140821,,,A*7B
$GPGGA,140146.000,4308.3063,N,07726.2639,W,1,05,1.99,171.2,M,-34.4,M,,*54
$GPRMC,140146.250,A,4308.3063,N,07726.2639,W,0.03,155.26,140821,,,A*76
$GPGGA,140146.500,4308.3062,N,07726.2639,W,1,05,1.99,171.2,M,-34.4,M,,*50
$GPRMC,140146.750,A,4308.3062,N,07726.2639,W,0.05,167.15,140821,,,A*75
$GPGGA,140147.000,4308.3062,N,07726.2639,W,1,05,1.99,171.2,M,-34.4,M,,*54
$GPRMC,140147.250,A,4308.3062,N,07726.2639,W,0.08,36.06,140821,,,A*4B
$GPGGA,140147.500,4308.3063,N,07726.2639,W,1,05,1.99,171.2,M,-34.4,M,,*50
$GPRMC,140147.750,A,4308.3063,N,07726.2639,W,0.10,338.58,140821,,,A*70
$GPGGA,140148.000,4308.3063,N,07726.2639,W,1,05,1.99,171.2,M,-34.4,M,,*5A
$GPRMC,140148.250,A,4308.3063,N,07726.2639,W,0.22,354.65,140821,,,A*7F
$GPGGA,140148.500,4308.3063,N,07726.2639,W,1,05,2.12,171.2,M,-34.4,M,,*5F
$GPRMC,140148.750,A,4308.3063,N,07726.2639,W,0.22,4.89,140821,,,A*7E
$GPGGA,140149.000,4308.3063,N,07726.2639,W,1,05,2.12,171.2,M,-34.4,M,,*5B
$GPRMC,140149.250,A,4308.3063,N,07726.2639,W,0.19,9.39,140821,,,A*74
$GPGGA,140149.500,4308.3064,N,07726.2639,W,1,05,2.12,171.2,M,-34.4,M,,*59
$GPRMC,140149.750,A,4308.3064,N,07726.2639,W,0.27,352.25,140821,,,A*7B
$GPGGA,140150.000,4308.3064,N,07726.2639,W,1,05,2.12,171.2,M,-34.4,M,,*54
$GPRMC,140150.250,A,4308.3064,N,07726.2639,W,0.28,338.23,140821,,,A*73
$GPGGA,140150.500,4308.3064,N,07726.2639,W,1,05,1.99,171.2,M,-34.4,M,,*51
$GPRMC,140150.750,A,4308.3065,N,07726.2639,W,0.23,351.93,140821,,,A*78
$GPGGA,140151.000,4308.3065,N,07726.2639,W,1,05,2.12,171.2,M,-34.4,M,,*54
$GPRMC,140151.250,A,4308.3065,N,07726.2639,W,0.25,342.47,140821,,,A*71
$GPGGA,140151.500,4308.3065,N,07726.2639,W,1,05,1.99,171.1,M,-34.4,M,,*52
$GPRMC,140151.750,A,4308.3065,N,07726.2639,W,0.13,353.40,140821,,,A*76
$GPGGA,140152.000,4308.3065,N,07726.2639,W,1,05,2.12,171.1,M,-34.4,M,,*54
$GPRMC,140152.250,A,4308.3065,N,07726.2639,W,0.11,34.38,140821,,,A*4F
$GPGGA,140152.500,4308.3065,N,07726.2639,W,1,05,1.99,171.1,M,-34.4,M,,*51
$GPRMC,140152.750,A,4308.3065,N,07726.2639,W,0.08,30.41,140821,,,A*48
$GPGGA,140153.000,4308.3066,N,07726.2639,W,1,05,1.99,171.1,M,-34.4,M,,*56
$GPRMC,140153.250,A,4308.3066,N,07726.2639,W,0.10,89.29,140821,,,A*4A
$GPGGA,140153.500,4308.3066,N,07726.2639,W,1,05,1.99,171.1,M,-34.4,M,,*53
$GPRMC,140153.750,A,4308.3066,N,07726.2639,W,0.15,64.45,140821,,,A*43
$GPGGA,140154.000,4308.3066,N,07726.2639,W,1,05,1.99,171.1,M,-34.4,M,,*51
$GPRMC,140154.250,A,4308.3066,N,07726.2638,W,0.29,45.65,140821,,,A*4E
$GPGGA,140154.500,4308.3066,N,07726.2638,W,1,05,1.99,171.1,M,-34.4,M,,*55
$GPRMC,140154.750,A,4308.3066,N,07726.2638,W,0.24,36.13,140821,,,A*43
$GPGGA,140155.000,4308.3066,N,07726.2638,W,1,05,1.99,171.1,M,-34.4,M,,*51
$GPRMC,140155.250,A,4308.3066,N,07726.2638,W,0.19,33.32,140821,,,A*4F
$GPGGA,140155.500,4308.3067,N,07726.2638,W,1,05,1.99,171.1,M,-34.4,M,,*55
$GPRMC,140155.750,A,4308.3067,N,07726.2638,W,0.15,4.71,140821,,,A*74
$GPGGA,140156.000,4308.3067,N,07726.2638,W,1,05,2.12,171.1,M,-34.4,M,,*53
$GPRMC,140156.250,A,4308.3067,N,07726.2638,W,0.05,9.94,140821,,,A*75
$GPGGA,140156.500,4308.3067,N,07726.2638,W,1,06,1.96,171.1,M,-34.4,M,,*5A
$GPRMC,140156.750,A,4308.3067,N,07726.2638,W,0.05,345.90,140821,,,A*7F
$GPGGA,140157.000,4308.3067,N,07726.2638,W,1,06,1.96,171.1,M,-34.4,M,,*5E
$GPRMC,140157.250,A,4308.3067,N,07726.2638,W,0.15,292.56,140821,,,A*7B
$GPGGA,140157.500,4308.3067,N,07726.2638,W,1,06,1.53,171.1,M,-34.4,M,,*52
$GPRMC,140157.750,A,4308.3067,N,07726.2638,W,0.10,243.52,140821,,,A*73
$GPGGA,140158.000,4308.3067,N,07726.2638,W,1,06,1.54,171.1,M,-34.4,M,,*5F
$GPRMC,140158.250,A,4308.3067,N,07726.2638,W,0.18,275.22,140821,,,A*73
$GPGGA,140158.500,4308.3067,N,07726.2638,W,1,06,1.53,171.1,M,-34.4,M,,*5D
$GPRMC,140158.750,A,4308.3067,N,07726.2639,W,0.15,286.03,140821,,,A*75
$GPGGA,140159.000,4308.3067,N,07726.2639,W,1,06,1.53,171.1,M,-34.4,M,,*58
$GPRMC,140159.250,A,4308.3067,N,07726.2639,W,0.17,275.94,140821,,,A*71
$GPGGA,140159.500,4308.3067,N,07726.2639,W,1,06,1.53,171.1,M,-34.4,M,,*5D
$GPRMC,140159.750,A,4308.3067,N,07726.2639,W,0.08,234.35,140821,,,A*74
$GPGGA,140200.000,4308.3067,N,07726.2639,W,1,06,1.53,171.1,M,-34.4,M,,*57
$GPRMC,140200.250,A,4308.3067,N,07726.2639,W,0.12,274.49,140821,,,A*7A
$GPGGA,140200.500,4308.3067,N,07726.2639,W,1,06,1.53,171.1,M,-34.4,M,,*52
$GPRMC,140200.750,A,4308.3067,N,07726.2639,W,0.08,292.77,140821,,,A*71
$GPGGA,140201.000,4308.3067,N,07726.2640,W,1,06,1.54,171.1,M,-34.4,M,,*5F
$GPRMC,140201.250,A,4308.3067,N,07726.2640,W,0.08,306.19,140821,,,A*7F
$GPGGA,140201.500,4308.3067,N,07726.2640,W,1,06,1.53,171.1,M,-34.4,M,,*5D
$GPRMC,140201.750,A,4308.3067,N,07726.2640,W,0.05,265.04,140821,,,A*7F
$GPGGA,140202.000,4308.3067,N,07726.2640,W,1,06,1.53,171.1,M,-34.4,M,,*5B
$GPRMC,140202.250,A,4308.3067,N,07726.2640,W,0.09,307.28,140821,,,A*7E
$GPGGA,140202.500,4308.3067,N,07726.2640,W,1,06,1.53,171.1,M,-34.4,M,,*5E
$GPRMC,140202.750,A,4308.3067,N,07726.2640,W,0.06,285.20,140821,,,A*77
$GPGGA,140203.000,4308.3067,N,07726.2640,W,1,06,1.53,171.1,M,-34.4,M,,*5A
$GPRMC,140203.250,A,4308.3067,N,07726.2640,W,0.03,338.90,140821,,,A*7A
$GPGGA,140203.500,4308.3067,N,07726.2640,W,1,06,1.53,171.1,M,-34.4,M,,*5F
$GPRMC,140203.750,A,4308.3068,N,07726.2640,W,0.12,7.03,140821,,,A*75
$GPGGA,140204.000,4308.3068,N,07726.2640,W,1,06,1.96,171.1,M,-34.4,M,,*5B
$GPRMC,140204.250,A,4308.3068,N,07726.2640,W,0.12,343.05,140821,,,A*72
$GPGGA,140204.500,4308.3068,N,07726.2640,W,1,06,1.53,171.1,M,-34.4,M,,*57
$GPRMC,140204.750,A,4308.3068,N,07726.2640,W,0.16,26.24,140821,,,A*40
$GPGGA,140205.000,4308.3068,N,07726.2640,W,1,06,1.54,171.1,M,-34.4,M,,*54
$GPRMC,140205.250,A,4308.3068,N,07726.2640,W,0.16,54.47,140821,,,A*44
$GPGGA,140205.500,4308.3068,N,07726.2640,W,1,06,1.53,171.1,M,-34.4,M,,*56
$GPRMC,140205.750,A,4308.3068,N,07726.2640,W,0.13,40.90,140821,,,A*4B
$GPGGA,140206.000,4308.3068,N,07726.2640,W,1,06,1.53,171.0,M,-34.4,M,,*51
$GPRMC,140206.250,A,4308.3068,N,07726.2640,W,0.09,353.62,140821,,,A*7A
$GPGGA,140206.500,4308.3068,N,07726.2640,W,1,06,1.96,171.0,M,-34.4,M,,*5D
$GPRMC,140206.750,A,4308.3068,N,07726.2640,W,0.05,16.71,140821,,,A*43
$GPGGA,140207.000,4308.3068,N,07726.2640,W,1,06,1.53,171.0,M,-34.4,M,,*50
$GPRMC,140207.250,A,4308.3069,N,07726.2639,W,0.13,15.65,140821,,,A*49
$GPGGA,140207.500,4308.3069,N,07726.2639,W,1,06,1.53,171.0,M,-34.4,M,,*5A
$GPRMC,140207.750,A,4308.3069,N,07726.2639,W,0.16,353.88,140821,,,A*7B
$GPGGA,140208.000,4308.3069,N,07726.2639,W,1,06,1.96,171.0,M,-34.4,M,,*59
$GPRMC,140208.250,A,4308.3069,N,07726.2639,W,0.22,8.58,140821,,,A*76
$GPGGA,140208.500,4308.3069,N,07726.2639,W,1,06,1.96,171.0,M,-34.4,M,,*5C
$GPRMC,140208.750,A,4308.3069,N,07726.2639,W,0.24,9.83,140821,,,A*72
$GPGGA,140209.000,4308.3070,N,07726.2639,W,1,06,1.96,171.0,M,-34.4,M,,*50
$GPRMC,140209.250,A,4308.3070,N,07726.2639,W,0.21,22.69,140821,,,A*46
$GPGGA,140209.500,4308.3070,N,07726.2639,W,1,06,1.53,171.0,M,-34.4,M,,*5C
$GPRMC,140209.750,A,4308.3070,N,07726.2639,W,0.15,10.83,140821,,,A*41
$GPGGA,140210.000,4308.3070,N,07726.2639,W,1,06,1.96,171.0,M,-34.4,M,,*58
$GPRMC,140210.250,A,4308.3070,N,07726.2639,W,0.09,7.26,140821,,,A*78
$GPGGA,140210.500,4308.3070,N,07726.2639,W,1,06,1.96,171.0,M,-34.4,M,,*5D
$GPRMC,140210.750,A,4308.3070,N,07726.2639,W,0.13,10.95,140821,,,A*48
$GPGGA,140211.000,4308.3070,N,07726.2639,W,1,06,1.96,171.0,M,-34.4,M,,*59
$GPRMC,140211.250,A,4308.3070,N,07726.2639,W,0.09,27.38,140821,,,A*44
$GPGGA,140211.500,4308.3070,N,07726.2639,W,1,06,1.53,171.0,M,-34.4,M,,*55
$GPRMC,140211.750,A,4308.3070,N,07726.2639,W,0.08,53.00,140821,,,A*48
$GPGGA,140212.000,4308.3071,N,07726.2639,W,1,06,1.53,171.0,M,-34.4,M,,*52
$GPRMC,140212.250,A,4308.3071,N,07726.2639,W,0.12,46.48,140821,,,A*4C
$GPGGA,140212.500,4308.3071,N,07726.2639,W,1,06,1.53,171.0,M,-34.4,M,,*57
$GPRMC,140212.750,A,4308.3071,N,07726.2639,W,0.12,51.63,140821,,,A*46
$GPGGA,140213.000,4308.3071,N,07726.2638,W,1,06,1.53,171.0,M,-34.4,M,,*52
$GPRMC,140213.250,A,4308.3071,N,07726.2638,W,0.14,64.72,140821,,,A*43
$GPGGA,140213.500,4308.3071,N,07726.2638,W,1,06,1.53,171.0,M,-34.4,M,,*57
$GPRMC,140213.750,A,4308.3071,N,07726.2638,W,0.13,20.07,140821,,,A*43
$GPGGA,140214.000,4308.3071,N,07726.2638,W,1,06,1.53,171.0,M,-34.4,M,,*55
$GPRMC,140214.250,A,4308.3071,N,07726.2638,W,0.15,23.75,140821,,,A*41
$GPGGA,140214.500,4308.3071,N,07726.2638,W,1,06,1.53,171.0,M,-34.4,M,,*50
$GPRMC,140214.750,A,4308.3071,N,07726.2638,W,0.16,50.76,140821,,,A*40
$GPGGA,140215.000,4308.3071,N,07726.2638,W,1,06,1.53,171.0,M,-34.4,M,,*54
$GPRMC,140215.250,A,4308.3071,N,07726.2638,W,0.14,33.18,140821,,,A*4B
$GPGGA,140215.500,4308.3072,N,07726.2638,W,1,06,1.53,171.0,M,-34.4,M,,*52
$GPRMC,140215.750,A,4308.3072,N,07726.2638,W,0.15,348.11,140821,,,A*7A
$GPGGA,140216.000,4308.3072,N,07726.2638,W,1,06,1.96,171.0,M,-34.4,M,,*5D
$GPRMC,140216.250,A,4308.3072,N,07726.2638,W,0.11,346.56,140821,,,A*75
$GPGGA,140216.500,4308.3072,N,07726.2638,W,1,06,1.96,171.0,M,-34.4,M,,*58
$GPRMC,140216.750,A,4308.3072,N,07726.2638,W,0.01,354.97,140821,,,A*7F
$GPGGA,140217.000,4308.3072,N,07726.2638,W,1,06,1.96,171.0,M,-34.4,M,,*5C
$GPRMC,140217.250,A,4308.3072,N,07726.2638,W,0.05,350.66,140821,,,A*75
$GPGGA,140217.500,4308.3072,N,07726.2638,W,1,06,1.96,171.0,M,-34.4,M,,*59
$GPRMC,140217.750,A,4308.3072,N,07726.2638,W,0.05,313.78,140821,,,A*78
$GPGGA,140218.000,4308.3072,N,07726.2638,W,1,06,1.53,171.0,M,-34.4,M,,*5A
$GPRMC,140218.250,A,4308.3072,N,07726.2638,W,0.06,269.50,140821,,,A*77
$GPGGA,140218.500,4308.3072,N,07726.2638,W,1,06,1.53,171.0,M,-34.4,M,,*5F
$GPRMC,140218.750,A,4308.3072,N,07726.2638,W,0.07,49.53,140821,,,A*40
$GPGGA,140219.000,4308.3072,N,07726.2638,W,1,06,1.53,171.0,M,-34.4,M,,*5B
$GPRMC,140219.250,A,4308.3072,N,07726.2638,W,0.09,42.05,140821,,,A*42
$GPGGA,140219.500,4308.3072,N,07726.2638,W,1,06,1.53,171.0,M,-34.4,M,,*5E
$GPRMC,140219.750,A,4308.3072,N,07726.2638,W,0.11,40.63,140821,,,A*4C
$GPGGA,140220.000,4308.3072,N,07726.2638,W,1,06,1.53,171.0,M,-34.4,M,,*51
$GPRMC,140220.250,A,4308.3072,N,07726.2638,W,0.10,44.79,140821,,,A*4D
$GPGGA,140220.500,4308.3073,N,07726.2637,W,1,06,1.53,171.0,M,-34.4,M,,*5A
$GPRMC,140220.750,A,4308.3073,N,07726.2637,W,0.11,28.74,140821,,,A*40
$GPGGA,140221.000,4308.3073,N,07726.2637,W,1,06,1.53,171.1,M,-34.4,M,,*5F
$GPRMC,140221.250,A,4308.3073,N,07726.2637,W,0.11,56.41,140821,,,A*4B
$GPGGA,140221.500,4308.3073,N,07726.2637,W,1,06,1.53,171.1,M,-34.4,M,,*5A
$GPRMC,140221.750,A,4308.3073,N,07726.2637,W,0.13,58.51,140821,,,A*43
$GPGGA,140222.000,4308.3073,N,07726.2637,W,1,06,1.53,171.1,M,-34.4,M,,*5C
$GPRMC,140222.250,A,4308.3073,N,07726.2637,W,0.07,70.09,140821,,,A*47
$GPGGA,140222.500,4308.3073,N,07726.2637,W,1,06,1.53,171.1,M,-34.4,M,,*59
$GPRMC,140222.750,A,4308.3073,N,07726.2637,W,0.04,172.61,140821,,,A*7C
$GPGGA,140223.000,4308.3073,N,07726.2637,W,1,06,1.53,171.1,M,-34.4,M,,*5D
$GPRMC,140223.250,A,4308.3073,N,07726.2637,W,0.07,223.67,140821,,,A*7A
$GPGGA,140223.500,4308.3073,N,07726.2637,W,1,06,1.53,171.1,M,-34.4,M,,*58
$GPRMC,140223.750,A,4308.3073,N,07726.2637,W,0.07,195.43,140821,,,A*77
$GPGGA,140224.000,4308.3073,N,07726.2637,W,1,06,1.53,171.1,M,-34.4,M,,*5A
$GPRMC,140224.250,A,4308.3073,N,07726.2637,W,0.05,168.51,140821,,,A*76
$GPGGA,140224.500,4308.3073,N,07726.2637,W,1,06,1.53,171.1,M,-34.4,M,,*5F
$GPRMC,140224.750,A,4308.3073,N,07726.2637,W,0.09,200.48,140821,,,A*7A
$GPGGA,140225.000,4308.3073,N,07726.2637,W,1,06,1.53,171.1,M,-34.4,M,,*5B
$GPRMC,140225.250,A,4308.3073,N,07726.2637,W,0.08,252.56,140821,,,A*77
$GPGGA,140225.500,4308.3073,N,07726.2637,W,1,06,1.53,171.1,M,-34.4,M,,*5E
$GPRMC,140225.750,A,4308.3073,N,07726.2637,W,0.06,318.03,140821,,,A*73
$GPGGA,140226.000,4308.3073,N,07726.2637,W,1,06,1.53,171.1,M,-34.4,M,,*58
$GPRMC,140226.250,A,4308.3073,N,07726.2637,W,0.13,351.03,140821,,,A*7C
$GPGGA,140226.500,4308.3073,N,07726.2637,W,1,06,1.96,171.1,M,-34.4,M,,*54
$GPRMC,140226.750,A,4308.3073,N,07726.2637,W,0.18,358.83,140821,,,A*73
$GPGGA,140227.000,4308.3073,N,07726.2637,W,1,06,1.96,171.1,M,-34.4,M,,*50
$GPRMC,140227.250,A,4308.3073,N,07726.2637,W,0.13,357.38,140821,,,A*73
$GPGGA,140227.500,4308.3073,N,07726.2637,W,1,06,1.96,171.1,M,-34.4,M,,*55
$GPRMC,140227.750,A,4308.3073,N,07726.2637,W,0.13,36.12,140821,,,A*4A
$GPGGA,140228.000,4308.3073,N,07726.2637,W,1,06,1.53,171.1,M,-34.4,M,,*56
$GPRMC,140228.250,A,4308.3073,N,07726.2637,W,0.11,39.90,140821,,,A*47
$GPGGA,140228.500,4308.3073,N,07726.2637,W,1,06,1.53,171.1,M,-34.4,M,,*53
$GPRMC,140228.750,A,4308.3073,N,07726.2637,W,0.05,47.44,140821,,,A*47
$GPGGA,140229.000,4308.3073,N,07726.2637,W,1,06,1.53,171.1,M,-34.4,M,,*57
$GPRMC,140229.250,A,4308.3073,N,07726.2637,W,0.08,107.10,140821,,,A*7A
$GPGGA,140229.500,4308.3073,N,07726.2637,W,1,06,1.53,171.1,M,-34.4,M,,*52
$GPRMC,140229.750,A,4308.3073,N,07726.2637,W,0.12,102.56,140821,,,A*73
$GPGGA,140230.000,4308.3073,N,07726.2637,W,1,06,1.54,171.1,M,-34.4,M,,*58
$GPRMC,140230.250,A,4308.3073,N,07726.2637,W,0.08,97.12,140821,,,A*48
$GPGGA,140230.500,4308.3073,N,07726.2636,W,1,06,1.53,171.1,M,-34.4,M,,*5B
$GPRMC,140230.750,A,4308.3073,N,07726.2636,W,0.02,176.07,140821,,,A*7C
$GPGGA,140231.000,4308.3073,N,07726.2636,W,1,06,1.53,171.1,M,-34.4,M,,*5F
$GPRMC,140231.250,A,4308.3073,N,07726.2636,W,0.12,158.68,140821,,,A*7C
$GPGGA,140231.500,4308.3073,N,07726.2636,W,1,06,1.53,171.1,M,-34.4,M,,*5A
$GPRMC,140231.750,A,4308.3073,N,07726.2636,W,0.09,129.53,140821,,,A*7D
$GPGGA,140232.000,4308.3073,N,07726.2636,W,1,06,1.53,171.1,M,-34.4,M,,*5C
$GPRMC,140232.250,A,4308.3073,N,07726.2636,W,0.12,79.12,140821,,,A*40
$GPGGA,140232.500,4308.3073,N,07726.2636,W,1,06,1.54,171.1,M,-34.4,M,,*5E
$GPRMC,140232.750,A,4308.3073,N,07726.2636,W,0.04,332.54,140821,,,A*7C
$GPGGA,140233.000,4308.3073,N,07726.2636,W,1,06,1.53,171.1,M,-34.4,M,,*5D
$GPRMC,140233.250,A,4308.3073,N,07726.2636,W,0.15,312.51,140821,,,A*7F
$GPGGA,140233.500,4308.3073,N,07726.2636,W,1,06,1.53,171.1,M,-34.4,M,,*58
$GPRMC,140233.750,A,4308.3073,N,07726.2636,W,0.11,332.69,140821,,,A*77
$GPGGA,140234.000,4308.3073,N,07726.2636,W,1,06,1.54,171.1,M,-34.4,M,,*5D
$GPRMC,140234.250,A,4308.3074,N,07726.2637,W,0.10,329.37,140821,,,A*73
$GPGGA,140234.500,4308.3074,N,07726.2637,W,1,06,1.54,171.1,M,-34.4,M,,*5E
$GPRMC,140234.750,A,4308.3074,N,07726.2637,W,0.04,295.49,140821,,,A*7C
$GPGGA,140235.000,4308.3074,N,07726.2637,W,1,06,1.53,171.1,M,-34.4,M,,*5D
$GPRMC,140235.250,A,4308.3074,N,07726.2637,W,0.07,342.53,140821,,,A*7B
$GPGGA,140235.500,4308.3074,N,07726.2637,W,1,06,1.53,171.1,M,-34.4,M,,*58
$GPRMC,140235.750,A,4308.3074,N,07726.2637,W,0.10,333.30,140821,,,A*7B
$GPGGA,140236.000,4308.3074,N,07726.2637,W,1,06,1.53,171.1,M,-34.4,M,,*5E
$GPRMC,140236.250,A,4308.3074,N,07726.2637,W,0.06,319.80,140821,,,A*79
$GPGGA,140236.500,4308.3074,N,07726.2637,W,1,06,1.53,171.1,M,-34.4,M,,*5B
$GPRMC,140236.750,A,4308.3074,N,07726.2637,W,0.08,308.98,140821,,,A*7B
$GPGGA,140237.000,4308.3074,N,07726.2637,W,1,06,1.53,171.1,M,-34.4,M,,*5F
$GPRMC,140237.250,A,4308.3074,N,07726.2637,W,0.05,276.45,140821,,,A*7A
$GPGGA,140237.500,4308.3074,N,07726.2637,W,1,06,1.53,171.1,M,-34.4,M,,*5A
$GPRMC,140237.750,A,4308.3074,N,07726.2637,W,0.01,25.15,140821,,,A*4A
$GPGGA,140238.000,4308.3074,N,07726.2637,W,1,06,1.53,171.1,M,-34.4,M,,*50
$GPRMC,140238.250,A,4308.3074,N,07726.2637,W,0.08,342.01,140821,,,A*7E
$GPGGA,140238.500,4308.3074,N,07726.2637,W,1,06,1.53,171.1,M,-34.4,M,,*55
$GPRMC,140238.750,A,4308.3074,N,07726.2637,W,0.14,345.63,140821,,,A*75
$GPGGA,140239.000,4308.3074,N,07726.2637,W,1,06,1.96,171.1,M,-34.4,M,,*58
$GPRMC,140239.250,A,4308.3074,N,07726.2637,W,0.17,352.68,140821,,,A*7F
$GPGGA,140239.500,4308.3075,N,07726.2637,W,1,06,1.96,171.1,M,-34.4,M,,*5C
$GPRMC,140239.750,A,4308.3075,N,07726.2637,W,0.10,12.09,140821,,,A*4C
$GPGGA,140240.000,4308.3075,N,07726.2637,W,1,06,1.96,171.1,M,-34.4,M,,*57
$GPRMC,140240.250,A,4308.3075,N,07726.2637,W,0.05,355.57,140821,,,A*78
$GPGGA,140240.500,4308.3075,N,07726.2637,W,1,06,1.96,171.1,M,-34.4,M,,*52
$GPRMC,140240.750,A,4308.3075,N,07726.2637,W,0.12,16.28,140821,,,A*47
$GPGGA,140241.000,4308.3075,N,07726.2637,W,1,06,1.53,171.1,M,-34.4,M,,*5F
$GPRMC,140241.250,A,4308.3075,N,07726.2637,W,0.10,306.91,140821,,,A*71
$GPGGA,140241.500,4308.3075,N,07726.2637,W,1,06,1.53,171.1,M,-34.4,M,,*5A
$GPRMC,140241.750,A,4308.3075,N,07726.2638,W,0.19,279.58,140821,,,A*7E
$GPGGA,140242.000,4308.3075,N,07726.2638,W,1,06,1.53,171.1,M,-34.4,M,,*53
$GPRMC,140242.250,A,4308.3075,N,07726.2638,W,0.11,274.79,140821,,,A*7E
$GPGGA,140242.500,4308.3075,N,07726.2638,W,1,06,1.53,171.1,M,-34.4,M,,*56
$GPRMC,140242.750,A,4308.3075,N,07726.2638,W,0.09,229.04,140821,,,A*70
$GPGGA,140243.000,4308.3075,N,07726.2638,W,1,06,1.53,171.1,M,-34.4,M,,*52
$GPRMC,140243.250,A,4308.3075,N,07726.2638,W,0.08,251.54,140821,,,A*7F
$GPGGA,140243.500,4308.3075,N,07726.2638,W,1,06,1.53,171.1,M,-34.4,M,,*57
$GPRMC,140243.750,A,4308.3075,N,07726.2638,W,0.12,232.52,140821,,,A*72
$GPGGA,140244.000,4308.3075,N,07726.2638,W,1,06,1.53,171.1,M,-34.4,M,,*55
$GPRMC,140244.250,A,4308.3075,N,07726.2639,W,0.08,215.68,140821,,,A*76
$GPGGA,140244.500,4308.3075,N,07726.2639,W,1,06,1.53,171.1,M,-34.4,M,,*51
$GPRMC,140244.750,A,4308.3075,N,07726.2639,W,0.08,189.96,140821,,,A*74
$GPGGA,140245.000,4308.3075,N,07726.2639,W,1,06,1.53,171.1,M,-34.4,M,,*55
$GPRMC,140245.250,A,4308.3075,N,07726.2639,W,0.09,216.41,140821,,,A*7E
$GPGGA,140245.500,4308.3075,N,07726.2639,W,1,06,1.53,171.1,M,-34.4,M,,*50
$GPRMC,140245.750,A,4308.3074,N,07726.2639,W,0.13,205.78,140821,,,A*79
$GPGGA,140246.000,4308.3074,N,07726.2639,W,1,06,1.53,171.1,M,-34.4,M,,*57
$GPRMC,140246.250,A,4308.3074,N,07726.2639,W,0.16,195.71,140821,,,A*79
$GPGGA,140246.500,4308.3074,N,07726.2639,W,1,06,1.53,171.1,M,-34.4,M,,*52
$GPRMC,140246.750,A,4308.3074,N,07726.2639,W,0.13,180.45,140821,,,A*7A
$GPGGA,140247.000,4308.3074,N,07726.2639,W,1,06,1.54,171.1,M,-34.4,M,,*51
$GPRMC,140247.250,A,4308.3074,N,07726.2639,W,0.13,164.77,140821,,,A*75
$GPGGA,140247.500,4308.3074,N,07726.2639,W,1,06,1.54,171.1,M,-34.4,M,,*54
$GPRMC,140247.750,A,4308.3074,N,07726.2639,W,0.08,183.72,140821,,,A*76
$GPGGA,140248.000,4308.3074,N,07726.2639,W,1,06,1.53,171.1,M,-34.4,M,,*59
$GPRMC,140248.250,A,4308.3074,N,07726.2639,W,0.10,203.96,140821,,,A*74
$GPGGA,140248.500,4308.3074,N,07726.2639,W,1,06,1.54,171.1,M,-34.4,M,,*5B
$GPRMC,140248.750,A,4308.3074,N,07726.2639,W,0.06,265.38,140821,,,A*72
$GPGGA,140249.000,4308.3074,N,07726.2639,W,1,06,1.53,171.1,M,-34.4,M,,*58
$GPRMC,140249.250,A,4308.3074,N,07726.2639,W,0.08,320.00,140821,,,A*73
$GPGGA,140249.500,4308.3074,N,07726.2639,W,1,06,1.53,171.1,M,-34.4,M,,*5D
$GPRMC,140249.750,A,4308.3074,N,07726.2639,W,0.08,338.67,140821,,,A*7E
$GPGGA,140250.000,4308.3074,N,07726.2639,W,1,06,1.53,171.1,M,-34.4,M,,*50
$GPRMC,140250.250,A,4308.3074,N,07726.2639,W,0.12,334.94,140821,,,A*78
$GPGGA,140250.500,4308.3074,N,07726.2639,W,1,06,1.53,171.1,M,-34.4,M,,*55
$GPRMC,140250.750,A,4308.3074,N,07726.2639,W,0.11,343.83,140821,,,A*78
$GPGGA,140251.000,4308.3074,N,07726.2639,W,1,06,1.53,171.1,M,-34.4,M,,*51
$GPRMC,140251.250,A,4308.3074,N,07726.2639,W,0.10,357.04,140821,,,A*77
$GPGGA,140251.500,4308.3074,N,07726.2639,W,1,06,1.96,171.1,M,-34.4,M,,*5D
$GPRMC,140251.750,A,4308.3074,N,07726.2639,W,0.10,4.91,140821,,,A*7B
$GPGGA,140252.000,4308.3074,N,07726.2639,W,1,06,1.96,171.1,M,-34.4,M,,*5B
$GPRMC,140252.250,A,4308.3074,N,07726.2639,W,0.06,281.89,140821,,,A*7C
$GPGGA,140252.500,4308.3074,N,07726.2639,W,1,06,1.54,171.1,M,-34.4,M,,*50
$GPRMC,140252.750,A,4308.3074,N,07726.2640,W,0.11,275.13,140821,,,A*79
$GPGGA,140253.000,4308.3074,N,07726.2640,W,1,06,1.53,171.1,M,-34.4,M,,*5D
$GPRMC,140253.250,A,4308.3074,N,07726.2640,W,0.17,296.27,140821,,,A*71
$GPGGA,140253.500,4308.3075,N,07726.2640,W,1,06,1.53,171.1,M,-34.4,M,,*59
$GPRMC,140253.750,A,4308.3075,N,07726.2640,W,0.13,297.40,140821,,,A*71
$GPGGA,140254.000,4308.3075,N,07726.2640,W,1,06,1.53,171.1,M,-34.4,M,,*5B
$GPRMC,140254.250,A,4308.3075,N,07726.2640,W,0.07,33.47,140821,,,A*4D
$GPGGA,140254.500,4308.3075,N,07726.2640,W,1,06,1.53,171.1,M,-34.4,M,,*5E
$GPRMC,140254.750,A,4308.3075,N,07726.2640,W,0.08,47.79,140821,,,A*49
$GPGGA,140255.000,4308.3075,N,07726.2640,W,1,06,1.54,171.1,M,-34.4,M,,*5D
$GPRMC,140255.250,A,4308.3075,N,07726.2640,W,0.13,317.99,140821,,,A*7F
$GPGGA,140255.500,4308.3075,N,07726.2640,W,1,06,1.54,171.1,M,-34.4,M,,*58
$GPRMC,140255.750,A,4308.3075,N,07726.2640,W,0.24,301.46,140821,,,A*7B
$GPGGA,140256.000,4308.3075,N,07726.2641,W,1,06,1.54,171.1,M,-34.4,M,,*5F
$GPRMC,140256.250,A,4308.3075,N,07726.2641,W,0.24,302.88,140821,,,A*7D
$GPGGA,140256.500,4308.3075,N,07726.2641,W,1,06,1.53,171.1,M,-34.4,M,,*5D
$GPRMC,140256.750,A,4308.3075,N,07726.2641,W,0.19,310.24,140821,,,A*73
$GPGGA,140257.000,4308.3075,N,07726.2641,W,1,06,1.53,171.1,M,-34.4,M,,*59
$GPRMC,140257.250,A,4308.3076,N,07726.2641,W,0.20,314.25,140821,,,A*7B
$GPGGA,140257.500,4308.3076,N,07726.2641,W,1,06,1.54,171.1,M,-34.4,M,,*58
$GPRMC,140257.750,A,4308.3076,N,07726.2642,W,0.21,307.94,140821,,,A*74
$GPGGA,140258.000,4308.3076,N,07726.2642,W,1,06,1.53,171.1,M,-34.4,M,,*56
$GPRMC,140258.250,A,4308.3076,N,07726.2642,W,0.27,314.01,140821,,,A*76
$GPGGA,140258.500,4308.3076,N,07726.2642,W,1,06,1.53,171.1,M,-34.4,M,,*53
$GPRMC,140258.750,A,4308.3076,N,07726.2642,W,0.24,323.73,140821,,,A*71
$GPGGA,140259.000,4308.3076,N,07726.2642,W,1,06,1.54,171.1,M,-34.4,M,,*50
$GPRMC,140259.250,A,4308.3076,N,07726.2642,W,0.22,355.72,140821,,,A*73
$GPGGA,140259.500,4308.3077,N,07726.2642,W,1,06,1.96,171.1,M,-34.4,M,,*5A
$GPRMC,140259.750,A,4308.3077,N,07726.2642,W,0.22,0.67,140821,,,A*70
$GPGGA,140300.000,4308.3077,N,07726.2642,W,1,06,1.96,171.1,M,-34.4,M,,*52
$GPRMC,140300.250,A,4308.3077,N,07726.2643,W,0.17,346.71,140821,,,A*79
$GPGGA,140300.500,4308.3077,N,07726.2643,W,1,06,1.96,171.1,M,-34.4,M,,*56
$GPRMC,140300.750,A,4308.3077,N,07726.2643,W,0.11,315.63,140821,,,A*7F
$GPGGA,140301.000,4308.3077,N,07726.2643,W,1,06,1.54,171.1,M,-34.4,M,,*5C
$GPRMC,140301.250,A,4308.3077,N,07726.2643,W,0.10,281.16,140821,,,A*74
$GPGGA,140301.500,4308.3077,N,07726.2643,W,1,06,1.54,171.1,M,-34.4,M,,*59
$GPRMC,140301.750,A,4308.3077,N,07726.2643,W,0.04,271.25,140821,,,A*7B
$GPGGA,140302.000,4308.3077,N,07726.2643,W,1,06,1.54,171.1,M,-34.4,M,,*5F
$GPRMC,140302.250,A,4308.3077,N,07726.2643,W,0.03,153.43,140821,,,A*79
$GPGGA,140302.500,4308.3077,N,07726.2643,W,1,06,1.53,171.0,M,-34.4,M,,*5C
$GPRMC,140302.750,A,4308.3077,N,07726.2643,W,0.09,238.62,140821,,,A*7B
$GPGGA,140303.000,4308.3077,N,07726.2643,W,1,06,1.54,171.0,M,-34.4,M,,*5F
$GPRMC,140303.250,A,4308.3077,N,07726.2643,W,0.10,192.31,140821,,,A*72
$GPGGA,140303.500,4308.3077,N,07726.2643,W,1,06,1.53,171.0,M,-34.4,M,,*5D
$GPRMC,140303.750,A,4308.3077,N,07726.2643,W,0.09,211.14,140821,,,A*70
$GPGGA,140304.000,4308.3077,N,07726.2643,W,1,06,1.54,171.0,M,-34.4,M,,*58
$GPRMC,140304.250,A,4308.3077,N,07726.2643,W,0.01,236.08,140821,,,A*72
$GPGGA,140304.500,4308.3077,N,07726.2643,W,1,06,1.54,171.0,M,-34.4,M,,*5D
$GPRMC,140304.750,A,4308.3077,N,07726.2643,W,0.06,238.44,140821,,,A*76
$GPGGA,140305.000,4308.3077,N,07726.2643,W,1,06,1.53,171.0,M,-34.4,M,,*5E
$GPRMC,140305.250,A,4308.3077,N,07726.2643,W,0.05,175.54,140821,,,A*7A
$GPGGA,140305.500,4308.3077,N,07726.2643,W,1,06,1.54,171.0,M,-34.4,M,,*5C
$GPRMC,140305.750,A,4308.3077,N,07726.2643,W,0.07,216.03,140821,,,A*79
$GPGGA,140306.000,4308.3077,N,07726.2643,W,1,06,1.54,171.0,M,-34.4,M,,*5A
$GPRMC,140306.250,A,4308.3077,N,07726.2643,W,0.04,336.80,140821,,,A*74
$GPGGA,140306.500,4308.3077,N,07726.2643,W,1,06,1.54,171.0,M,-34.4,M,,*5F
$GPRMC,140306.750,A,4308.3077,N,07726.2643,W,0.10,50.17,140821,,,A*49
$GPGGA,140307.000,4308.3077,N,07726.2643,W,1,06,1.54,171.0,M,-34.4,M,,*5B
$GPRMC,140307.250,A,4308.3077,N,07726.2643,W,0.17,70.94,140821,,,A*43
$GPGGA,140307.500,4308.3077,N,07726.2643,W,1,06,1.54,171.0,M,-34.4,M,,*5E
$GPRMC,140307.750,A,4308.3077,N,07726.2643,W,0.13,58.28,140821,,,A*4F
$GPGGA,140308.000,4308.3077,N,07726.2643,W,1,06,1.53,171.0,M,-34.4,M,,*53
$GPRMC,140308.250,A,4308.3077,N,07726.2643,W,0.13,47.84,140821,,,A*4D
$GPGGA,140308.500,4308.3077,N,07726.2643,W,1,06,1.54,171.0,M,-34.4,M,,*51
$GPRMC,140308.750,A,4308.3077,N,07726.2642,W,0.12,48.41,140821,,,A*4E
$GPGGA,140309.000,4308.3077,N,07726.2642,W,1,06,1.53,171.0,M,-34.4,M,,*53
$GPRMC,140309.250,A,4308.3077,N,07726.2642,W,0.10,64.95,140821,,,A*4F
$GPGGA,140309.500,4308.3077,N,07726.2642,W,1,06,1.54,171.0,M,-34.4,M,,*51
$GPRMC,140309.750,A,4308.3077,N,07726.2642,W,0.10,77.38,140821,,,A*4F
$GPGGA,140310.000,4308.3077,N,07726.2642,W,1,06,1.54,171.0,M,-34.4,M,,*5C
$GPRMC,140310.250,A,4308.3077,N,07726.2642,W,0.13,82.18,140821,,,A*49
$GPGGA,140310.500,4308.3077,N,07726.2642,W,1,06,1.53,171.0,M,-34.4,M,,*5E
$GPRMC,140310.750,A,4308.3077,N,07726.2642,W,0.22,84.92,140821,,,A*4A
$GPGGA,140311.000,4308.3077,N,07726.2641,W,1,06,1.53,171.0,M,-34.4,M,,*59
$GPRMC,140311.250,A,4308.3077,N,07726.2641,W,0.22,86.87,140821,,,A*4B
$GPGGA,140311.500,4308.3077,N,07726.2641,W,1,06,1.53,171.0,M,-34.4,M,,*5C
$GPRMC,140311.750,A,4308.3077,N,07726.2641,W,0.18,71.99,140821,,,A*40
$GPGGA,140312.000,4308.3078,N,07726.2641,W,1,06,1.54,171.0,M,-34.4,M,,*52
$GPRMC,140312.250,A,4308.3078,N,07726.2640,W,0.14,33.49,140821,,,A*4F
$GPGGA,140312.500,4308.3078,N,07726.2640,W,1,06,1.54,171.0,M,-34.4,M,,*56
$GPRMC,140312.750,A,4308.3078,N,07726.2640,W,0.20,2.11,140821,,,A*72
$GPGGA,140313.000,4308.3078,N,07726.2640,W,1,06,1.96,171.0,M,-34.4,M,,*5C
$GPRMC,140313.250,A,4308.3078,N,07726.2640,W,0.31,4.47,140821,,,A*73
$GPGGA,140313.500,4308.3078,N,07726.2640,W,1,06,1.96,171.0,M,-34.4,M,,*59
$GPRMC,140313.750,A,4308.3079,N,07726.2640,W,0.36,350.74,140821,,,A*72
$GPGGA,140314.000,4308.3079,N,07726.2640,W,1,06,1.96,171.0,M,-34.4,M,,*5A
$GPRMC,140314.250,A,4308.3079,N,07726.2641,W,0.37,347.90,140821,,,A*7C
$GPGGA,140314.500,4308.3079,N,07726.2641,W,1,06,1.96,171.0,M,-34.4,M,,*5E
$GPRMC,140314.750,A,4308.3080,N,07726.2641,W,0.33,346.46,140821,,,A*71
$GPGGA,140315.000,4308.3080,N,07726.2641,W,1,06,1.96,171.0,M,-34.4,M,,*5C
$GPRMC,140315.250,A,4308.3080,N,07726.2641,W,0.34,350.23,140821,,,A*76
$GPGGA,140315.500,4308.3080,N,07726.2641,W,1,06,1.97,171.0,M,-34.4,M,,*58
$GPRMC,140315.750,A,4308.3081,N,07726.2641,W,0.35,354.14,140821,,,A*73
$GPGGA,140316.000,4308.3081,N,07726.2641,W,1,06,1.96,171.0,M,-34.4,M,,*5E
$GPRMC,140316.250,A,4308.3081,N,07726.2641,W,0.30,340.50,140821,,,A*75
$GPGGA,140316.500,4308.3081,N,07726.2641,W,1,06,1.54,171.0,M,-34.4,M,,*55
$GPRMC,140316.750,A,4308.3081,N,07726.2641,W,0.32,328.88,140821,,,A*79
$GPGGA,140317.000,4308.3082,N,07726.2641,W,1,06,1.54,171.0,M,-34.4,M,,*52
$GPRMC,140317.250,A,4308.3082,N,07726.2642,W,0.24,326.40,140821,,,A*70
$GPGGA,140317.500,4308.3082,N,07726.2642,W,1,06,1.54,171.0,M,-34.4,M,,*54
$GPRMC,140317.750,A,4308.3082,N,07726.2642,W,0.12,346.72,140821,,,A*77
$GPGGA,140318.000,4308.3082,N,07726.2642,W,1,06,1.96,171.0,M,-34.4,M,,*50
$GPRMC,140318.250,A,4308.3082,N,07726.2642,W,0.18,314.35,140821,,,A*73
$GPGGA,140318.500,4308.3082,N,07726.2642,W,1,06,1.54,171.0,M,-34.4,M,,*5B
$GPRMC,140318.750,A,4308.3082,N,07726.2642,W,0.09,328.67,140821,,,A*7E
$GPGGA,140319.000,4308.3082,N,07726.2642,W,1,06,1.54,171.0,M,-34.4,M,,*5F
$GPRMC,140319.250,A,4308.3082,N,07726.2642,W,0.06,18.80,140821,,,A*4C
$GPGGA,140319.500,4308.3082,N,07726.2642,W,1,06,1.54,171.0,M,-34.4,M,,*5A
$GPRMC,140319.750,A,4308.3083,N,07726.2642,W,0.12,40.90,140821,,,A*41
$GPGGA,140320.000,4308.3083,N,07726.2642,W,1,06,1.54,171.0,M,-34.4,M,,*54
$GPRMC,140320.250,A,4308.3083,N,07726.2642,W,0.19,19.13,140821,,,A*42
$GPGGA,140320.500,4308.3083,N,07726.2642,W,1,06,1.54,171.0,M,-34.4,M,,*51
$GPRMC,140320.750,A,4308.3083,N,07726.2642,W,0.22,2.44,140821,,,A*77
$GPGGA,140321.000,4308.3083,N,07726.2642,W,1,06,1.97,171.0,M,-34.4,M,,*5A
$GPRMC,140321.250,A,4308.3083,N,07726.2642,W,0.23,354.86,140821,,,A*7C
$GPGGA,140321.500,4308.3083,N,07726.2642,W,1,06,1.97,171.0,M,-34.4,M,,*5F
$GPRMC,140321.750,A,4308.3084,N,07726.2642,W,0.23,355.49,140821,,,A*7C
$GPGGA,140322.000,4308.3084,N,07726.2642,W,1,06,1.97,171.0,M,-34.4,M,,*5E
$GPRMC,140322.250,A,4308.3084,N,07726.2642,W,0.20,357.36,140821,,,A*73
$GPGGA,140322.500,4308.3084,N,07726.2642,W,1,06,1.97,171.0,M,-34.4,M,,*5B
$GPRMC,140322.750,A,4308.3084,N,07726.2642,W,0.11,27.28,140821,,,A*4F
$GPGGA,140323.000,4308.3084,N,07726.2642,W,1,06,1.54,171.0,M,-34.4,M,,*50
$GPRMC,140323.250,A,4308.3084,N,07726.2642,W,0.04,92.12,140821,,,A*48
$GPGGA,140323.500,4308.3084,N,07726.2642,W,1,06,1.54,171.0,M,-34.4,M,,*55
$GPRMC,140323.750,A,4308.3084,N,07726.2642,W,0.05,155.34,140821,,,A*72
$GPGGA,140324.000,4308.3084,N,07726.2642,W,1,06,1.54,171.0,M,-34.4,M,,*57
$GPRMC,140324.250,A,4308.3084,N,07726.2642,W,0.13,166.23,140821,,,A*71
$GPGGA,140324.500,4308.3084,N,07726.2642,W,1,06,1.54,171.0,M,-34.4,M,,*52
$GPRMC,140324.750,A,4308.3084,N,07726.2642,W,0.25,167.53,140821,,,A*77
$GPGGA,140325.000,4308.3084,N,07726.2642,W,1,06,1.54,171.0,M,-34.4,M,,*56
$GPRMC,140325.250,A,4308.3083,N,07726.2642,W,0.23,182.27,140821,,,A*7A
$GPGGA,140325.500,4308.3083,N,07726.2642,W,1,06,1.54,171.0,M,-34.4,M,,*54
$GPRMC,140325.750,A,4308.3083,N,07726.2642,W,0.18,198.24,140821,,,A*7F
$GPGGA,140326.000,4308.3083,N,07726.2642,W,1,06,1.54,171.0,M,-34.4,M,,*52
$GPRMC,140326.250,A,4308.3083,N,07726.2642,W,0.16,215.54,140821,,,A*76
$GPGGA,140326.500,4308.3083,N,07726.2642,W,1,06,1.54,171.0,M,-34.4,M,,*57
$GPRMC,140326.750,A,4308.3083,N,07726.2642,W,0.16,218.53,140821,,,A*79
$GPGGA,140327.000,4308.3083,N,07726.2642,W,1,06,1.54,171.0,M,-34.4,M,,*53
$GPRMC,140327.250,A,4308.3083,N,07726.2642,W,0.12,229.66,140821,,,A*7D
$GPGGA,140327.500,4308.3083,N,07726.2642,W,1,06,1.54,171.0,M,-34.4,M,,*56
$GPRMC,140327.750,A,4308.3083,N,07726.2642,W,0.09,246.46,140821,,,A*79
$GPGGA,140328.000,4308.3083,N,07726.2642,W,1,06,1.54,171.0,M,-34.4,M,,*5C
$GPRMC,140328.250,A,4308.3083,N,07726.2643,W,0.06,284.65,140821,,,A*72
$GPGGA,140328.500,4308.3083,N,07726.2643,W,1,06,1.54,171.0,M,-34.4,M,,*58
$GPRMC,140328.750,A,4308.3083,N,07726.2643,W,0.04,358.31,140821,,,A*74
$GPGGA,140329.000,4308.3083,N,07726.2643,W,1,06,1.97,171.0,M,-34.4,M,,*53
$GPRMC,140329.250,A,4308.3083,N,07726.2643,W,0.07,1.34,140821,,,A*79
$GPGGA,140329.500,4308.3083,N,07726.2643,W,1,06,1.97,171.0,M,-34.4,M,,*56
$GPRMC,140329.750,A,4308.3083,N,07726.2643,W,0.12,43.97,140821,,,A*47
$GPGGA,140330.000,4308.3083,N,07726.2642,W,1,06,1.54,171.0,M,-34.4,M,,*55
$GPRMC,140330.250,A,4308.3083,N,07726.2642,W,0.28,56.17,140821,,,A*4E
$GPGGA,140330.500,4308.3083,N,07726.2642,W,1,06,1.54,171.0,M,-34.4,M,,*50
$GPRMC,140330.750,A,4308.3083,N,07726.2642,W,0.48,33.03,140821,,,A*4B
$GPGGA,140331.000,4308.3084,N,07726.2642,W,1,06,1.54,171.0,M,-34.4,M,,*53
$GPRMC,140331.250,A,4308.3086,N,07726.2641,W,0.76,22.48,140821,,,A*4B
$GPGGA,140331.500,4308.3089,N,07726.2640,W,1,06,1.54,171.1,M,-34.4,M,,*58
$GPRMC,140331.750,A,4308.3090,N,07726.2639,W,1.03,17.89,140821,,,A*4E
$GPGGA,140332.000,4308.3093,N,07726.2639,W,1,06,1.54,171.1,M,-34.4,M,,*5B
$GPRMC,140332.250,A,4308.3095,N,07726.2638,W,1.32,14.47,140821,,,A*4F
$GPGGA,140332.500,4308.3098,N,07726.2637,W,1,06,1.97,171.1,M,-34.4,M,,*54
$GPRMC,140332.750,A,4308.3100,N,07726.2637,W,1.54,13.65,140821,,,A*4F
$GPGGA,140333.000,4308.3102,N,07726.2636,W,1,06,1.97,171.1,M,-34.4,M,,*53
$GPRMC,140333.250,A,4308.3104,N,07726.2636,W,1.69,11.45,140821,,,A*40
$GPGGA,140333.500,4308.3106,N,07726.2635,W,1,06,1.97,171.1,M,-34.4,M,,*51
$GPRMC,140333.750,A,4308.3109,N,07726.2634,W,1.90,10.19,140821,,,A*44
$GPGGA,140334.000,4308.3111,N,07726.2633,W,1,06,1.97,171.1,M,-34.4,M,,*53
$GPRMC,140334.250,A,4308.3113,N,07726.2633,W,2.37,10.10,140821,,,A*4D
$GPGGA,140334.500,4308.3116,N,07726.2632,W,1,06,1.97,171.1,M,-34.4,M,,*50
$GPRMC,140334.750,A,4308.3118,N,07726.2632,W,2.74,6.14,140821,,,A*76
$GPGGA,140335.000,4308.3120,N,07726.2631,W,1,06,1.97,171.0,M,-34.4,M,,*53
$GPRMC,140335.250,A,4308.3123,N,07726.2630,W,3.08,10.22,140821,,,A*40
$GPGGA,140335.500,4308.3124,N,07726.2629,W,1,06,1.97,171.0,M,-34.4,M,,*5B
$GPRMC,140335.750,A,4308.3126,N,07726.2628,W,2.90,14.22,140821,,,A*4D
$GPGGA,140336.000,4308.3127,N,07726.2627,W,1,06,1.97,171.0,M,-34.4,M,,*50
$GPRMC,140336.250,A,4308.3129,N,07726.2627,W,2.74,6.30,140821,,,A*71
$GPGGA,140336.500,4308.3131,N,07726.2627,W,1,06,1.97,171.0,M,-34.4,M,,*52
$GPRMC,140336.750,A,4308.3133,N,07726.2625,W,3.14,11.89,140821,,,A*4E
$GPGGA,140337.000,4308.3135,N,07726.2624,W,1,06,1.97,170.9,M,-34.4,M,,*59
$GPRMC,140337.250,A,4308.3137,N,07726.2624,W,2.90,13.53,140821,,,A*47
$GPGGA,140337.500,4308.3138,N,07726.2623,W,1,06,1.97,170.9,M,-34.4,M,,*56
$GPRMC,140337.750,A,4308.3139,N,07726.2622,W,2.62,15.10,140821,,,A*46
$GPGGA,140338.000,4308.3140,N,07726.2621,W,1,06,1.54,170.9,M,-34.4,M,,*5E
$GPRMC,140336.250,A,4308.3140,N,07726.2620,W,1.83,20.29,140821,,,A*4E
$GPGGA,140336.500,4308.3140,N,07726.2620,W,1,06,1.54,170.8,M,-34.4,M,,*55
$GPRMC,140336.750,A,4308.3141,N,07726.2619,W,1.37,13.45,140821,,,A*45
$GPGGA,140337.000,4308.3141,N,07726.2619,W,1,06,1.97,170.7,M,-34.4,M,,*5A
$GPRMC,140337.250,A,4308.3141,N,07726.2620,W,1.04,3.37,140821,,,A*7F
$GPGGA,140337.500,4308.3141,N,07726.2620,W,1,06,1.97,170.7,M,-34.4,M,,*55
$GPRMC,140337.750,A,4308.3142,N,07726.2620,W,1.08,3.92,140821,,,A*7A
$GPGGA,140338.000,4308.3143,N,07726.2621,W,1,06,1.97,170.7,M,-34.4,M,,*5C
$GPRMC,140338.250,A,4308.3143,N,07726.2621,W,1.10,0.68,140821,,,A*7F
$GPGGA,140338.500,4308.3144,N,07726.2621,W,1,06,1.97,170.6,M,-34.4,M,,*5F
$GPRMC,140338.750,A,4308.3146,N,07726.2622,W,1.16,359.74,140821,,,A*78
$GPGGA,140339.000,4308.3146,N,07726.2622,W,1,06,1.97,170.6,M,-34.4,M,,*5A
$GPRMC,140339.250,A,4308.3147,N,07726.2622,W,1.14,358.18,140821,,,A*74
$GPGGA,140339.500,4308.3148,N,07726.2621,W,1,06,1.97,170.6,M,-34.4,M,,*52
$GPRMC,140339.750,A,4308.3149,N,07726.2621,W,1.26,0.84,140821,,,A*76
$GPGGA,140340.000,4308.3150,N,07726.2619,W,1,06,1.97,170.4,M,-34.4,M,,*59
$GPRMC,140340.250,A,4308.3152,N,07726.2618,W,1.54,8.39,140821,,,A*76
$GPGGA,140340.500,4308.3152,N,07726.2617,W,1,06,1.97,170.1,M,-34.4,M,,*55
$GPRMC,140340.750,A,4308.3154,N,07726.2617,W,1.69,10.88,140821,,,A*47
$GPGGA,140341.000,4308.3156,N,07726.2617,W,1,06,1.97,170.0,M,-34.4,M,,*54
$GPRMC,140341.250,A,4308.3158,N,07726.2615,W,1.94,15.16,140821,,,A*4D
$GPGGA,140341.500,4308.3160,N,07726.2614,W,1,06,1.54,169.9,M,-34.4,M,,*59
$GPRMC,140341.750,A,4308.3161,N,07726.2613,W,2.04,19.55,140821,,,A*45
$GPGGA,140342.000,4308.3162,N,07726.2611,W,1,06,1.54,169.8,M,-34.4,M,,*59
$GPRMC,140342.250,A,4308.3164,N,07726.2611,W,2.07,23.69,140821,,,A*41
$GPGGA,140342.500,4308.3165,N,07726.2610,W,1,06,1.54,169.7,M,-34.4,M,,*55
$GPRMC,140342.750,A,4308.3167,N,07726.2609,W,2.15,24.36,140821,,,A*40
$GPGGA,140343.000,4308.3168,N,07726.2607,W,1,06,1.54,169.6,M,-34.4,M,,*5B
$GPRMC,140343.250,A,4308.3168,N,07726.2606,W,2.13,29.26,140821,,,A*4E
$GPGGA,140343.500,4308.3168,N,07726.2603,W,1,06,1.54,169.5,M,-34.4,M,,*59
$GPRMC,140343.750,A,4308.3170,N,07726.2602,W,2.15,33.52,140821,,,A*48
$GPGGA,140344.000,4308.3172,N,07726.2602,W,1,06,1.54,169.4,M,-34.4,M,,*50
$GPRMC,140344.250,A,4308.3173,N,07726.2602,W,2.09,27.05,140821,,,A*43
$GPGGA,140344.500,4308.3174,N,07726.2602,W,1,06,1.54,169.3,M,-34.4,M,,*54
$GPRMC,140344.750,A,4308.3175,N,07726.2601,W,2.02,24.00,140821,,,A*4E
$GPGGA,140345.000,4308.3176,N,07726.2601,W,1,06,1.54,169.2,M,-34.4,M,,*50
$GPRMC,140345.250,A,4308.3178,N,07726.2601,W,1.99,18.82,140821,,,A*43
$GPGGA,140345.500,4308.3179,N,07726.2601,W,1,06,1.54,169.1,M,-34.4,M,,*59
$GPRMC,140345.750,A,4308.3179,N,07726.2601,W,1.93,16.13,140821,,,A*4B
$GPGGA,140346.000,4308.3176,N,07726.2606,W,1,06,1.54,169.0,M,-34.4,M,,*56
$GPRMC,140346.250,A,4308.3173,N,07726.2610,W,1.29,350.74,140821,,,A*76
$GPGGA,140346.500,4308.3171,N,07726.2613,W,1,06,1.97,168.9,M,-34.4,M,,*57
$GPRMC,140346.750,A,4308.3169,N,07726.2616,W,1.15,323.00,140821,,,A*76
$GPGGA,140347.000,4308.3169,N,07726.2620,W,1,06,1.54,168.8,M,-34.4,M,,*54
$GPRMC,140347.250,A,4308.3169,N,07726.2626,W,1.55,299.81,140821,,,A*7C
$GPGGA,140347.500,4308.3173,N,07726.2637,W,1,06,1.54,168.7,M,-34.4,M,,*53
$GPRMC,140347.750,A,4308.3176,N,07726.2643,W,3.40,291.11,140821,,,A*73
$GPGGA,140348.000,4308.3178,N,07726.2648,W,1,06,1.54,168.6,M,-34.4,M,,*5B
$GPRMC,140348.250,A,4308.3178,N,07726.2652,W,4.38,285.76,140821,,,A*7B
$GPGGA,140348.500,4308.3176,N,07726.2658,W,1,06,1.97,168.6,M,-34.4,M,,*5E
$GPRMC,140348.750,A,4308.3177,N,07726.2664,W,5.44,278.54,140821,,,A*7C
$GPGGA,140349.000,4308.3178,N,07726.2670,W,1,06,1.97,168.6,M,-34.4,M,,*5E
$GPRMC,140349.250,A,4308.3178,N,07726.2676,W,5.97,277.84,140821,,,A*78
$GPGGA,140349.500,4308.3178,N,07726.2682,W,1,06,1.97,168.4,M,-34.4,M,,*54
$GPRMC,140349.750,A,4308.3178,N,07726.2688,W,5.88,278.86,140821,,,A*7F
$GPGGA,140350.000,4308.3179,N,07726.2694,W,1,06,1.97,168.3,M,-34.4,M,,*58
$GPRMC,140350.250,A,4308.3179,N,07726.2700,W,5.66,281.68,140821,,,A*74
$GPGGA,140350.500,4308.3179,N,07726.2705,W,1,06,1.97,168.1,M,-34.4,M,,*56
$GPRMC,140350.750,A,4308.3179,N,07726.2709,W,4.77,280.57,140821,,,A*74
$GPGGA,140351.000,4308.3179,N,07726.2713,W,1,06,1.97,167.9,M,-34.4,M,,*52
$GPRMC,140351.250,A,4308.3180,N,07726.2716,W,3.43,291.12,140821,,,A*79
$GPGGA,140351.500,4308.3180,N,07726.2718,W,1,06,1.54,167.8,M,-34.4,M,,*54
$GPRMC,140351.750,A,4308.3181,N,07726.2720,W,2.28,303.39,140821,,,A*77
$GPGGA,140352.000,4308.3181,N,07726.2721,W,1,06,1.54,167.6,M,-34.4,M,,*57
$GPRMC,140352.250,A,4308.3181,N,07726.2722,W,1.27,323.58,140821,,,A*7A
$GPGGA,140352.500,4308.3182,N,07726.2722,W,1,06,1.54,167.4,M,-34.4,M,,*50
$GPRMC,140352.750,A,4308.3182,N,07726.2722,W,0.96,343.90,140821,,,A*75
$GPGGA,140353.000,4308.3182,N,07726.2721,W,1,06,1.54,167.2,M,-34.4,M,,*51
$GPRMC,140353.250,A,4308.3182,N,07726.2721,W,0.67,348.06,140821,,,A*78
$GPGGA,140353.500,4308.3182,N,07726.2721,W,1,06,1.97,167.0,M,-34.4,M,,*59
$GPRMC,140353.750,A,4308.3182,N,07726.2721,W,0.53,350.39,140821,,,A*7F
$GPGGA,140354.000,4308.3182,N,07726.2721,W,1,06,1.97,166.8,M,-34.4,M,,*52
$GPRMC,140354.250,A,4308.3183,N,07726.2722,W,0.64,335.95,140821,,,A*7E
$GPGGA,140354.500,4308.3183,N,07726.2722,W,1,06,1.54,166.6,M,-34.4,M,,*54
$GPRMC,140354.750,A,4308.3183,N,07726.2722,W,0.58,335.98,140821,,,A*79
$GPGGA,140355.000,4308.3183,N,07726.2721,W,1,06,1.54,166.4,M,-34.4,M,,*51
$GPRMC,140355.250,A,4308.3183,N,07726.2720,W,0.44,347.36,140821,,,A*73
$GPGGA,140355.500,4308.3183,N,07726.2720,W,1,06,1.97,166.3,M,-34.4,M,,*5D
$GPRMC,140355.750,A,4308.3183,N,07726.2720,W,0.44,344.25,140821,,,A*77
$GPGGA,140356.000,4308.3183,N,07726.2720,W,1,06,1.54,166.1,M,-34.4,M,,*56
$GPRMC,140356.250,A,4308.3183,N,07726.2720,W,0.35,343.27,140821,,,A*72
$GPGGA,140356.500,4308.3182,N,07726.2719,W,1,06,1.54,166.0,M,-34.4,M,,*59
$GPRMC,140356.750,A,4308.3181,N,07726.2719,W,0.22,346.66,140821,,,A*79
$GPGGA,140357.000,4308.3182,N,07726.2719,W,1,06,1.97,165.8,M,-34.4,M,,*59
$GPRMC,140357.250,A,4308.3182,N,07726.2718,W,0.37,358.09,140821,,,A*7D
$GPGGA,140357.500,4308.3182,N,07726.2718,W,1,06,1.97,165.7,M,-34.4,M,,*52
$GPRMC,140357.750,A,4308.3182,N,07726.2718,W,0.39,1.65,140821,,,A*73
$GPGGA,140358.000,4308.3181,N,07726.2717,W,1,06,1.97,165.5,M,-34.4,M,,*56
$GPRMC,140358.250,A,4308.3181,N,07726.2717,W,0.30,13.76,140821,,,A*4D
$GPGGA,140358.500,4308.3182,N,07726.2717,W,1,06,1.54,165.5,M,-34.4,M,,*5F
$GPRMC,140358.750,A,4308.3182,N,07726.2717,W,0.27,13.82,140821,,,A*46
$GPGGA,140359.000,4308.3182,N,07726.2717,W,1,06,1.97,165.4,M,-34.4,M,,*55
$GPRMC,140359.250,A,4308.3182,N,07726.2717,W,0.31,12.28,140821,,,A*44
$GPGGA,140359.500,4308.3182,N,07726.2717,W,1,06,1.97,165.4,M,-34.4,M,,*50
$GPRMC,140359.750,A,4308.3183,N,07726.2717,W,0.34,8.46,140821,,,A*76
$GPGGA,140400.000,4308.3183,N,07726.2717,W,1,06,1.97,165.4,M,-34.4,M,,*5F
$GPRMC,140400.250,A,4308.3183,N,07726.2717,W,0.26,8.37,140821,,,A*7D
$GPGGA,140400.500,4308.3183,N,07726.2717,W,1,06,1.97,165.4,M,-34.4,M,,*5A
$GPRMC,140400.750,A,4308.3183,N,07726.2717,W,0.27,7.37,140821,,,A*76
$GPGGA,140401.000,4308.3183,N,07726.2717,W,1,06,1.97,165.4,M,-34.4,M,,*5E
$GPRMC,140401.250,A,4308.3184,N,07726.2717,W,0.33,5.80,140821,,,A*7E
$GPGGA,140401.500,4308.3184,N,07726.2717,W,1,06,1.97,165.4,M,-34.4,M,,*5C
$GPRMC,140401.750,A,4308.3184,N,07726.2717,W,0.30,4.60,140821,,,A*77
$GPGGA,140402.000,4308.3184,N,07726.2717,W,1,06,1.97,165.4,M,-34.4,M,,*5A
$GPRMC,140402.250,A,4308.3185,N,07726.2717,W,0.33,5.13,140821,,,A*76
$GPGGA,140402.500,4308.3185,N,07726.2717,W,1,06,1.97,165.4,M,-34.4,M,,*5E
$GPRMC,140402.750,A,4308.3185,N,07726.2717,W,0.38,5.91,140821,,,A*72
$GPGGA,140403.000,4308.3185,N,07726.2717,W,1,06,1.97,165.3,M,-34.4,M,,*5D
$GPRMC,140403.250,A,4308.3186,N,07726.2717,W,0.35,4.18,140821,,,A*78
$GPGGA,140403.500,4308.3186,N,07726.2717,W,1,06,1.97,165.3,M,-34.4,M,,*5B
$GPRMC,140403.750,A,4308.3186,N,07726.2717,W,0.30,2.14,140821,,,A*72
$GPGGA,140404.000,4308.3186,N,07726.2717,W,1,06,1.97,165.3,M,-34.4,M,,*59
$GPRMC,140404.250,A,4308.3186,N,07726.2717,W,0.25,359.10,140821,,,A*7D
$GPGGA,140404.500,4308.3186,N,07726.2717,W,1,06,1.53,165.3,M,-34.4,M,,*54
$GPRMC,140404.750,A,4308.3187,N,07726.2717,W,0.31,352.97,140821,,,A*78
$GPGGA,140405.000,4308.3187,N,07726.2718,W,1,06,1.54,165.3,M,-34.4,M,,*59
$GPRMC,140405.250,A,4308.3187,N,07726.2718,W,0.20,347.73,140821,,,A*7D
$GPGGA,140405.500,4308.3187,N,07726.2718,W,1,06,1.54,165.3,M,-34.4,M,,*5C
$GPRMC,140405.750,A,4308.3187,N,07726.2718,W,0.13,344.73,140821,,,A*7B
$GPGGA,140406.000,4308.3187,N,07726.2718,W,1,06,1.54,165.3,M,-34.4,M,,*5A
$GPRMC,140406.250,A,4308.3187,N,07726.2718,W,0.11,341.29,140821,,,A*75
$GPGGA,140406.500,4308.3187,N,07726.2718,W,1,06,1.54,165.3,M,-34.4,M,,*5F
$GPRMC,140406.750,A,4308.3187,N,07726.2719,W,0.17,334.86,140821,,,A*70
$GPGGA,140407.000,4308.3187,N,07726.2719,W,1,06,1.54,165.3,M,-34.4,M,,*5A
$GPRMC,140407.250,A,4308.3187,N,07726.2719,W,0.17,261.44,140821,,,A*7B
$GPGGA,140407.500,4308.3186,N,07726.2719,W,1,06,1.54,165.3,M,-34.4,M,,*5E
$GPRMC,140407.750,A,4308.3186,N,07726.2719,W,0.10,304.78,140821,,,A*75
$GPGGA,140408.000,4308.3187,N,07726.2719,W,1,06,1.54,165.3,M,-34.4,M,,*55
$GPRMC,140408.250,A,4308.3187,N,07726.2719,W,0.20,308.71,140821,,,A*78
$GPGGA,140408.500,4308.3187,N,07726.2719,W,1,06,1.54,165.3,M,-34.4,M,,*50
$GPRMC,140408.750,A,4308.3187,N,07726.2720,W,0.16,307.30,140821,,,A*78
$GPGGA,140409.000,4308.3187,N,07726.2720,W,1,06,1.54,165.2,M,-34.4,M,,*5F
$GPRMC,140409.250,A,4308.3187,N,07726.2720,W,0.12,249.04,140821,,,A*74
$GPGGA,140409.500,4308.3187,N,07726.2720,W,1,06,1.54,165.2,M,-34.4,M,,*5A
$GPRMC,140409.750,A,4308.3187,N,07726.2720,W,0.15,226.45,140821,,,A*7A
$GPGGA,140410.000,4308.3187,N,07726.2720,W,1,06,1.54,165.2,M,-34.4,M,,*57
$GPRMC,140410.250,A,4308.3186,N,07726.2720,W,0.25,252.34,140821,,,A*70
$GPGGA,140410.500,4308.3186,N,07726.2721,W,1,06,1.54,165.2,M,-34.4,M,,*52
$GPRMC,140410.750,A,4308.3186,N,07726.2721,W,0.18,234.93,140821,,,A*77
$GPGGA,140411.000,4308.3186,N,07726.2721,W,1,06,1.54,165.2,M,-34.4,M,,*56
$GPRMC,140411.250,A,4308.3186,N,07726.2721,W,0.23,210.24,140821,,,A*71
$GPGGA,140411.500,4308.3186,N,07726.2721,W,1,06,1.54,165.2,M,-34.4,M,,*53
$GPRMC,140411.750,A,4308.3186,N,07726.2721,W,0.26,203.79,140821,,,A*7B
$GPGGA,140412.000,4308.3186,N,07726.2721,W,1,06,1.54,165.2,M,-34.4,M,,*55
$GPRMC,140412.250,A,4308.3185,N,07726.2721,W,0.23,208.81,140821,,,A*77
$GPGGA,140412.500,4308.3185,N,07726.2721,W,1,06,1.54,165.2,M,-34.4,M,,*53
$GPRMC,140412.750,A,4308.3185,N,07726.2722,W,0.12,193.52,140821,,,A*7C
$GPGGA,140413.000,4308.3185,N,07726.2722,W,1,06,1.54,165.2,M,-34.4,M,,*54
$GPRMC,140413.250,A,4308.3185,N,07726.2722,W,0.14,215.96,140821,,,A*7B
$GPGGA,140413.500,4308.3185,N,07726.2722,W,1,06,1.54,165.2,M,-34.4,M,,*51
$GPRMC,140413.750,A,4308.3185,N,07726.2722,W,0.13,224.84,140821,,,A*78
$GPGGA,140414.000,4308.3185,N,07726.2722,W,1,06,1.54,165.2,M,-34.4,M,,*53
$GPRMC,140414.250,A,4308.3185,N,07726.2722,W,0.21,225.53,140821,,,A*70
$GPGGA,140414.500,4308.3185,N,07726.2722,W,1,06,1.54,165.2,M,-34.4,M,,*56
$GPRMC,140414.750,A,4308.3184,N,07726.2722,W,0.29,228.18,140821,,,A*7E
$GPGGA,140415.000,4308.3184,N,07726.2723,W,1,06,1.54,165.2,M,-34.4,M,,*52
$GPRMC,140415.250,A,4308.3184,N,07726.2723,W,0.19,222.34,140821,,,A*7C
$GPGGA,140415.500,4308.3184,N,07726.2723,W,1,06,1.54,165.2,M,-34.4,M,,*57
$GPRMC,140415.750,A,4308.3184,N,07726.2723,W,0.13,185.33,140821,,,A*7A
$GPGGA,140416.000,4308.3184,N,07726.2723,W,1,06,1.54,165.2,M,-34.4,M,,*51
$GPRMC,140416.250,A,4308.3184,N,07726.2723,W,0.14,206.61,140821,,,A*74
$GPGGA,140416.500,4308.3184,N,07726.2723,W,1,06,1.54,165.2,M,-34.4,M,,*54
$GPRMC,140416.750,A,4308.3184,N,07726.2723,W,0.10,220.56,140821,,,A*75
$GPGGA,140417.000,4308.3184,N,07726.2723,W,1,06,1.54,165.2,M,-34.4,M,,*50
$GPRMC,140417.250,A,4308.3183,N,07726.2723,W,0.10,170.36,140821,,,A*76
$GPGGA,140417.500,4308.3183,N,07726.2723,W,1,06,1.54,165.2,M,-34.4,M,,*52
$GPRMC,140417.750,A,4308.3183,N,07726.2723,W,0.11,161.93,140821,,,A*7D
$GPGGA,140418.000,4308.3183,N,07726.2723,W,1,06,1.54,165.2,M,-34.4,M,,*58
$GPRMC,140418.250,A,4308.3183,N,07726.2723,W,0.19,122.78,140821,,,A*7D
$GPGGA,140418.500,4308.3183,N,07726.2723,W,1,06,1.54,165.2,M,-34.4,M,,*5D
$GPRMC,140418.750,A,4308.3183,N,07726.2723,W,0.16,142.43,140821,,,A*79
$GPGGA,140419.000,4308.3183,N,07726.2723,W,1,06,1.54,165.2,M,-34.4,M,,*59
$GPRMC,140419.250,A,4308.3183,N,07726.2722,W,0.15,146.19,140821,,,A*74
$GPGGA,140419.500,4308.3183,N,07726.2722,W,1,06,1.54,165.2,M,-34.4,M,,*5D
$GPRMC,140419.750,A,4308.3183,N,07726.2722,W,0.15,153.01,140821,,,A*7C
$GPGGA,140420.000,4308.3182,N,07726.2722,W,1,06,1.54,165.2,M,-34.4,M,,*53
$GPRMC,140420.250,A,4308.3182,N,07726.2722,W,0.21,138.25,140821,,,A*7E
$GPGGA,140420.500,4308.3182,N,07726.2722,W,1,06,1.54,165.2,M,-34.4,M,,*56
$GPRMC,140420.750,A,4308.3182,N,07726.2722,W,0.03,35.33,140821,,,A*40
$GPGGA,140421.000,4308.3182,N,07726.2722,W,1,06,1.54,165.2,M,-34.4,M,,*52
$GPRMC,140421.250,A,4308.3182,N,07726.2722,W,0.08,174.65,140821,,,A*78
$GPGGA,140421.500,4308.3182,N,07726.2722,W,1,06,1.54,165.2,M,-34.4,M,,*57
$GPRMC,140421.750,A,4308.3182,N,07726.2722,W,0.08,184.84,140821,,,A*7D
$GPGGA,140422.000,4308.3182,N,07726.2722,W,1,06,1.54,165.2,M,-34.4,M,,*51
$GPRMC,140422.250,A,4308.3182,N,07726.2722,W,0.09,142.18,140821,,,A*75
$GPGGA,140422.500,4308.3182,N,07726.2722,W,1,06,1.54,165.1,M,-34.4,M,,*57
$GPRMC,140422.750,A,4308.3182,N,07726.2722,W,0.08,128.11,140821,,,A*74
$GPGGA,140423.000,4308.3182,N,07726.2722,W,1,06,1.54,165.1,M,-34.4,M,,*53
$GPRMC,140423.250,A,4308.3182,N,07726.2722,W,0.11,188.60,140821,,,A*74
$GPGGA,140423.500,4308.3182,N,07726.2722,W,1,06,1.54,165.1,M,-34.4,M,,*56
