Vers 81
USE_SERIAL_FEEDBACK=true
DEVELOPMENT_MODE=false
USE_RMC_ONLY=false

$GPRMC,215106.250,A,4308.3037,N,07726.2680,W,0.27,33.87,280821,,,A*41
$GPGGA,215106.500,4308.3038,N,07726.2680,W,1,03,4.32,184.4,M,-34.4,M,,*54
$GPRMC,215106.750,A,4308.3041,N,07726.2680,W,0.41,20.59,280821,,,A*44
$GPGGA,215107.000,4308.3042,N,07726.2680,W,1,03,4.31,184.4,M,-34.4,M,,*5E
$GPRMC,215107.250,A,4308.3043,N,07726.2680,W,0.30,2.64,280821,,,A*7A
$GPGGA,215107.500,4308.3044,N,07726.2680,W,1,03,62.40,184.4,M,-34.4,M,,*6B
$GPRMC,215107.750,A,4308.3045,N,07726.2680,W,0.18,350.83,280821,,,A*7E
$GPGGA,215108.000,4308.3046,N,07726.2680,W,1,03,62.38,184.4,M,-34.4,M,,*6C
$GPGGA,215108.500,4308.3047,N,07726.2680,W,1,03,62.36,184.4,M,-34.4,M,,*66
$GPRMC,215108.500,A,4308.3047,N,07726.2680,W,0.07,44.07,280821,,A*40
$GPGGA,215108.750,4308.3047,N,07726.2681,W,1,03,4.31,184.4,M,-34.4,M,,*57
$GPRMC,215108.750,A,4308.3047,N,07726.2681,W,0.07,34.84,280821,,A*4A
$GPGGA,215109.000,4308.3048,N,07726.2681,W,1,03,4.31,184.4,M,-34.4,M,,*5B
$GPRMC,215109.000,A,4308.3048,N,07726.2681,W,0.06,17.60,280821,,A*4C
$GPGGA,215109.250,4308.3049,N,07726.2681,W,1,03,4.31,184.4,M,-34.4,M,,*5D
$GPRMC,215109.250,A,4308.3049,N,07726.2681,W,0.08,355.86,280821,,A*79
$GPGGA,215109.500,4308.3050,N,07726.2681,W,1,03,62.32,184.4,M,-34.4,M,,*64
$GPRMC,215109.500,A,4308.3050,N,07726.2681,W,0.12,31.00,280821,,A*47
$GPGGA,215109.750,4308.3049,N,07726.2680,W,1,03,4.30,184.4,M,-34.4,M,,*58
$GPRMC,215109.750,A,4308.3049,N,07726.2680,W,0.14,74.00,280821,,,A*4E
$GPGGA,215110.000,4308.3048,N,07726.2680,W,1,03,4.30,184.4,M,-34.4,M,,*53
$GPRMC,215110.000,A,4308.3048,N,07726.2680,W,0.15,94.64,280821,$GPGGA,215110.250,4308.3048,N,07726.2680,W,1,03,4.30,184.4,M,-34.4,M,,*54
$GPRMC,215110.500,A,4308.3048,N,07726.2680,W,0.09,80.33,280821,,,A*47
$GPGGA,215110.750,4308.3047,N,07726.2680,W,1,03,4.30,184.4,M,-34.4,M,,*5E
$GPRMC,215111.000,A,4308.3045,N,07726.2680,W,0.06,141.47,280821,,,A*7E
$GPGGA,215111.250,4308.3044,N,07726.2680,W,1,03,4.30,184.4,M,-34.4,M,,*59
$GPRMC,215111.500,A,4308.3043,N,07726.2679,W,0.13,146.76,280821,,,A*7A
$GPGGA,215111.750,4308.3041,N,07726.2679,W,1,03,4.30,184.4,M,-34.4,M,,*5F
$GPRMC,215112.000,A,4308.3039,N,07726.2679,W,0.10,119.73,280821,,,A*7D
$GPGGA,215112.250,4308.3038,N,07726.2678,W,1,03,4.30,184.4,M,-34.4,M,,*56
$GPRMC,215112.500,A,4308.3036,N,07726.2678,W,0.18,124.79,280821,,,A*7A
$GPGGA,215112.750,4308.3035,N,07726.2678,W,1,03,4.30,184.4,M,-34.4,M,,*5E
$GPRMC,215113.000,A,4308.3033,N,07726.2678,W,0.18,149.00,280821,,,A*7E
$GPGGA,215113.250,4308.3032,N,07726.2677,W,1,03,4.29,184.4,M,-34.4,M,,*5A
$GPRMC,215113.500,A,4308.3032,N,07726.2677,W,0.16,148.05,280821,,,A*7F
$GPGGA,215113.750,4308.3031,N,07726.2677,W,1,03,4.29,184.4,M,-34.4,M,,*5C
$GPRMC,215114.000,A,4308.3032,N,07726.2677,W,0.05,240.75,280821,,,A*73
$GPGGA,215114.095,4308.3031,N,07726.2678,W,1,03,4.29,184.4,M,-3.4,M,,*5A
$GPRMC,215114.500,A,4308.3030,N,07726.2677,W,0.09,229.06,280821,,,A*73
$GPGGA,215114.750,4308.3029,N,07726.2677,W,1,03,4.29,184.3,M,-34.4,M,,*55
$GPRMC,215115.000,A,4308.3029,N,07726.2677,W,0.07,227.32,280821,,,A*78
$GPGGA,215115.250,4308.3028,N,07726.2677,W,1,03,4.29,184.3,M,-34.4,M,,*50
$GPRMC,215115.500,A,4308.3028,N,07726.2677,W,0.11,221.16,280821,,,A*7B
$GPGGA,215115.750,4308.3026,N,07726.2676,W,1,03,4.29,184.3,M,-34.4,M,,*5A
$GPRMC,215116.000,A,4308.3025,N,07726.2676,W,0.20,180.04,280821,,,A*78
$GPGGA,215116.250,4308.3024,N,07726.2676,W,1,03,4.29,184.3,M,-34.4,M,,*5E
$GPRMC,215116.500,A,4308.3024,N,07726.2675,W,0.19,168.12,280821,,,A*74
$GPGGA,215116.750,4308.3024,N,07726.2675,W,1,03,4.28,184.3,M,-34.4,M,,*59
$GPRMC,215117.000,A,4308.3023,N,07726.2675,W,0.16,149.26,280821,,,A*7C
$GPGGA,215117.250,4308.3022,N,07726.2674,W,1,03,4.28,184.3,M,-34.4,M,,*5A
$GPRMC,215117.500,A,4308.3021,N,07726.2674,W,0.24,121.09,280821,,,A*78
$GPGGA,215117.750,4308.3021,N,07726.2673,W,1,03,4.28,184.3,M,-34.4,M,,*5B
$GPRMC,215118.000,A,4308.3020,N,07726.2673,W,0.18,125.21,280821,,,A*75
$GPGGA,215118.250,4308.3020,N,07726.2674,W,1,03,4.28,184.3,M,-34.4,M,,*57
$GPRMC,215118.500,A,4308.3019,N,07726.2674,W,0.07,216.60,280821,,,A*75
$GPGGA,215118.750,4308.3019,N,07726.2674,W,1,03,4.28,184.3,M,-34.4,M,,*58
$GPRMC,215119.000,A,4308.3018,N,07726.2674,W,0.10,190.80,280821,,,A*75
$GPGGA,215119.250,4308.3018,N,07726.2674,W,1,03,4.27,184.3,M,-34.4,M,,*52
$GPRMC,215119.500,A,4308.3019,N,07726.2674,W,0.04,236.82,280821,,,A*79
$GPGGA,215119.750,4308.3019,N,07726.2674,W,1,03,4.28,184.3,M,-34.4,M,,*59
$GPRMC,215120.000,A,4308.3019,N,07726.2673,W,0.03,108.47,280821,,,A*71
$GPGGA,215120.087,4308.3018,N,07726.2673,W,1,03,4.27,184.4,M,-3.4,M,,*50
$GPRMC,215120.500,A,4308.3018,N,07726.2673,W,0.04,144.57,280821,,,A*7B
$GPGGA,215120.750,4308.3018,N,07726.2673,W,1,03,4.27,184.4,M,-34.4,M,,*5D
$GPRMC,215121.000,A,4308.3019,N,07726.2674,W,0.12,288.05,280821,,,A*7A
$GPGGA,215121.250,4308.3020,N,07726.2675,W,1,03,4.27,184.4,M,-34.4,M,,*54
$GPRMC,215121.500,A,4308.3020,N,07726.2675,W,0.24,307.96,280821,,,A*7D
$GPGGA,215121.750,4308.3021,N,07726.2675,W,1,03,4.27,184.3,M,-34.4,M,,*57
$GPRMC,215122.000,A,4308.3021,N,07726.2675,W,0.21,333.92,280821,,,A*7C
$GPGGA,215122.250,4308.3021,N,07726.2675,W,1,03,4.27,184.3,M,-34.4,M,,*51
$GPRMC,215122.500,A,4308.3021,N,07726.2674,W,0.18,3.19,280821,,,A*71
$GPGGA,215122.750,4308.3022,N,07726.2674,W,1,03,61.79,184.3,M,-34.4,M,,*6E
$GPRMC,215123.000,A,4308.3021,N,07726.2674,W,0.22,7.01,280821,,,A*71
$GPGGA,215123.250,4308.3021,N,07726.2674,W,1,03,61.77,184.3,M,-34.4,M,,*67
$GPRMC,215123.500,A,4308.3021,N,07726.2673,W,0.25,21.79,280821,,,A*4F
$GPGGA,215123.750,4308.3021,N,07726.2674,W,1,03,4.26,184.3,M,-34.4,M,,*55
$GPRMC,215124.000,A,4308.3021,N,07726.2674,W,0.22,356.91,280821,,,A*78
$GPGGA,215124.250,4308.3021,N,07726.2674,W,1,03,61.73,184.3,M,-34.4,M,,*64
$GPRMC,215124.500,A,4308.3020,N,07726.2674,W,0.21,4.79,280821,,,A*7D
$GPGGA,215124.750,4308.3020,N,07726.2674,W,1,03,61.71,184.3,M,-34.4,M,,*62
$GPRMC,215125.000,A,4308.3020,N,07726.2674,W,0.24,5.74,280821,,,A*70
$GPGGA,215125.250,4308.3019,N,07726.2674,W,1,03,61.69,184.3,M,-34.4,M,,*65
$GPRMC,215125.500,A,4308.3018,N,07726.2674,W,0.19,5.70,280821,,,A*74
$GPGGA,215125.750,4308.3017,N,07726.2673,W,1,03,61.67,184.3,M,-34.4,M,,*67
$GPRMC,215126.000,A,4308.3017,N,07726.2673,W,0.18,9.60,280821,,,A*76
$GPGGA,215126.086,4308.3017,N,07726.2673,W,1,03,61.65,184.3,M,-4.4,M,,*6A
$GPRMC,215126.500,A,4308.3017,N,07726.2674,W,0.23,345.34,280821,,,A*76
$GPGGA,215126.750,4308.3016,N,07726.2674,W,1,03,61.63,184.3,M,-34.4,M,,*66
$GPRMC,215127.000,A,4308.3015,N,07726.2673,W,0.12,350.79,280821,,,A*78
$GPGGA,215127.250,4308.3015,N,07726.2673,W,1,03,61.61,184.3,M,-34.4,M,,*64
$GPRMC,215127.500,A,4308.3015,N,07726.2673,W,0.17,357.69,280821,,,A*7E
$GPGGA,215127.750,4308.3015,N,07726.2673,W,1,03,61.59,184.3,M,-34.4,M,,*6A
$GPRMC,215128.000,A,4308.3014,N,07726.2673,W,0.12,348.47,280821,,,A*72
$GPGGA,215128.250,4308.3012,N,07726.2673,W,1,03,61.57,184.3,M,-34.4,M,,*69
$GPRMC,215128.500,A,4308.3011,N,07726.2673,W,0.03,344.16,280821,,,A*7A
$GPGGA,215128.750,4308.3011,N,07726.2673,W,1,03,4.25,184.3,M,-34.4,M,,*59
$GPRMC,215129.000,A,4308.3010,N,07726.2673,W,0.04,339.37,280821,,,A*71
$GPGGA,215129.250,4308.3010,N,07726.2673,W,1,03,4.24,184.3,M,-34.4,M,,*5D
$GPRMC,215129.500,A,4308.3008,N,07726.2673,W,0.05,183.51,280821,,,A*7F
$GPGGA,215129.750,4308.3006,N,07726.2673,W,1,03,4.24,184.3,M,-34.4,M,,*5F
$GPRMC,215130.000,A,4308.3007,N,07726.2673,W,0.05,200.46,280821,,,A*73
$GPGGA,215130.250,4308.3007,N,07726.2673,W,1,03,4.24,184.3,M,-34.4,M,,*53
$GPRMC,215130.500,A,4308.3007,N,07726.2673,W,0.04,247.71,280821,,,A*70
$GPGGA,215130.750,4308.3007,N,07726.2673,W,1,03,4.24,184.3,M,-34.4,M,,*56
$GPRMC,215131.000,A,4308.3006,N,07726.2672,W,0.08,117.70,280821,,,A*7F
$GPGGA,215131.250,4308.3005,N,07726.2671,W,1,03,4.24,184.3,M,-34.4,M,,*52
$GPRMC,215131.500,A,4308.3004,N,07726.2671,W,0.22,128.76,280821,,,A*79
$GPGGA,215131.750,4308.3004,N,07726.2671,W,1,03,4.24,184.3,M,-34.4,M,,*56
$GPRMC,215132.000,A,4308.3004,N,07726.2671,W,0.14,128.83,280821,,,A*70
$GPGGA,215132.086,4308.3005,N,07726.2671,W,1,03,4.24,184.3,M,-3.4,M,,*58
$GPRMC,215132.500,A,4308.3006,N,07726.2671,W,0.09,74.84,280821,,,A*44
$GPGGA,215132.750,4308.3005,N,07726.2670,W,1,03,4.24,184.3,M,-34.4,M,,*55
$GPRMC,215133.000,A,4308.3005,N,07726.2669,W,0.17,85.68,280821,,,A*49
$GPGGA,215133.250,4308.3004,N,07726.2669,W,1,03,4.23,184.3,M,-34.4,M,,*5F
$GPRMC,215133.500,A,4308.3003,N,07726.2668,W,0.21,96.97,280821,,,A*4C
$GPGGA,215133.750,4308.3001,N,07726.2668,W,1,03,4.23,184.3,M,-34.4,M,,*5E
$GPRMC,215134.000,A,4308.3000,N,07726.2668,W,0.20,129.03,280821,,,A*74
$GPGGA,215134.250,4308.3000,N,07726.2668,W,1,03,4.23,184.3,M,-34.4,M,,*5D
$GPRMC,215134.500,A,4308.3000,N,07726.2668,W,0.14,111.48,280821,,,A*72
$GPGGA,215134.750,4308.3000,N,07726.2668,W,1,03,4.23,184.3,M,-34.4,M,,*58
$GPRMC,215135.000,A,4308.2999,N,07726.2669,W,0.09,154.27,280821,,,A*7B
$GPGGA,215135.250,4308.2997,N,07726.2668,W,1,03,4.23,184.3,M,-34.4,M,,*5A
$GPRMC,215135.500,A,4308.2995,N,07726.2667,W,0.28,153.12,280821,,,A*7E
$GPGGA,215135.750,4308.2995,N,07726.2667,W,1,03,4.23,184.3,M,-34.4,M,,*52
$GPRMC,215136.000,A,4308.2995,N,07726.2667,W,0.25,172.59,280821,,,A*79
$GPGGA,215136.250,4308.2994,N,07726.2667,W,1,03,4.23,184.3,M,-34.4,M,,*55
$GPRMC,215136.500,A,4308.2994,N,07726.2667,W,0.28,179.13,280821,,,A*75
$GPGGA,215136.750,4308.2994,N,07726.2667,W,1,03,4.22,184.3,M,-34.4,M,,*51
$GPRMC,215137.000,A,4308.2994,N,07726.2667,W,0.25,183.03,280821,,,A*78
$GPGGA,215137.250,4308.2994,N,07726.2667,W,1,03,4.22,184.3,M,-34.4,M,,*55
$GPRMC,215137.500,A,4308.2994,N,07726.2667,W,0.21,184.93,280821,,,A*77
$GPGGA,215137.750,4308.2993,N,07726.2667,W,1,03,4.22,184.3,M,-34.4,M,,*57
$GPRMC,215138.000,A,4308.2993,N,07726.2667,W,0.29,188.54,280821,,,A*75
$GPGGA,215138.097,4308.2993,N,07726.2667,W,1,03,4.22,184.3,M,-3,A,4308.2993,N,07726.2667,W,0.29,188.25,280821,,,A*7D
$GPGGA,215138.500,4308.2993,N,07726.2667,W,1,03,4.22,184.3,M,-34.4,M,,*5F
$GPRMC,215138.500,A,4308.2993,N,07726.2667,W,0.32,183.91,280821,,A*78
$GPGGA,215138.750,4308.2992,N,07726.2667,W,1,03,4.22,184.3,M,-34.4,M,,*59
$GPRMC,215138.750,A,4308.2992,N,07726.2667,W,0.34,183.58,280821,,A*7D
$GPGGA,215139.000,4308.2992,N,07726.2667,W,1,03,4.22,184.3,M,-34.4,M,,*5A
$GPRMC,215139.000,A,4308.2992,N,07726.2667,W,0.36,174.22,280821$GPGGA,215139.250,4308.2992,N,07726.2667,W,1,03,4.22,184.3,M,-34.4,M,,*5D
$GPRMC,215139.500,A,4308.2992,N,07726.2667,W,0.37,160.07,280821,,,A*7F
$GPGGA,215139.750,4308.2991,N,07726.2667,W,1,03,4.22,184.3,M,-34.4,M,,*5B
$GPRMC,215140.000,A,4308.2991,N,07726.2667,W,0.36,162.29,280821,,,A*78
$GPGGA,215140.250,4308.2991,N,07726.2667,W,1,03,4.21,184.3,M,-34.4,M,,*53
$GPRMC,215140.500,A,4308.2991,N,07726.2667,W,0.37,173.13,280821,,,A*75
$GPGGA,215140.750,4308.2991,N,07726.2667,W,1,03,4.21,184.3,M,-34.4,M,,*56
$GPRMC,215141.000,A,4308.2990,N,07726.2667,W,0.40,187.85,280821,,,A*74
$GPGGA,215141.250,4308.2990,N,07726.2667,W,1,03,4.21,184.3,M,-34.4,M,,*53
$GPRMC,215141.500,A,4308.2990,N,07726.2667,W,0.47,187.98,280821,,,A*7A
$GPGGA,215141.750,4308.2989,N,07726.2667,W,1,03,4.21,184.3,M,-34.4,M,,*5E
$GPRMC,215142.000,A,4308.2989,N,07726.2667,W,0.45,194.29,280821,,,A*7E
$GPGGA,215142.250,4308.2989,N,07726.2667,W,1,03,4.21,184.3,M,-34.4,M,,*58
$GPRMC,215142.500,A,4308.2988,N,07726.2667,W,0.41,178.37,280821,,,A*73
$GPGGA,215142.750,4308.2988,N,07726.2667,W,1,03,4.21,184.3,M,-34.4,M,,*5C
$GPRMC,215143.000,A,4308.2988,N,07726.2667,W,0.37,180.82,280821,,,A*7F
$GPGGA,215143.250,4308.2988,N,07726.2667,W,1,03,4.21,184.3,M,-34.4,M,,*58
$GPRMC,215143.500,A,4308.2987,N,07726.2667,W,0.38,195.57,280821,,,A*76
$GPGGA,215143.750,4308.2987,N,07726.2667,W,1,03,4.20,184.3,M,-34.4,M,,*53
$GPRMC,215144.000,A,4308.2987,N,07726.2667,W,0.34,174.84,280821,,,A*79
$GPGGA,215144.097,4308.2987,N,07726.2667,W,1,03,4.20,184.3,M,-34,M,,*58
$GPRMC,215144.500,A,4308.2986,N,07726.2667,W,0.34,151.85,280821,,,A*7B
$GPGGA,215144.750,4308.2986,N,07726.2667,W,1,03,4.20,184.3,M,-34.4,M,,*55
$GPRMC,215145.000,A,4308.2986,N,07726.2667,W,0.28,144.35,280821,,,A*7D
$GPGGA,215145.250,4308.2986,N,07726.2667,W,1,03,4.20,184.3,M,-34.4,M,,*51
$GPRMC,215145.500,A,4308.2986,N,07726.2667,W,0.18,132.78,280821,,,A*73
$GPGGA,215145.750,4308.2986,N,07726.2667,W,1,03,4.20,184.3,M,-34.4,M,,*54
$GPRMC,215146.000,A,4308.2986,N,07726.2666,W,0.13,125.73,280821,,,A*72
$GPGGA,215146.250,4308.2986,N,07726.2666,W,1,03,4.19,184.3,M,-34.4,M,,*59
$GPRMC,215146.500,A,4308.2986,N,07726.2666,W,0.06,129.64,280821,,,A*79
$GPGGA,215146.750,4308.2986,N,07726.2666,W,1,03,4.20,184.3,M,-34.4,M,,*56
$GPRMC,215147.000,A,4308.2986,N,07726.2666,W,0.07,109.14,280821,,,A*79
$GPGGA,215147.250,4308.2986,N,07726.2666,W,1,03,4.19,184.3,M,-34.4,M,,*58
$GPRMC,215147.500,A,4308.2986,N,07726.2666,W,0.10,80.24,280821,,,A*49
$GPGGA,215147.750,4308.2986,N,07726.2666,W,1,03,4.19,184.3,M,-34.4,M,,*5D
$GPRMC,215148.000,A,4308.2986,N,07726.2666,W,0.08,18.50,280821,,,A*48
$GPGGA,215148.250,4308.2986,N,07726.2666,W,1,03,4.19,184.3,M,-34.4,M,,*57
$GPRMC,215148.500,A,4308.2986,N,07726.2666,W,0.11,4.36,280821,,,A*78
$GPGGA,215148.750,4308.2986,N,07726.2666,W,1,03,60.76,184.3,M,-34.4,M,,*69
$GPRMC,215149.000,A,4308.2986,N,07726.2666,W,0.14,357.92,280821,,,A*72
$GPGGA,215149.250,4308.2986,N,07726.2666,W,1,03,60.74,184.3,M,-34.4,M,,*6F
$GPRMC,215149.500,A,4308.2987,N,07726.2666,W,0.21,321.30,280821,,,A*79
$GPGGA,215149.750,4308.2988,N,07726.2666,W,1,03,4.19,184.3,M,-34.4,M,,*5D
$GPRMC,215150.000,A,4308.2989,N,07726.2667,W,0.26,324.71,280821,,,A*7C
$GPGGA,215150.085,4308.2990,N,07726.2667,W,1,03,4.19,184.3,M,-34,M,,*52
$GPRMC,215150.500,A,4308.2991,N,07726.2667,W,0.23,338.72,280821,,,A*7B
$GPGGA,215150.750,4308.2991,N,07726.2667,W,1,03,4.19,184.3,M,-34.4,M,,*5C
$GPRMC,215151.000,A,4308.2992,N,07726.2667,W,0.26,344.48,280821,,,A*7B
$GPGGA,215151.250,4308.2992,N,07726.2667,W,1,03,4.18,184.3,M,-34.4,M,,*5A
$GPRMC,215151.500,A,4308.2992,N,07726.2667,W,0.27,357.01,280821,,,A*70
$GPGGA,215151.750,4308.2992,N,07726.2667,W,1,03,60.64,184.3,M,-34.4,M,,*66
$GPRMC,215152.000,A,4308.2992,N,07726.2667,W,0.33,350.62,280821,,,A*71
$GPGGA,215152.250,4308.2993,N,07726.2667,W,1,03,60.62,184.3,M,-34.4,M,,*67
$GPRMC,215152.500,A,4308.2993,N,07726.2667,W,0.39,347.07,280821,,,A*7A
$GPGGA,215152.750,4308.2993,N,07726.2667,W,1,03,60.60,184.3,M,-34.4,M,,*60
$GPRMC,215153.000,A,4308.2994,N,07726.2667,W,0.42,350.23,280821,,,A*75
$GPGGA,215153.250,4308.2995,N,07726.2667,W,1,03,60.58,184.3,M,-34.4,M,,*69
$GPRMC,215153.500,A,4308.2995,N,07726.2667,W,0.41,0.23,280821,,,A*74
$GPGGA,215153.750,4308.2996,N,07726.2667,W,1,03,60.56,184.3,M,-34.4,M,,*61
$GPRMC,215154.000,A,4308.2997,N,07726.2668,W,0.42,355.12,280821,,,A*79
$GPGGA,215154.250,4308.2997,N,07726.2668,W,1,03,60.54,184.3,M,-34.4,M,,*6F
$GPRMC,215154.500,A,4308.2997,N,07726.2668,W,0.47,352.34,280821,,,A*7A
$GPGGA,215154.750,4308.2998,N,07726.2668,W,1,03,60.52,184.3,M,-34.4,M,,*63
$GPRMC,215155.000,A,4308.2998,N,07726.2668,W,0.47,349.68,280821,,,A*72
$GPGGA,215155.250,4308.2998,N,07726.2668,W,1,03,60.50,184.3,M,-34.4,M,,*65
$GPRMC,215155.500,A,4308.2999,N,07726.2668,W,0.39,1.93,280821,,,A*74
$GPGGA,215155.750,4308.2999,N,07726.2668,W,1,03,60.48,184.3,M,-34.4,M,,*68
$GPRMC,215156.000,A,4308.2999,N,07726.2668,W,0.36,2.34,280821,,,A*73
$GPGGA,215156.085,4308.2999,N,07726.2668,W,1,03,60.47,184.3,M,-4.4,M,,*6B
$GPRMC,215156.500,A,4308.3000,N,07726.2668,W,0.36,342.89,280821,,,A*7F
$GPGGA,215156.750,4308.3000,N,07726.2668,W,1,03,4.17,184.3,M,-34.4,M,,*5B
$GPRMC,215157.000,A,4308.3000,N,07726.2668,W,0.34,347.96,280821,,,A*72
$GPGGA,215157.250,4308.3000,N,07726.2668,W,1,03,60.43,184.3,M,-34.4,M,,*6C
$GPRMC,215157.500,A,4308.3000,N,07726.2668,W,0.31,2.27,280821,,,A*7A
$GPGGA,215157.750,4308.3001,N,07726.2668,W,1,03,60.41,184.3,M,-34.4,M,,*6A
$GPRMC,215158.000,A,4308.3001,N,07726.2668,W,0.27,3.00,280821,,,A*72
$GPGGA,215158.250,4308.3001,N,07726.2668,W,1,03,60.39,184.3,M,-34.4,M,,*6F
$GPRMC,215158.500,A,4308.3001,N,07726.2668,W,0.17,10.76,280821,,,A*47
$GPGGA,215158.750,4308.3001,N,07726.2668,W,1,03,60.37,184.3,M,-34.4,M,,*64
$GPRMC,215159.000,A,4308.3002,N,07726.2668,W,0.18,3.96,280821,,,A*73
$GPGGA,215159.250,4308.3002,N,07726.2668,W,1,03,60.35,184.3,M,-34.4,M,,*61
$GPRMC,215159.500,A,4308.3002,N,07726.2668,W,0.20,355.22,280821,,,A*72
$GPGGA,215159.750,4308.3002,N,07726.2668,W,1,03,60.33,184.3,M,-34.4,M,,*62
$GPRMC,215200.000,A,4308.3002,N,07726.2668,W,0.22,339.72,280821,,,A*75
$GPGGA,215200.250,4308.3002,N,07726.2668,W,1,03,4.16,184.3,M,-34.4,M,,*5D
$GPRMC,215200.500,A,4308.3002,N,07726.2668,W,0.26,331.68,280821,,,A*77
$GPGGA,215200.750,4308.3001,N,07726.2668,W,1,03,4.16,184.3,M,-34.4,M,,*5B
$GPRMC,215201.000,A,4308.3001,N,07726.2668,W,0.20,346.26,280821,,,A*7C
$GPGGA,215201.250,4308.2999,N,07726.2668,W,1,03,60.27,184.3,M,-34.4,M,,*66
$GPRMC,215201.500,A,4308.2999,N,07726.2668,W,0.17,322.59,280821,,,A*7E
$GPGGA,215201.750,4308.2999,N,07726.2669,W,1,03,4.15,184.3,M,-34.4,M,,*51
$GPRMC,215202.000,A,4308.3000,N,07726.2669,W,0.17,318.80,280821,,,A*7C
$GPGGA,215202.085,4308.3000,N,07726.2669,W,1,03,4.15,184.3,M,-3.4,M,,*55
$GPRMC,215202.500,A,4308.3001,N,07726.2670,W,0.22,321.43,280821,,,A*73
$GPGGA,215202.750,4308.3001,N,07726.2670,W,1,03,4.15,184.3,M,-34.4,M,,*53
$GPRMC,215203.000,A,4308.3001,N,07726.2670,W,0.20,344.60,280821,,,A*77
$GPGGA,215203.250,4308.3001,N,07726.2670,W,1,03,4.15,184.3,M,-34.4,M,,*57
$GPRMC,215203.500,A,4308.3002,N,07726.2670,W,0.17,344.51,280821,,,A*77
$GPGGA,215203.750,4308.3002,N,07726.2670,W,1,03,4.15,184.3,M,-34.4,M,,*51
$GPRMC,215204.000,A,4308.3001,N,07726.2670,W,0.12,347.97,280821,,,A*7A
$GPGGA,215204.250,4308.3002,N,07726.2671,W,1,03,60.15,184.3,M,-34.4,M,,*60
$GPRMC,215204.500,A,4308.3001,N,07726.2671,W,0.14,304.43,280821,,,A*76
$GPGGA,215204.750,4308.3001,N,07726.2671,W,1,03,4.14,184.3,M,-34.4,M,,*55
$GPRMC,215205.000,A,4308.3001,N,07726.2672,W,0.11,311.51,280821,,,A*73
$GPGGA,215205.250,4308.3001,N,07726.2672,W,1,03,4.14,184.3,M,-34.4,M,,*52
$GPRMC,215205.500,A,4308.3002,N,07726.2672,W,0.11,309.38,280821,,,A*73
$GPGGA,215205.750,4308.3002,N,07726.2672,W,1,03,4.14,184.3,M,-34.4,M,,*54
$GPRMC,215206.000,A,4308.3002,N,07726.2672,W,0.10,329.14,280821,,,A*78
$GPGGA,215206.250,4308.3002,N,07726.2672,W,1,03,4.14,184.3,M,-34.4,M,,*52
$GPRMC,215206.500,A,4308.3002,N,07726.2672,W,0.15,355.13,280821,,,A*74
$GPGGA,215206.750,4308.3002,N,07726.2672,W,1,03,60.06,184.3,M,-34.4,M,,*66
$GPRMC,215207.000,A,4308.3002,N,07726.2672,W,0.18,336.37,280821,,,A*7E
$GPGGA,215207.250,4308.3002,N,07726.2672,W,1,03,4.14,184.3,M,-34.4,M,,*53
$GPRMC,215207.500,A,4308.3003,N,07726.2672,W,0.20,345.46,280821,,,A*73
$GPGGA,215207.750,4308.3004,N,07726.2672,W,1,03,60.02,184.3,M,-34.4,M,,*65
$GPRMC,215208.000,A,4308.3006,N,07726.2672,W,0.27,350.37,280821,,,A*79
$GPGGA,215208.085,4308.3007,N,07726.2672,W,1,03,60.01,184.2,M,-4.4,M,,*64
$GPRMC,215208.500,A,4308.3007,N,07726.2672,W,0.37,345.87,280821,,,A*73
$GPGGA,215208.750,4308.3008,N,07726.2672,W,1,03,59.98,184.2,M,-34.4,M,,*6E
$GPRMC,215209.000,A,4308.3008,N,07726.2672,W,0.39,344.68,280821,,,A*76
$GPGGA,215209.250,4308.3008,N,07726.2672,W,1,03,4.13,184.2,M,-34.4,M,,*51
$GPRMC,215209.500,A,4308.3008,N,07726.2671,W,0.33,2.01,280821,,,A*74
$GPGGA,215209.750,4308.3008,N,07726.2671,W,1,03,59.94,184.2,M,-34.4,M,,*60
$GPRMC,215210.000,A,4308.3009,N,07726.2670,W,0.35,20.73,280821,,,A*4A
$GPGGA,215210.250,4308.3009,N,07726.2670,W,1,03,4.13,184.2,M,-34.4,M,,*5A
$GPRMC,215210.500,A,4308.3010,N,07726.2670,W,0.36,5.31,280821,,,A*75
$GPGGA,215210.750,4308.3011,N,07726.2670,W,1,03,59.91,184.2,M,-34.4,M,,*64
$GPRMC,215211.000,A,4308.3012,N,07726.2670,W,0.40,2.43,280821,,,A*70
$GPGGA,215211.250,4308.3013,N,07726.2670,W,1,03,59.89,184.2,M,-34.4,M,,*6B
$GPRMC,215211.500,A,4308.3013,N,07726.2670,W,0.41,359.79,280821,,,A*71
$GPGGA,215211.750,4308.3013,N,07726.2670,W,1,03,59.87,184.2,M,-34.4,M,,*60
$GPRMC,215212.000,A,4308.3014,N,07726.2670,W,0.43,0.08,280821,,,A*7B
$GPGGA,215212.250,4308.3014,N,07726.2670,W,1,03,59.85,184.2,M,-34.4,M,,*63
$GPRMC,215212.500,A,4308.3014,N,07726.2670,W,0.42,5.70,280821,,,A*75
$GPGGA,215212.750,4308.3014,N,07726.2670,W,1,03,59.83,184.2,M,-34.4,M,,*60
$GPRMC,215213.000,A,4308.3015,N,07726.2670,W,0.42,354.05,280821,,,A*75
$GPGGA,215213.250,4308.3015,N,07726.2670,W,1,03,59.81,184.2,M,-34.4,M,,*67
$GPRMC,215213.500,A,4308.3015,N,07726.2670,W,0.33,359.41,280821,,,A*7B
$GPGGA,215213.750,4308.3015,N,07726.2670,W,1,03,59.79,184.2,M,-34.4,M,,*65
$GPRMC,215214.000,A,4308.3016,N,07726.2670,W,0.31,346.89,280821,,,A*72
$GPGGA,215214.085,4308.3016,N,07726.2670,W,1,03,59.78,184.2,M,-4.4,M,,*6F
$GPRMC,215214.500,A,4308.3016,N,07726.2670,W,0.37,338.58,280821,,,A*74
$GPGGA,215214.750,4308.3017,N,07726.2670,W,1,03,4.12,184.2,M,-34.4,M,,*55
$GPRMC,215215.000,A,4308.3017,N,07726.2670,W,0.37,349.65,280821,,,A*79
$GPGGA,215215.250,4308.3018,N,07726.2670,W,1,03,59.73,184.2,M,-34.4,M,,*61
$GPRMC,215215.500,A,4308.3018,N,07726.2670,W,0.39,354.92,280821,,,A*79
$GPGGA,215215.750,4308.3018,N,07726.2670,W,1,03,59.72,184.2,M,-34.4,M,,*65
$GPRMC,215216.000,A,4308.3019,N,07726.2670,W,0.26,354.86,280821,,,A*75
$GPGGA,215216.250,4308.3019,N,07726.2670,W,1,03,59.70,184.2,M,-34.4,M,,*60
$GPRMC,215216.500,A,4308.3019,N,07726.2670,W,0.17,312.38,280821,,,A*75
$GPGGA,215216.750,4308.3018,N,07726.2671,W,1,03,4.11,184.2,M,-34.4,M,,*5A
$GPRMC,215217.000,A,4308.3018,N,07726.2671,W,0.14,316.69,280821,,,A*72
$GPGGA,215217.250,4308.3018,N,07726.2671,W,1,03,4.11,184.2,M,-34.4,M,,*5E
$GPRMC,215217.500,A,4308.3018,N,07726.2671,W,0.10,313.21,280821,,,A*7A
$GPGGA,215217.750,4308.3018,N,07726.2671,W,1,03,4.11,184.2,M,-34.4,M,,*5B
$GPRMC,215218.000,A,4308.3018,N,07726.2671,W,0.14,304.89,280821,,,A*70
$GPGGA,215218.250,4308.3018,N,07726.2672,W,1,03,4.11,184.2,M,-34.4,M,,*52
$GPRMC,215218.500,A,4308.3018,N,07726.2672,W,0.02,302.81,280821,,,A*7F
$GPGGA,215218.750,4308.3018,N,07726.2672,W,1,03,4.11,184.2,M,-34.4,M,,*57
$GPRMC,215219.000,A,4308.3018,N,07726.2672,W,0.05,101.33,280821,,,A*74
$GPGGA,215219.250,4308.3018,N,07726.2672,W,1,03,4.11,184.2,M,-34.4,M,,*53
$GPRMC,215219.500,A,4308.3018,N,07726.2671,W,0.14,8.32,280821,,,A*7B
$GPGGA,215219.750,4308.3018,N,07726.2671,W,1,03,59.56,184.2,M,-34.4,M,,*6E
$GPRMC,215220.000,A,4308.3018,N,07726.2671,W,0.20,346.88,280821,,,A*7B
$GPGGA,215220.085,4308.3018,N,07726.2671,W,1,03,59.55,184.2,M,-.4,M,,*68
$GPRMC,215220.500,A,4308.3018,N,07726.2672,W,0.19,336.95,280821,,,A*7C
$GPGGA,215220.750,4308.3018,N,07726.2672,W,1,03,4.10,184.2,M,-34.4,M,,*5D
$GPRMC,215221.000,A,4308.3017,N,07726.2672,W,0.14,342.27,280821,,,A*70
$GPGGA,215221.250,4308.3016,N,07726.2673,W,1,03,4.10,184.2,M,-34.4,M,,*56
$GPRMC,215221.500,A,4308.3017,N,07726.2673,W,0.24,302.56,280821,,,A*75
$GPGGA,215221.750,4308.3017,N,07726.2674,W,1,03,4.10,184.2,M,-34.4,M,,*55
$GPRMC,215222.000,A,4308.3017,N,07726.2674,W,0.22,318.73,280821,,,A*7E
$GPGGA,215222.250,4308.3017,N,07726.2674,W,1,03,4.10,184.2,M,-34.4,M,,*53
$GPRMC,215222.500,A,4308.3018,N,07726.2674,W,0.21,346.70,280821,,,A*7F
$GPGGA,215222.750,4308.3018,N,07726.2674,W,1,03,59.45,184.2,M,-34.4,M,,*61
$GPRMC,215223.000,A,4308.3018,N,07726.2674,W,0.24,340.64,280821,,,A*7D
$GPGGA,215223.250,4308.3019,N,07726.2674,W,1,03,4.09,184.2,M,-34.4,M,,*54
$GPRMC,215223.500,A,4308.3019,N,07726.2674,W,0.24,5.58,280821,,,A*74
$GPGGA,215223.750,4308.3019,N,07726.2674,W,1,03,59.41,184.2,M,-34.4,M,,*65
$GPRMC,215224.000,A,4308.3019,N,07726.2674,W,0.23,11.77,280821,,,A*49
$GPGGA,215224.250,4308.3020,N,07726.2674,W,1,03,59.39,184.2,M,-34.4,M,,*62
$GPRMC,215224.500,A,4308.3020,N,07726.2674,W,0.26,19.34,280821,,,A*4C
$GPGGA,215224.750,4308.3020,N,07726.2673,W,1,03,4.09,184.1,M,-34.4,M,,*58
$GPRMC,215225.000,A,4308.3021,N,07726.2673,W,0.29,20.99,280821,,,A*4C
$GPGGA,215225.250,4308.3022,N,07726.2673,W,1,03,4.09,184.1,M,-34.4,M,,*5E
$GPRMC,215225.500,A,4308.3023,N,07726.2674,W,0.31,14.02,280821,,,A*40
$GPGGA,215225.750,4308.3023,N,07726.2674,W,1,03,59.34,184.1,M,-34.4,M,,*6B
$GPRMC,215226.000,A,4308.3023,N,07726.2673,W,0.32,14.73,280821,,,A*44
$GPGGA,215226.085,4308.3023,N,07726.2673,W,1,03,59.32,184.1,M,-4.4,M,,*66
$GPRMC,215226.500,A,4308.3024,N,07726.2673,W,0.30,7.35,280821,,,A*74
$GPGGA,215226.750,4308.3024,N,07726.2673,W,1,03,59.30,184.1,M,-34.4,M,,*6C
$GPRMC,215227.000,A,4308.3025,N,07726.2673,W,0.30,13.01,280821,,,A*43
$GPGGA,215227.250,4308.3025,N,07726.2673,W,1,03,59.28,184.1,M,-34.4,M,,*60
$GPRMC,215227.500,A,4308.3025,N,07726.2673,W,0.30,19.94,280821,,,A*40
$GPGGA,215227.750,4308.3026,N,07726.2673,W,1,03,4.08,184.1,M,-34.4,M,,*5C
$GPRMC,215228.000,A,4308.3026,N,07726.2673,W,0.30,11.09,280821,,,A*45
$GPGGA,215228.250,4308.3027,N,07726.2673,W,1,03,59.24,184.1,M,-34.4,M,,*61
$GPRMC,215228.500,A,4308.3027,N,07726.2673,W,0.28,13.95,280821,,,A*4F
$GPGGA,215228.750,4308.3027,N,07726.2673,W,1,03,59.22,184.1,M,-34.4,M,,*62
$GPRMC,215229.000,A,4308.3027,N,07726.2673,W,0.32,34.49,280821,,,A*44
$GPGGA,215229.250,4308.3027,N,07726.2672,W,1,03,4.08,184.1,M,-34.4,M,,*57
$GPRMC,215229.500,A,4308.3026,N,07726.2672,W,0.34,50.36,280821,,,A*4D
$GPGGA,215229.750,4308.3027,N,07726.2672,W,1,03,4.07,184.1,M,-34.4,M,,*5D
$GPRMC,215230.000,A,4308.3027,N,07726.2673,W,0.24,29.90,280821,,,A*43
$GPGGA,215230.250,4308.3027,N,07726.2673,W,1,03,4.07,184.1,M,-34.4,M,,*51
$GPRMC,215230.500,A,4308.3027,N,07726.2673,W,0.24,1.53,280821,,,A*73
$GPGGA,215230.750,4308.3027,N,07726.2673,W,1,03,59.15,184.1,M,-34.4,M,,*6F
$GPRMC,215231.000,A,4308.3028,N,07726.2673,W,0.30,352.33,280821,,,A*7E
$GPGGA,215231.250,4308.3028,N,07726.2673,W,1,03,59.13,184.1,M,-34.4,M,,*62
$GPRMC,215231.500,A,4308.3028,N,07726.2673,W,0.27,357.99,280821,,,A*78
$GPGGA,215231.750,4308.3028,N,07726.2673,W,1,03,59.11,184.1,M,-34.4,M,,*65
$GPRMC,215232.000,A,4308.3028,N,07726.2673,W,0.24,340.23,280821,,,A*7A
$GPGGA,215232.085,4308.3028,N,07726.2673,W,1,03,4.07,184.1,M,-3,A,4308.3028,N,07726.2673,W,0.19,336.63,280821,,,A*7C
$GPGGA,215232.500,4308.3027,N,07726.2673,W,1,03,4.07,184.1,M,-34.4,M,,*51
$GPRMC,215232.500,A,4308.3027,N,07726.2673,W,0.09,0.64,280821,,,A*7B
$GPGGA,215232.750,4308.3026,N,07726.2672,W,1,03,59.07,184.1,M,-34.4,M,,*6E
$GPRMC,215232.750,A,4308.3026,N,07726.2672,W,0.06,34.54,280821,,A*47
$GPGGA,215233.000,4308.3025,N,07726.2672,W,1,03,4.07,184.1,M,-34.4,M,,*56
$GPRMC,215233.000,A,4308.3025,N,07726.2672,W,0.04,85.80,280821,$GPGGA,215233.250,4308.3024,N,07726.2672,W,1,03,4.07,184.1,M,-34.4,M,,*50
$GPRMC,215233.500,A,4308.3024,N,07726.2672,W,0.11,132.89,280821,,,A*72
$GPGGA,215233.750,4308.3024,N,07726.2672,W,1,03,4.07,184.1,M,-34.4,M,,*55
$GPRMC,215234.000,A,4308.3024,N,07726.2672,W,0.04,329.44,280821,,,A*7D
$GPGGA,215234.250,4308.3024,N,07726.2672,W,1,03,4.07,184.1,M,-34.4,M,,*57
$GPRMC,215234.500,A,4308.3024,N,07726.2672,W,0.06,21.28,280821,,,A*4B
$GPGGA,215234.750,4308.3024,N,07726.2672,W,1,03,4.06,184.1,M,-34.4,M,,*53
$GPRMC,215235.000,A,4308.3024,N,07726.2672,W,0.06,27.68,280821,,,A*4D
$GPGGA,215235.250,4308.3024,N,07726.2671,W,1,03,4.06,184.1,M,-34.4,M,,*54
$GPRMC,215235.500,A,4308.3024,N,07726.2672,W,0.05,27.09,280821,,,A*4C
$GPGGA,215235.750,4308.3024,N,07726.2672,W,1,03,4.06,184.0,M,-34.4,M,,*53
$GPRMC,215236.000,A,4308.3024,N,07726.2672,W,0.09,8.87,280821,,,A*7D
$GPGGA,215236.250,4308.3024,N,07726.2672,W,1,03,58.94,184.0,M,-34.4,M,,*67
$GPRMC,215236.500,A,4308.3024,N,07726.2672,W,0.14,17.80,280821,,,A*4D
$GPGGA,215236.750,4308.3024,N,07726.2672,W,1,03,4.06,184.0,M,-34.4,M,,*50
$GPRMC,215237.000,A,4308.3024,N,07726.2671,W,0.17,42.86,280821,,,A*4F
$GPGGA,215237.250,4308.3023,N,07726.2671,W,1,03,4.06,184.0,M,-34.4,M,,*50
$GPRMC,215237.500,A,4308.3023,N,07726.2672,W,0.15,26.04,280821,,,A*44
$GPGGA,215237.750,4308.3023,N,07726.2671,W,1,03,4.06,184.0,M,-34.4,M,,*55
$GPRMC,215238.000,A,4308.3024,N,07726.2671,W,0.19,13.13,280821,,,A*46
$GPGGA,215238.085,4308.3024,N,07726.2671,W,1,03,58.88,184.0,M,-4.4,M,,*6D
$GPRMC,215238.500,A,4308.3024,N,07726.2671,W,0.24,17.40,280821,,,A*4F
$GPGGA,215238.750,4308.3024,N,07726.2671,W,1,03,4.05,184.0,M,-34.4,M,,*5E
$GPRMC,215239.000,A,4308.3024,N,07726.2671,W,0.24,9.48,280821,,,A*7C
$GPGGA,215239.250,4308.3024,N,07726.2671,W,1,03,58.83,184.0,M,-34.4,M,,*6D
$GPRMC,215239.500,A,4308.3023,N,07726.2671,W,0.20,13.22,280821,,,A*4D
$GPGGA,215239.750,4308.3021,N,07726.2671,W,1,03,58.81,184.0,M,-34.4,M,,*6F
$GPRMC,215240.000,A,4308.3021,N,07726.2671,W,0.08,357.76,280821,,,A*7C
$GPGGA,215240.250,4308.3021,N,07726.2671,W,1,03,58.79,184.0,M,-34.4,M,,*63
$GPRMC,215240.500,A,4308.3021,N,07726.2671,W,0.04,191.42,280821,,,A*7A
$GPGGA,215240.750,4308.3021,N,07726.2672,W,1,03,4.05,184.0,M,-34.4,M,,*57
$GPRMC,215241.000,A,4308.3021,N,07726.2672,W,0.11,258.54,280821,,,A*78
$GPGGA,215241.250,4308.3021,N,07726.2673,W,1,03,4.05,184.0,M,-34.4,M,,*52
$GPRMC,215241.500,A,4308.3019,N,07726.2673,W,0.12,231.52,280821,,,A*7D
$GPGGA,215241.750,4308.3019,N,07726.2673,W,1,03,4.04,184.0,M,-34.4,M,,*5D
$GPRMC,215242.000,A,4308.3019,N,07726.2673,W,0.14,189.93,280821,,,A*70
$GPGGA,215242.250,4308.3019,N,07726.2673,W,1,03,4.04,184.0,M,-34.4,M,,*5B
$GPRMC,215242.500,A,4308.3019,N,07726.2673,W,0.22,153.53,280821,,,A*7B
$GPGGA,215242.750,4308.3019,N,07726.2673,W,1,03,4.04,184.0,M,-34.4,M,,*5E
$GPRMC,215243.000,A,4308.3019,N,07726.2673,W,0.20,156.19,280821,,,A*76
$GPGGA,215243.250,4308.3019,N,07726.2673,W,1,03,4.04,184.0,M,-34.4,M,,*5A
$GPRMC,215243.500,A,4308.3018,N,07726.2673,W,0.20,160.44,280821,,,A*7F
$GPGGA,215243.750,4308.3018,N,07726.2672,W,1,03,4.04,184.0,M,-34.4,M,,*5F
$GPRMC,215244.000,A,4308.3018,N,07726.2672,W,0.21,165.44,280821,,,A*78
$GPGGA,215244.085,4308.3018,N,07726.2672,W,1,03,4.04,184.0,M,-34,M,,*57
$GPRMC,215244.500,A,4308.3018,N,07726.2672,W,0.23,160.88,280821,,,A*7A
$GPGGA,215244.750,4308.3018,N,07726.2672,W,1,03,4.04,184.0,M,-34.4,M,,*58
$GPRMC,215245.000,A,4308.3017,N,07726.2672,W,0.28,175.27,280821,,,A*7B
$GPGGA,215245.250,4308.3017,N,07726.2672,W,1,03,4.04,184.0,M,-34.4,M,,*53
$GPRMC,215245.500,A,4308.3017,N,07726.2672,W,0.33,212.92,280821,,,A*78
$GPGGA,215245.750,4308.3017,N,07726.2672,W,1,03,4.04,184.0,M,-34.4,M,,*56
$GPRMC,215246.000,A,4308.3017,N,07726.2673,W,0.32,211.78,280821,,,A*79
$GPGGA,215246.250,4308.3017,N,07726.2673,W,1,03,4.03,184.0,M,-34.4,M,,*56
$GPRMC,215246.500,A,4308.3016,N,07726.2673,W,0.25,209.25,280821,,,A*7A
$GPGGA,215246.750,4308.3016,N,07726.2673,W,1,03,4.03,184.0,M,-34.4,M,,*52
$GPRMC,215247.000,A,4308.3016,N,07726.2673,W,0.24,212.78,280821,,,A*7D
$GPGGA,215247.250,4308.3016,N,07726.2673,W,1,03,4.03,184.0,M,-34.4,M,,*56
$GPRMC,215247.500,A,4308.3016,N,07726.2673,W,0.23,227.30,280821,,,A*75
$GPGGA,215247.750,4308.3016,N,07726.2674,W,1,03,4.03,184.0,M,-34.4,M,,*54
$GPRMC,215248.000,A,4308.3016,N,07726.2674,W,0.17,235.18,280821,,,A*76
$GPGGA,215248.250,4308.3016,N,07726.2674,W,1,03,4.03,184.0,M,-34.4,M,,*5E
$GPRMC,215248.500,A,4308.3016,N,07726.2674,W,0.06,230.61,280821,,,A*78
$GPGGA,215248.750,4308.3016,N,07726.2674,W,1,03,4.03,184.0,M,-34.4,M,,*5B
$GPRMC,215249.000,A,4308.3015,N,07726.2674,W,0.10,155.74,280821,,,A*7C
$GPGGA,215249.250,4308.3015,N,07726.2674,W,1,03,4.03,184.0,M,-34.4,M,,*5C
$GPRMC,215249.500,A,4308.3015,N,07726.2674,W,0.16,177.97,280821,,,A*72
$GPGGA,215249.750,4308.3015,N,07726.2674,W,1,03,4.02,184.0,M,-34.4,M,,*58
$GPRMC,215250.000,A,4308.3015,N,07726.2674,W,0.24,156.48,280821,,,A*7F
$GPGGA,215250.085,4308.3015,N,07726.2674,W,1,03,4.02,184.0,M,-34,M,,*5F
$GPRMC,215250.500,A,4308.3015,N,07726.2674,W,0.28,159.22,280821,,,A*75
$GPGGA,215250.750,4308.3014,N,07726.2674,W,1,03,4.02,184.0,M,-34.4,M,,*51
$GPRMC,215251.000,A,4308.3014,N,07726.2674,W,0.30,181.59,280821,,,A*70
$GPGGA,215251.250,4308.3014,N,07726.2674,W,1,03,4.02,184.0,M,-34.4,M,,*55
$GPRMC,215251.500,A,4308.3014,N,07726.2674,W,0.34,197.31,280821,,,A*78
$GPGGA,215251.750,4308.3014,N,07726.2674,W,1,03,4.02,184.0,M,-34.4,M,,*50
$GPRMC,215252.000,A,4308.3013,N,07726.2674,W,0.28,194.66,280821,,,A*75
$GPGGA,215252.250,4308.3013,N,07726.2674,W,1,03,4.02,184.0,M,-34.4,M,,*51
$GPRMC,215252.500,A,4308.3013,N,07726.2674,W,0.23,196.93,280821,,,A*73
$GPGGA,215252.750,4308.3013,N,07726.2674,W,1,03,4.01,184.0,M,-34.4,M,,*57
$GPRMC,215253.000,A,4308.3013,N,07726.2674,W,0.25,208.06,280821,,,A*79
$GPGGA,215253.250,4308.3013,N,07726.2674,W,1,03,4.01,184.0,M,-34.4,M,,*53
$GPRMC,215253.500,A,4308.3012,N,07726.2674,W,0.27,211.83,280821,,,A*7A
$GPGGA,215253.750,4308.3012,N,07726.2675,W,1,03,4.01,184.0,M,-34.4,M,,*56
$GPRMC,215254.000,A,4308.3012,N,07726.2675,W,0.18,214.44,280821,,,A*7B
$GPGGA,215254.250,4308.3012,N,07726.2675,W,1,03,4.01,184.0,M,-34.4,M,,*54
$GPRMC,215254.500,A,4308.3012,N,07726.2675,W,0.10,221.03,280821,,,A*73
$GPGGA,215254.750,4308.3012,N,07726.2675,W,1,03,4.01,184.0,M,-34.4,M,,*51
$GPRMC,215255.000,A,4308.3012,N,07726.2675,W,0.16,260.38,280821,,,A*7C
$GPGGA,215255.250,4308.3012,N,07726.2675,W,1,03,4.01,184.0,M,-34.4,M,,*55
$GPRMC,215255.500,A,4308.3012,N,07726.2675,W,0.09,248.13,280821,,,A*74
$GPGGA,215255.750,4308.3012,N,07726.2675,W,1,03,4.01,184.0,M,-34.4,M,,*50
$GPRMC,215256.000,A,4308.3012,N,07726.2675,W,0.04,248.68,280821,,,A*73
$GPGGA,215256.083,4308.3012,N,07726.2675,W,1,03,4.01,184.0,M,-34,M,,*5A
$GPRMC,215256.500,A,4308.3012,N,07726.2676,W,0.08,249.40,280821,,,A*72
$GPGGA,215256.750,4308.3012,N,07726.2676,W,1,03,4.01,184.0,M,-34.4,M,,*50
$GPRMC,215257.000,A,4308.3012,N,07726.2676,W,0.07,154.87,280821,,,A*7D
$GPGGA,215257.250,4308.3012,N,07726.2676,W,1,03,4.01,184.0,M,-34.4,M,,*54
$GPRMC,215257.500,A,4308.3012,N,07726.2676,W,0.19,83.96,280821,,,A*4C
$GPGGA,215257.750,4308.3012,N,07726.2675,W,1,03,4.00,184.0,M,-34.4,M,,*53
$GPRMC,215258.000,A,4308.3012,N,07726.2675,W,0.20,93.37,280821,,,A*45
$GPGGA,215258.250,4308.3012,N,07726.2675,W,1,03,4.00,184.0,M,-34.4,M,,*59
$GPRMC,215258.500,A,4308.3012,N,07726.2675,W,0.25,98.12,280821,,,A*49
$GPGGA,215258.750,4308.3012,N,07726.2675,W,1,03,4.00,184.0,M,-34.4,M,,*5C
$GPRMC,215259.000,A,4308.3012,N,07726.2674,W,0.21,103.24,280821,,,A*7E
$GPGGA,215259.250,4308.3011,N,07726.2674,W,1,03,4.00,184.0,M,-34.4,M,,*5A
$GPRMC,215259.500,A,4308.3011,N,07726.2674,W,0.24,122.00,280821,,,A*78
$GPGGA,215259.750,4308.3011,N,07726.2674,W,1,03,4.00,184.0,M,-34.4,M,,*5F
$GPRMC,215300.000,A,4308.3011,N,07726.2674,W,0.23,139.68,280821,,,A*73
$GPGGA,215300.250,4308.3011,N,07726.2674,W,1,03,4.00,184.0,M,-34.4,M,,*57
$GPRMC,215300.500,A,4308.3011,N,07726.2674,W,0.18,203.26,280821,,,A*7E
$GPGGA,215300.750,4308.3011,N,07726.2674,W,1,03,4.00,184.0,M,-34.4,M,,*52
$GPRMC,215301.000,A,4308.3011,N,07726.2674,W,0.14,203.43,280821,,,A*75
$GPGGA,215301.250,4308.3011,N,07726.2674,W,1,03,3.99,184.0,M,-34.4,M,,*51
$GPRMC,215301.500,A,4308.3011,N,07726.2674,W,0.13,143.42,280821,,,A*71
$GPGGA,215301.750,4308.3010,N,07726.2674,W,1,03,3.99,184.0,M,-34.4,M,,*55
$GPRMC,215302.000,A,4308.3010,N,07726.2674,W,0.09,140.17,280821,,,A*7E
$GPGGA,215302.085,4308.3010,N,07726.2674,W,1,03,3.99,184.0,M,-3.4,M,,*59
$GPRMC,215302.500,A,4308.3010,N,07726.2674,W,0.06,194.97,280821,,,A*75
$GPGGA,215302.750,4308.3010,N,07726.2674,W,1,03,3.99,184.0,M,-34.4,M,,*56
$GPRMC,215303.000,A,4308.3010,N,07726.2674,W,0.14,173.75,280821,,,A*77
$GPGGA,215303.250,4308.3010,N,07726.2674,W,1,03,3.99,184.0,M,-34.4,M,,*52
$GPRMC,215303.500,A,4308.3010,N,07726.2674,W,0.20,156.30,280821,,,A*73
$GPGGA,215303.750,4308.3010,N,07726.2673,W,1,03,3.99,184.0,M,-34.4,M,,*50
$GPRMC,215304.000,A,4308.3010,N,07726.2673,W,0.18,143.84,280821,,,A*76
$GPGGA,215304.250,4308.3010,N,07726.2673,W,1,03,3.99,184.0,M,-34.4,M,,*52
$GPRMC,215304.500,A,4308.3010,N,07726.2673,W,0.01,105.50,280821,,,A*70
$GPGGA,215304.750,4308.3010,N,07726.2673,W,1,03,3.98,184.0,M,-34.4,M,,*56
$GPRMC,215305.000,A,4308.3010,N,07726.2673,W,0.05,126.90,280821,,,A*7D
$GPGGA,215305.250,4308.3010,N,07726.2673,W,1,03,3.98,184.0,M,-34.4,M,,*52
$GPRMC,215305.500,A,4308.3009,N,07726.2673,W,0.18,160.42,280821,,,A*71
$GPGGA,215305.750,4308.3009,N,07726.2673,W,1,03,3.98,184.0,M,-34.4,M,,*5F
$GPRMC,215306.000,A,4308.3009,N,07726.2673,W,0.18,188.90,280821,,,A*7E
$GPGGA,215306.250,4308.3009,N,07726.2673,W,1,03,3.98,184.0,M,-34.4,M,,*59
$GPRMC,215306.500,A,4308.3009,N,07726.2673,W,0.14,241.93,280821,,,A*72
$GPGGA,215306.750,4308.3009,N,07726.2673,W,1,03,3.98,184.0,M,-34.4,M,,*5C
$GPRMC,215307.000,A,4308.3009,N,07726.2673,W,0.15,198.70,280821,,,A*7D
$GPGGA,215307.250,4308.3009,N,07726.2673,W,1,03,3.98,184.0,M,-34.4,M,,*58
$GPRMC,215307.500,A,4308.3009,N,07726.2673,W,0.19,168.77,280821,,,A*7C
$GPGGA,215307.750,4308.3009,N,07726.2673,W,1,03,3.98,184.0,M,-34.4,M,,*5D
$GPRMC,215308.000,A,4308.3008,N,07726.2673,W,0.24,158.54,280821,,,A*7B
$GPGGA,215308.083,4308.3008,N,07726.2673,W,1,03,3.98,184.0,M,-3.4,M,,*5A
$GPGGA,215308.500,4308.3008,N,07726.2673,W,1,03,3.98,184.0,M,-34.4,M,,*54
$GPRMC,215308.500,A,4308.3008,N,07726.2673,W,0.25,177.31,280821,,A*71
$GPGGA,215308.750,4308.3008,N,07726.2673,W,1,03,3.98,184.0,M,-34.4,M,,*53
$GPRMC,215308.750,A,4308.3008,N,07726.2673,W,0.27,177.66,280821,,A*76
$GPGGA,215309.000,4308.3008,N,07726.2673,W,1,03,3.97,184.0,M,-34.4,M,,*5F
$GPRMC,215309.000,A,4308.3008,N,07726.2673,W,0.28,178.56,280821,,A*76
$GPGGA,215309.250,4308.3008,N,07726.2673,W,1,03,3.97,184.0,M,-34.4,M,,*58
$GPRMC,215309.250,A,4308.3008,N,07726.2673,W,0.27,178.16,280821$GPGGA,215309.500,4308.3007,N,07726.2673,W,1,03,3.97,184.0,M,-34.4,M,,*55
$GPRMC,215309.750,A,4308.3007,N,07726.2673,W,0.21,184.78,280821,,,A*7D
$GPGGA,215310.000,4308.3007,N,07726.2673,W,1,03,3.97,184.0,M,-34.4,M,,*58
$GPRMC,215310.250,A,4308.3007,N,07726.2673,W,0.29,173.08,280821,,,A*77
$GPGGA,215310.500,4308.3007,N,07726.2673,W,1,03,3.97,184.0,M,-34.4,M,,*5D
$GPRMC,215310.750,A,4308.3006,N,07726.2673,W,0.26,171.57,280821,,,A*74
$GPGGA,215311.000,4308.3006,N,07726.2673,W,1,03,3.97,184.0,M,-34.4,M,,*58
$GPRMC,215311.250,A,4308.3006,N,07726.2673,W,0.28,159.73,280821,,,A*72
$GPGGA,215311.500,4308.3006,N,07726.2673,W,1,03,3.97,184.0,M,-34.4,M,,*5D
$GPRMC,215311.750,A,4308.3006,N,07726.2673,W,0.33,150.15,280821,,,A*74
$GPGGA,215312.000,4308.3006,N,07726.2673,W,1,03,3.97,184.0,M,-34.4,M,,*5B
$GPRMC,215312.250,A,4308.3005,N,07726.2673,W,0.27,184.19,280821,,,A*71
$GPGGA,215312.500,4308.3005,N,07726.2673,W,1,03,3.97,184.0,M,-34.4,M,,*5D
$GPRMC,215312.750,A,4308.3005,N,07726.2673,W,0.29,202.36,280821,,,A*7A
$GPGGA,215313.000,4308.3005,N,07726.2673,W,1,03,3.96,184.0,M,-34.4,M,,*58
$GPRMC,215313.250,A,4308.3005,N,07726.2673,W,0.30,200.37,280821,,,A*75
$GPGGA,215313.500,4308.3004,N,07726.2673,W,1,03,3.96,184.0,M,-34.4,M,,*5C
$GPRMC,215313.750,A,4308.3004,N,07726.2673,W,0.27,210.85,280821,,,A*7F
$GPGGA,215314.000,4308.3004,N,07726.2674,W,1,03,3.96,184.0,M,-34.4,M,,*59
$GPGGA,215314.500,4308.3004,N,07726.2674,W,1,03,3.96,184.0,M,-34.4,M,,*5C
$GPRMC,215314.500,A,4308.3004,N,07726.2674,W,0.09,185.34,280821$GPGGA,215314.750,4308.3004,N,07726.2674,W,1,03,3.96,184.0,M,-34.4,M,,*5B
$GPRMC,215315.000,A,4308.3004,N,07726.2674,W,0.07,224.38,280821,,,A*7F
$GPGGA,215315.250,4308.3004,N,07726.2674,W,1,03,3.96,184.0,M,-34.4,M,,*5F
$GPRMC,215315.500,A,4308.3004,N,07726.2674,W,0.15,255.05,280821,,,A*71
$GPGGA,215315.750,4308.3004,N,07726.2674,W,1,03,3.96,184.0,M,-34.4,M,,*5A
$GPRMC,215316.000,A,4308.3004,N,07726.2674,W,0.12,258.26,280821,,,A*7C
$GPGGA,215316.250,4308.3004,N,07726.2674,W,1,03,3.96,184.0,M,-34.4,M,,*5C
$GPRMC,215316.500,A,4308.3004,N,07726.2674,W,0.08,239.84,280821,,,A*7D
$GPGGA,215316.750,4308.3004,N,07726.2674,W,1,03,3.96,184.0,M,-34.4,M,,*59
$GPRMC,215317.000,A,4308.3004,N,07726.2674,W,0.06,261.31,280821,,,A*74
$GPGGA,215317.250,4308.3004,N,07726.2674,W,1,03,3.95,184.0,M,-34.4,M,,*5E
$GPRMC,215317.500,A,4308.3004,N,07726.2675,W,0.12,331.89,280821,,,A*72
$GPGGA,215317.750,4308.3004,N,07726.2675,W,1,03,3.95,184.0,M,-34.4,M,,*5A
$GPRMC,215318.000,A,4308.3004,N,07726.2675,W,0.14,343.85,280821,,,A*77
$GPGGA,215318.250,4308.3004,N,07726.2675,W,1,03,3.95,184.0,M,-34.4,M,,*50
$GPRMC,215318.500,A,4308.3004,N,07726.2675,W,0.14,18.29,280821,,,A*49
$GPGGA,215318.750,4308.3004,N,07726.2675,W,1,03,3.95,184.0,M,-34.4,M,,*55
$GPRMC,215319.000,A,4308.3003,N,07726.2674,W,0.12,46.70,280821,,,A*4A
$GPGGA,215319.250,4308.3003,N,07726.2674,W,1,03,3.95,184.0,M,-34.4,M,,*57
$GPRMC,215319.500,A,4308.3003,N,07726.2675,W,0.08,18.30,280821,,,A*4A
$GPGGA,215319.750,4308.3003,N,07726.2675,W,1,03,3.95,184.0,M,-34.4,M,,*53
$GPRMC,215320.000,A,4308.3003,N,07726.2675,W,0.06,17.80,280821,,,A*4F
$GPGGA,215320.085,4308.3003,N,07726.2675,W,1,03,3.95,184.0,M,-3.4,M,,*56
$GPRMC,215320.500,A,4308.3003,N,07726.2675,W,0.17,334.62,280821,,,A*74
$GPGGA,215320.750,4308.3003,N,07726.2675,W,1,03,3.94,184.0,M,-34.4,M,,*58
$GPRMC,215321.000,A,4308.3004,N,07726.2674,W,0.18,344.56,280821,,,A*79
$GPGGA,215321.250,4308.3003,N,07726.2675,W,1,03,3.95,184.0,M,-34.4,M,,*5D
$GPRMC,215321.500,A,4308.3004,N,07726.2675,W,0.18,331.87,280821,,,A*73
$GPGGA,215321.750,4308.3003,N,07726.2675,W,1,03,3.94,184.0,M,-34.4,M,,*59
$GPRMC,215322.000,A,4308.3004,N,07726.2675,W,0.19,331.88,280821,,,A*7B
$GPGGA,215322.250,4308.3004,N,07726.2675,W,1,03,3.94,184.0,M,-34.4,M,,*58
$GPRMC,215322.500,A,4308.3004,N,07726.2675,W,0.25,345.60,280821,,,A*74
$GPGGA,215322.750,4308.3004,N,07726.2675,W,1,03,57.25,184.0,M,-34.4,M,,*66
$GPRMC,215323.000,A,4308.3004,N,07726.2675,W,0.27,347.97,280821,,,A*78
$GPGGA,215323.250,4308.3004,N,07726.2675,W,1,03,57.23,184.0,M,-34.4,M,,*64
$GPRMC,215323.500,A,4308.3005,N,07726.2675,W,0.24,351.77,280821,,,A*76
$GPGGA,215323.750,4308.3005,N,07726.2675,W,1,03,57.22,184.0,M,-34.4,M,,*61
$GPRMC,215324.000,A,4308.3006,N,07726.2675,W,0.24,348.96,280821,,,A*70
$GPGGA,215324.250,4308.3007,N,07726.2675,W,1,03,57.20,184.0,M,-34.4,M,,*63
$GPRMC,215324.500,A,4308.3007,N,07726.2675,W,0.28,1.44,280821,,,A*79
$GPGGA,215324.750,4308.3007,N,07726.2675,W,1,03,57.18,184.0,M,-34.4,M,,*6D
$GPRMC,215325.000,A,4308.3008,N,07726.2675,W,0.28,1.52,280821,,,A*75
$GPGGA,215325.250,4308.3008,N,07726.2675,W,1,03,57.16,184.0,M,-34.4,M,,*68
$GPRMC,215325.500,A,4308.3008,N,07726.2675,W,0.30,0.01,280821,,,A*7E
$GPGGA,215325.750,4308.3008,N,07726.2675,W,1,03,57.14,184.0,M,-34.4,M,,*6F
$GPRMC,215326.000,A,4308.3008,N,07726.2675,W,0.29,351.48,280821,,,A*7A
$GPGGA,215326.085,4308.3008,N,07726.2675,W,1,04,3.12,183.9,M,-34,M,,*5D
$GPRMC,215326.500,A,4308.3005,N,07726.2674,W,0.28,326.72,280821,,,A*7B
$GPGGA,215326.750,4308.3001,N,07726.2674,W,1,04,3.09,183.0,M,-34.4,M,,*59
$GPRMC,215327.000,A,4308.2998,N,07726.2673,W,0.32,323.58,280821,,,A*72
$GPGGA,215327.250,4308.2992,N,07726.2671,W,1,04,3.09,182.3,M,-34.4,M,,*58
$GPRMC,215327.500,A,4308.2992,N,07726.2671,W,0.10,358.97,280821,,,A*70
$GPGGA,215327.750,4308.2992,N,07726.2671,W,1,04,3.11,182.3,M,-34.4,M,,*54
$GPRMC,215328.000,A,4308.2992,N,07726.2671,W,0.10,92.15,280821,,,A*45
$GPGGA,215328.250,4308.2992,N,07726.2671,W,1,04,3.09,182.3,M,-34.4,M,,*57
$GPRMC,215328.500,A,4308.2992,N,07726.2671,W,0.17,117.37,280821,,,A*7B
$GPGGA,215328.750,4308.2992,N,07726.2670,W,1,04,3.09,182.2,M,-34.4,M,,*52
$GPRMC,215329.000,A,4308.2992,N,07726.2670,W,0.24,138.01,280821,,,A*76
$GPGGA,215329.250,4308.2991,N,07726.2670,W,1,04,3.09,182.2,M,-34.4,M,,*55
$GPRMC,215329.500,A,4308.2991,N,07726.2670,W,0.34,142.15,280821,,,A*79
$GPGGA,215329.750,4308.2991,N,07726.2670,W,1,04,3.09,182.2,M,-34.4,M,,*50
$GPRMC,215330.000,A,4308.2991,N,07726.2669,W,0.32,151.61,280821,,,A*7B
$GPGGA,215330.250,4308.2990,N,07726.2669,W,1,04,3.08,182.2,M,-34.4,M,,*55
$GPRMC,215330.500,A,4308.2990,N,07726.2669,W,0.31,157.72,280821,,,A*78
$GPGGA,215330.750,4308.2990,N,07726.2669,W,1,04,3.09,182.2,M,-34.4,M,,*51
$GPRMC,215331.000,A,4308.2990,N,07726.2669,W,0.38,157.51,280821,,,A*74
$GPGGA,215331.250,4308.2989,N,07726.2669,W,1,04,3.09,182.2,M,-34.4,M,,*5D
$GPRMC,215331.500,A,4308.2989,N,07726.2669,W,0.53,156.21,280821,,,A*72
$GPGGA,215331.750,4308.2988,N,07726.2668,W,1,04,3.08,182.1,M,-34.4,M,,*5A
$GPRMC,215332.000,A,4308.2988,N,07726.2668,W,0.53,160.09,280821,,,A*7B
$GPGGA,215332.250,4308.2988,N,07726.2668,W,1,04,3.08,182.1,M,-34.4,M,,*5C
$GPRMC,215332.500,A,4308.2987,N,07726.2668,W,0.59,155.87,280821,,,A*7B
$GPGGA,215332.750,4308.2984,N,07726.2667,W,1,04,3.09,181.8,M,-34.4,M,,*51
$GPRMC,215333.000,A,4308.2981,N,07726.2666,W,0.60,154.01,280821,,,A*72
$GPGGA,215333.250,4308.2979,N,07726.2665,W,1,04,3.08,181.2,M,-34.4,M,,*5E
$GPRMC,215333.500,A,4308.2978,N,07726.2665,W,0.53,150.52,280821,,,A*70
$GPGGA,215333.750,4308.2977,N,07726.2665,W,1,04,3.08,180.8,M,-34.4,M,,*5E
$GPRMC,215334.000,A,4308.2974,N,07726.2665,W,0.55,156.81,280821,,,A*70
$GPGGA,215334.250,4308.2972,N,07726.2665,W,1,04,3.08,180.6,M,-34.4,M,,*57
$GPRMC,215334.500,A,4308.2970,N,07726.2665,W,0.60,166.85,280821,,,A*70
$GPGGA,215334.750,4308.2968,N,07726.2664,W,1,04,3.08,180.2,M,-34.4,M,,*5C
$GPRMC,215335.000,A,4308.2967,N,07726.2664,W,0.55,170.07,280821,,,A*78
$GPGGA,215335.250,4308.2966,N,07726.2664,W,1,04,3.08,179.8,M,-34.4,M,,*5A
$GPRMC,215335.500,A,4308.2965,N,07726.2663,W,0.52,165.92,280821,,,A*77
$GPGGA,215335.750,4308.2964,N,07726.2663,W,1,04,3.08,179.5,M,-34.4,M,,*57
$GPRMC,215336.000,A,4308.2963,N,07726.2663,W,0.54,166.90,280821,,,A*70
$GPGGA,215336.250,4308.2962,N,07726.2663,W,1,04,3.08,179.2,M,-34.4,M,,*50
$GPRMC,215336.500,A,4308.2960,N,07726.2663,W,0.59,178.22,280821,,,A*7D
$GPGGA,215336.750,4308.2959,N,07726.2663,W,1,04,3.08,179.0,M,-34.4,M,,*5F
$GPRMC,215337.000,A,4308.2958,N,07726.2663,W,0.63,173.72,280821,,,A*75
$GPGGA,215337.250,4308.2957,N,07726.2662,W,1,04,3.08,178.7,M,-34.4,M,,*52
$GPRMC,215337.500,A,4308.2956,N,07726.2662,W,0.66,164.91,280821,,,A*71
$GPGGA,215337.750,4308.2956,N,07726.2662,W,1,04,3.08,178.5,M,-34.4,M,,*54
$GPRMC,215338.000,A,4308.2956,N,07726.2662,W,0.55,169.99,280821,,,A*7E
$GPGGA,215338.250,4308.2956,N,07726.2663,W,1,04,3.08,178.2,M,-34.4,M,,*58
$GPRMC,215338.500,A,4308.2957,N,07726.2663,W,0.39,188.24,280821,,,A*78
$GPGGA,215338.750,4308.2957,N,07726.2663,W,1,04,3.08,177.8,M,-34.4,M,,*59
$GPRMC,215339.000,A,4308.2956,N,07726.2663,W,0.34,189.17,280821,,,A*71
$GPGGA,215339.250,4308.2955,N,07726.2663,W,1,04,3.08,177.6,M,-34.4,M,,*51
$GPRMC,215339.500,A,4308.2954,N,07726.2663,W,0.44,184.11,280821,,,A*7A
$GPGGA,215339.750,4308.2953,N,07726.2663,W,1,04,3.08,177.3,M,-34.4,M,,*57
$GPRMC,215340.000,A,4308.2953,N,07726.2663,W,0.41,179.68,280821,,,A*7F
$GPGGA,215340.250,4308.2953,N,07726.2663,W,1,04,3.08,177.1,M,-34.4,M,,*5E
$GPRMC,215340.500,A,4308.2954,N,07726.2664,W,0.31,195.44,280821,,,A*71
$GPGGA,215340.750,4308.2953,N,07726.2664,W,1,04,3.08,176.8,M,-34.4,M,,*54
$GPRMC,215341.000,A,4308.2953,N,07726.2664,W,0.29,191.18,280821,,,A*76
$GPGGA,215341.250,4308.2953,N,07726.2663,W,1,04,3.08,176.6,M,-34.4,M,,*59
$GPRMC,215341.500,A,4308.2953,N,07726.2663,W,0.36,157.15,280821,,,A*7D
$GPGGA,215341.750,4308.2952,N,07726.2663,W,1,04,3.08,176.6,M,-34.4,M,,*5D
$GPRMC,215342.000,A,4308.2952,N,07726.2663,W,0.40,170.67,280821,,,A*7B
$GPGGA,215342.250,4308.2952,N,07726.2663,W,1,04,3.08,176.6,M,-34.4,M,,*5B
$GPRMC,215342.500,A,4308.2952,N,07726.2663,W,0.34,178.52,280821,,,A*73
$GPGGA,215342.750,4308.2951,N,07726.2663,W,1,04,3.08,176.6,M,-34.4,M,,*5D
$GPRMC,215343.000,A,4308.2951,N,07726.2663,W,0.25,156.80,280821,,,A*77
$GPGGA,215343.250,4308.2951,N,07726.2663,W,1,04,3.08,176.6,M,-34.4,M,,*59
$GPRMC,215343.500,A,4308.2951,N,07726.2663,W,0.38,156.11,280821,,,A*76
$GPGGA,215343.750,4308.2951,N,07726.2663,W,1,04,3.08,176.6,M,-34.4,M,,*5C
$GPRMC,215344.000,A,4308.2950,N,07726.2663,W,0.42,167.01,280821,,,A*7B
$GPGGA,215344.250,4308.2950,N,07726.2662,W,1,04,3.08,176.6,M,-34.4,M,,*5E
$GPRMC,215344.500,A,4308.2950,N,07726.2662,W,0.47,180.23,280821,,,A*73
$GPGGA,215344.750,4308.2949,N,07726.2662,W,1,04,3.08,176.6,M,-34.4,M,,*53
$GPRMC,215345.000,A,4308.2949,N,07726.2662,W,0.49,188.39,280821,,,A*72
$GPGGA,215345.250,4308.2949,N,07726.2663,W,1,04,3.08,176.6,M,-34.4,M,,*56
$GPRMC,215345.500,A,4308.2948,N,07726.2663,W,0.39,182.69,280821,,,A*7F
$GPGGA,215345.750,4308.2948,N,07726.2663,W,1,04,3.08,176.6,M,-34.4,M,,*52
$GPRMC,215346.000,A,4308.2948,N,07726.2663,W,0.29,183.57,280821,,,A*74
$GPGGA,215346.250,4308.2948,N,07726.2663,W,1,04,3.08,176.6,M,-34.4,M,,*54
$GPRMC,215346.500,A,4308.2948,N,07726.2663,W,0.29,172.17,280821,,,A*7B
$GPGGA,215346.750,4308.2947,N,07726.2663,W,1,04,3.08,176.6,M,-34.4,M,,*5E
$GPRMC,215347.000,A,4308.2947,N,07726.2663,W,0.32,158.44,280821,,,A*74
$GPGGA,215347.250,4308.2947,N,07726.2662,W,1,04,3.08,176.6,M,-34.4,M,,*5B
$GPRMC,215347.500,A,4308.2947,N,07726.2662,W,0.28,156.64,280821,,,A*77
$GPGGA,215347.750,4308.2947,N,07726.2662,W,1,04,3.08,176.6,M,-34.4,M,,*5E
$GPRMC,215348.000,A,4308.2946,N,07726.2662,W,0.28,165.98,280821,,,A*7F
$GPGGA,215348.250,4308.2946,N,07726.2662,W,1,04,3.08,176.6,M,-34.4,M,,*55
$GPRMC,215348.500,A,4308.2946,N,07726.2662,W,0.22,167.37,280821,,,A*77
$GPGGA,215348.750,4308.2946,N,07726.2662,W,1,04,3.08,176.5,M,-34.4,M,,*53
$GPRMC,215349.000,A,4308.2946,N,07726.2662,W,0.26,180.16,280821,,,A*7D
$GPGGA,215349.250,4308.2945,N,07726.2662,W,1,04,3.07,176.5,M,-34.4,M,,*5B
$GPRMC,215349.500,A,4308.2945,N,07726.2662,W,0.23,181.89,280821,,,A*79
$GPGGA,215349.750,4308.2945,N,07726.2662,W,1,04,3.08,176.5,M,-34.4,M,,*51
$GPRMC,215350.000,A,4308.2945,N,07726.2662,W,0.23,193.65,280821,,,A*75
$GPGGA,215350.250,4308.2945,N,07726.2662,W,1,04,3.08,176.5,M,-34.4,M,,*5C
$GPRMC,215350.500,A,4308.2945,N,07726.2662,W,0.23,162.41,280821,,,A*78
$GPGGA,215350.750,4308.2944,N,07726.2662,W,1,04,3.07,176.5,M,-34.4,M,,*57
$GPRMC,215351.000,A,4308.2944,N,07726.2662,W,0.26,158.00,280821,,,A*74
$GPGGA,215351.250,4308.2944,N,07726.2662,W,1,04,3.07,176.5,M,-34.4,M,,*53
$GPRMC,215351.500,A,4308.2944,N,07726.2662,W,0.27,160.35,280821,,,A*7D
$GPGGA,215351.750,4308.2944,N,07726.2662,W,1,04,3.07,176.5,M,-34.4,M,,*56
$GPRMC,215352.000,A,4308.2944,N,07726.2661,W,0.23,176.89,280821,,,A*7C
$GPGGA,215352.250,4308.2943,N,07726.2661,W,1,04,3.07,176.5,M,-34.4,M,,*54
$GPRMC,215352.500,A,4308.2943,N,07726.2661,W,0.18,179.15,280821,,,A*7C
$GPGGA,215352.750,4308.2943,N,07726.2661,W,1,04,3.07,176.5,M,-34.4,M,,*51
$GPRMC,215353.000,A,4308.2943,N,07726.2661,W,0.23,134.38,280821,,,A*76
$GPGGA,215353.250,4308.2943,N,07726.2661,W,1,04,3.07,176.5,M,-34.4,M,,*55
$GPRMC,215353.500,A,4308.2943,N,07726.2661,W,0.26,96.84,280821,,,A*48
$GPGGA,215353.750,4308.2943,N,07726.2661,W,1,04,3.07,176.5,M,-34.4,M,,*50
$GPRMC,215354.000,A,4308.2943,N,07726.2661,W,0.19,93.47,280821,,,A*4C
$GPGGA,215354.250,4308.2943,N,07726.2660,W,1,04,3.07,176.5,M,-34.4,M,,*53
$GPRMC,215354.500,A,4308.2943,N,07726.2660,W,0.08,104.80,280821,,,A*7C
$GPGGA,215354.750,4308.2943,N,07726.2660,W,1,04,3.07,176.5,M,-34.4,M,,*56
$GPRMC,215355.000,A,4308.2943,N,07726.2660,W,0.11,89.85,280821,,,A*41
$GPGGA,215355.250,4308.2943,N,07726.2660,W,1,04,3.07,176.5,M,-34.4,M,,*52
$GPRMC,215355.500,A,4308.2943,N,07726.2660,W,0.05,74.25,280821,,,A*49
$GPGGA,215355.750,4308.2943,N,07726.2660,W,1,04,3.07,176.5,M,-34.4,M,,*57
$GPRMC,215356.000,A,4308.2943,N,07726.2660,W,0.06,176.58,280821,,,A*75
$GPGGA,215356.250,4308.2943,N,07726.2660,W,1,04,3.07,176.4,M,-34.4,M,,*50
$GPRMC,215356.500,A,4308.2943,N,07726.2660,W,0.11,226.65,280821,,,A*7E
$GPGGA,215356.750,4308.2943,N,07726.2660,W,1,04,3.07,176.4,M,-34.4,M,,*55
$GPRMC,215357.000,A,4308.2942,N,07726.2660,W,0.10,212.50,280821,,,A*7B
$GPGGA,215357.250,4308.2942,N,07726.2660,W,1,04,3.07,176.4,M,-34.4,M,,*50
$GPRMC,215357.500,A,4308.2942,N,07726.2660,W,0.04,194.39,280821,,,A*79
$GPGGA,215357.750,4308.2942,N,07726.2660,W,1,04,3.07,176.4,M,-34.4,M,,*55
$GPRMC,215358.000,A,4308.2942,N,07726.2660,W,0.01,295.08,280821,,,A*76
$GPGGA,215358.250,4308.2942,N,07726.2660,W,1,04,3.07,176.4,M,-34.4,M,,*5F
$GPRMC,215358.500,A,4308.2942,N,07726.2660,W,0.09,298.38,280821,,,A*75
$GPGGA,215358.750,4308.2942,N,07726.2660,W,1,04,3.07,176.4,M,-34.4,M,,*5A
$GPRMC,215359.000,A,4308.2942,N,07726.2660,W,0.08,235.76,280821,,,A*7D
$GPGGA,215359.250,4308.2942,N,07726.2660,W,1,04,3.07,176.4,M,-34.4,M,,*5E
$GPRMC,215359.500,A,4308.2942,N,07726.2660,W,0.11,160.41,280821,,,A*77
$GPGGA,215359.750,4308.2942,N,07726.2660,W,1,04,3.07,176.4,M,-34.4,M,,*5B
$GPRMC,215400.000,A,4308.2942,N,07726.2660,W,0.07,194.79,280821,,,A*7E
$GPGGA,215400.250,4308.2942,N,07726.2660,W,1,04,3.07,176.4,M,-34.4,M,,*55
$GPRMC,215400.500,A,4308.2942,N,07726.2660,W,0.14,222.84,280821,,,A*75
$GPGGA,215400.750,4308.2942,N,07726.2660,W,1,04,3.07,176.4,M,-34.4,M,,*50
$GPRMC,215401.000,A,4308.2942,N,07726.2661,W,0.12,253.48,280821,,,A*70
$GPGGA,215401.250,4308.2942,N,07726.2661,W,1,04,3.07,176.4,M,-34.4,M,,*55
$GPRMC,215401.500,A,4308.2942,N,07726.2661,W,0.05,57.61,280821,,,A*4E
$GPGGA,215401.750,4308.2942,N,07726.2661,W,1,04,3.07,176.4,M,-34.4,M,,*50
$GPRMC,215402.000,A,4308.2942,N,07726.2661,W,0.11,36.45,280821,,,A*4C
$GPGGA,215402.250,4308.2942,N,07726.2660,W,1,04,3.07,176.4,M,-34.4,M,,*57
$GPRMC,215402.500,A,4308.2942,N,07726.2660,W,0.10,24.21,280821,,,A*48
$GPGGA,215402.750,4308.2942,N,07726.2660,W,1,04,3.07,176.4,M,-34.4,M,,*52
$GPRMC,215403.000,A,4308.2942,N,07726.2660,W,0.07,302.61,280821,,,A*79
$GPGGA,215403.250,4308.2942,N,07726.2660,W,1,04,3.07,176.4,M,-34.4,M,,*56
$GPRMC,215403.500,A,4308.2942,N,07726.2660,W,0.03,90.76,280821,,,A*46
$GPGGA,215403.750,4308.2942,N,07726.2660,W,1,04,3.07,176.4,M,-34.4,M,,*53
$GPRMC,215404.000,A,4308.2942,N,07726.2660,W,0.01,324.61,280821,,,A*7C
$GPGGA,215404.250,4308.2942,N,07726.2660,W,1,04,3.07,176.4,M,-34.4,M,,*51
$GPRMC,215404.500,A,4308.2942,N,07726.2660,W,0.08,278.78,280821,,,A*70
$GPGGA,215404.750,4308.2942,N,07726.2661,W,1,04,3.07,176.4,M,-34.4,M,,*55
$GPRMC,215405.000,A,4308.2942,N,07726.2661,W,0.19,267.88,280821,,,A*74
$GPGGA,215405.250,4308.2942,N,07726.2661,W,1,04,3.07,176.4,M,-34.4,M,,*51
$GPRMC,215405.500,A,4308.2942,N,07726.2661,W,0.17,279.21,280821,,,A*73
$GPGGA,215405.750,4308.2942,N,07726.2661,W,1,04,3.07,176.4,M,-34.4,M,,*54
$GPRMC,215406.000,A,4308.2942,N,07726.2661,W,0.18,282.17,280821,,,A*7B
$GPGGA,215406.250,4308.2942,N,07726.2662,W,1,04,3.07,176.4,M,-34.4,M,,*51
$GPRMC,215406.500,A,4308.2942,N,07726.2662,W,0.12,240.04,280821,,,A*7B
$GPGGA,215406.750,4308.2942,N,07726.2662,W,1,04,3.06,176.4,M,-34.4,M,,*55
$GPRMC,215407.000,A,4308.2942,N,07726.2662,W,0.14,255.44,280821,,,A*79
$GPGGA,215407.250,4308.2942,N,07726.2662,W,1,04,3.06,176.4,M,-34.4,M,,*51
$GPRMC,215407.500,A,4308.2942,N,07726.2662,W,0.13,273.43,280821,,,A*78
$GPGGA,215407.750,4308.2942,N,07726.2662,W,1,04,3.06,176.4,M,-34.4,M,,*54
$GPRMC,215408.000,A,4308.2942,N,07726.2662,W,0.11,289.15,280821,,,A*76
$GPGGA,215408.250,4308.2943,N,07726.2663,W,1,04,3.07,176.4,M,-34.4,M,,*5F
$GPRMC,215408.500,A,4308.2943,N,07726.2663,W,0.05,346.59,280821,,,A*7C
$GPGGA,215408.750,4308.2943,N,07726.2663,W,1,04,3.09,176.4,M,-34.4,M,,*54
$GPRMC,215409.000,A,4308.2943,N,07726.2663,W,0.07,330.65,280821,,,A*74
$GPGGA,215409.250,4308.2943,N,07726.2663,W,1,04,3.06,176.3,M,-34.4,M,,*58
$GPRMC,215409.500,A,4308.2943,N,07726.2663,W,0.06,293.03,280821,,,A*78
$GPGGA,215409.750,4308.2943,N,07726.2663,W,1,04,3.06,176.3,M,-34.4,M,,*5D
$GPRMC,215410.000,A,4308.2943,N,07726.2663,W,0.16,332.47,280821,,,A*7E
$GPGGA,215410.250,4308.2943,N,07726.2663,W,1,04,3.06,176.3,M,-34.4,M,,*50
$GPRMC,215410.500,A,4308.2943,N,07726.2663,W,0.25,346.22,280821,,,A*7B
$GPGGA,215410.750,4308.2943,N,07726.2663,W,1,04,3.09,176.3,M,-34.4,M,,*5A
$GPRMC,215411.000,A,4308.2944,N,07726.2663,W,0.29,340.09,280821,,,A*7B
$GPGGA,215411.250,4308.2944,N,07726.2663,W,1,04,3.06,176.3,M,-34.4,M,,*56
$GPRMC,215411.500,A,4308.2944,N,07726.2663,W,0.19,323.07,280821,,,A*76
$GPGGA,215411.750,4308.2944,N,07726.2663,W,1,04,3.06,176.3,M,-34.4,M,,*53
$GPRMC,215412.000,A,4308.2944,N,07726.2664,W,0.24,323.48,280821,,,A*72
$GPGGA,215412.250,4308.2944,N,07726.2664,W,1,04,3.06,176.3,M,-34.4,M,,*52
$GPRMC,215412.500,A,4308.2945,N,07726.2664,W,0.29,321.67,280821,,,A*74
$GPGGA,215412.750,4308.2945,N,07726.2664,W,1,04,3.06,176.3,M,-34.4,M,,*56
$GPRMC,215413.000,A,4308.2945,N,07726.2664,W,0.25,343.52,280821,,,A*7E
$GPGGA,215413.250,4308.2945,N,07726.2664,W,1,04,3.06,176.3,M,-34.4,M,,*52
$GPRMC,215413.500,A,4308.2945,N,07726.2664,W,0.22,310.65,280821,,,A*7E
$GPGGA,215413.750,4308.2945,N,07726.2665,W,1,04,3.06,176.3,M,-34.4,M,,*56
$GPRMC,215414.000,A,4308.2945,N,07726.2665,W,0.24,301.65,280821,,,A*7B
$GPGGA,215414.250,4308.2945,N,07726.2665,W,1,04,3.06,176.3,M,-34.4,M,,*54
$GPRMC,215414.500,A,4308.2946,N,07726.2665,W,0.29,310.56,280821,,,A*70
$GPGGA,215414.750,4308.2946,N,07726.2665,W,1,04,3.06,176.3,M,-34.4,M,,*52
$GPRMC,215415.000,A,4308.2946,N,07726.2666,W,0.21,314.45,280821,,,A*79
$GPGGA,215415.250,4308.2946,N,07726.2666,W,1,04,3.06,176.3,M,-34.4,M,,*55
$GPRMC,215415.500,A,4308.2946,N,07726.2666,W,0.10,1.13,280821,,,A*7A
$GPGGA,215415.750,4308.2946,N,07726.2666,W,1,04,3.09,176.3,M,-34.4,M,,*5F
$GPRMC,215416.000,A,4308.2946,N,07726.2666,W,0.12,40.97,280821,,,A*47
$GPGGA,215416.250,4308.2946,N,07726.2666,W,1,04,3.06,176.3,M,-34.4,M,,*56
$GPRMC,215416.500,A,4308.2946,N,07726.2666,W,0.19,349.07,280821,,,A*7A
$GPGGA,215416.750,4308.2947,N,07726.2666,W,1,04,3.09,176.3,M,-34.4,M,,*5D
$GPRMC,215417.000,A,4308.2947,N,07726.2666,W,0.18,345.26,280821,,,A*71
$GPGGA,215417.250,4308.2947,N,07726.2666,W,1,04,3.09,176.3,M,-34.4,M,,*59
$GPRMC,215417.500,A,4308.2947,N,07726.2666,W,0.07,16.41,280821,,,A*4E
$GPGGA,215417.750,4308.2947,N,07726.2666,W,1,04,3.06,176.3,M,-34.4,M,,*53
$GPRMC,215418.000,A,4308.2947,N,07726.2666,W,0.08,26.99,280821,,,A*4D
$GPGGA,215418.250,4308.2947,N,07726.2666,W,1,04,3.06,176.3,M,-34.4,M,,*59
$GPRMC,215418.500,A,4308.2947,N,07726.2666,W,0.06,338.54,280821,,,A*7B
$GPGGA,215418.750,4308.2947,N,07726.2666,W,1,04,3.06,176.3,M,-34.4,M,,*5C
$GPRMC,215419.000,A,4308.2947,N,07726.2666,W,0.13,297.19,280821,,,A*76
$GPGGA,215419.250,4308.2947,N,07726.2666,W,1,04,3.06,176.3,M,-34.4,M,,*58
$GPRMC,215419.500,A,4308.2947,N,07726.2666,W,0.17,308.73,280821,,,A*7C
$GPGGA,215419.750,4308.2947,N,07726.2666,W,1,04,3.06,176.3,M,-34.4,M,,*5D
$GPRMC,215420.000,A,4308.2947,N,07726.2666,W,0.14,298.94,280821,,,A*71
$GPGGA,215420.250,4308.2947,N,07726.2666,W,1,04,3.06,176.3,M,-34.4,M,,*52
$GPRMC,215420.500,A,4308.2948,N,07726.2666,W,0.21,319.73,280821,,,A*7C
$GPGGA,215420.750,4308.2948,N,07726.2667,W,1,04,3.06,176.3,M,-34.4,M,,*59
$GPRMC,215421.000,A,4308.2948,N,07726.2667,W,0.25,348.86,280821,,,A*73
$GPGGA,215421.250,4308.2948,N,07726.2667,W,1,04,3.09,176.3,M,-34.4,M,,*52
$GPRMC,215421.500,A,4308.2948,N,07726.2667,W,0.14,6.63,280821,,,A*76
$GPGGA,215421.750,4308.2948,N,07726.2667,W,1,04,3.09,176.3,M,-34.4,M,,*57
$GPRMC,215422.000,A,4308.2948,N,07726.2667,W,0.06,61.81,280821,,,A*4E
$GPGGA,215422.250,4308.2948,N,07726.2667,W,1,04,3.05,176.3,M,-34.4,M,,*5D
$GPRMC,215422.500,A,4308.2948,N,07726.2667,W,0.05,91.17,280821,,,A*48
$GPGGA,215422.750,4308.2948,N,07726.2666,W,1,04,3.05,176.3,M,-34.4,M,,*59
$GPRMC,215423.000,A,4308.2948,N,07726.2666,W,0.07,357.46,280821,,,A*72
$GPGGA,215423.250,4308.2948,N,07726.2666,W,1,04,3.09,176.3,M,-34.4,M,,*51
$GPRMC,215423.500,A,4308.2948,N,07726.2666,W,0.11,2.69,280821,,,A*7E
$GPGGA,215423.750,4308.2949,N,07726.2666,W,1,04,3.09,176.3,M,-34.4,M,,*55
$GPRMC,215424.000,A,4308.2949,N,07726.2666,W,0.07,12.10,280821,,,A*45
$GPGGA,215424.250,4308.2949,N,07726.2666,W,1,04,3.09,176.3,M,-34.4,M,,*57
$GPRMC,215424.500,A,4308.2949,N,07726.2666,W,0.01,291.46,280821,,,A*7C
$GPGGA,215424.750,4308.2949,N,07726.2666,W,1,04,3.05,176.3,M,-34.4,M,,*5E
$GPRMC,215425.000,A,4308.2949,N,07726.2666,W,0.03,275.22,280821,,,A*72
$GPGGA,215425.250,4308.2949,N,07726.2666,W,1,04,3.05,176.3,M,-34.4,M,,*5A
$GPRMC,215425.500,A,4308.2949,N,07726.2666,W,0.07,239.06,280821,,,A*7D
$GPGGA,215425.750,4308.2949,N,07726.2666,W,1,04,3.05,176.2,M,-34.4,M,,*5E
$GPRMC,215426.000,A,4308.2948,N,07726.2667,W,0.19,254.96,280821,,,A*76
$GPGGA,215426.250,4308.2948,N,07726.2667,W,1,04,3.05,176.2,M,-34.4,M,,*58
$GPRMC,215426.500,A,4308.2948,N,07726.2667,W,0.15,258.89,280821,,,A*7D
$GPGGA,215426.750,4308.2948,N,07726.2667,W,1,04,3.05,176.2,M,-34.4,M,,*5D
$GPRMC,215427.000,A,4308.2948,N,07726.2667,W,0.05,323.38,280821,,,A*7F
$GPGGA,215427.250,4308.2948,N,07726.2667,W,1,04,3.05,176.2,M,-34.4,M,,*59
$GPRMC,215427.500,A,4308.2948,N,07726.2667,W,0.07,81.46,280821,,,A*4A
$GPGGA,215427.750,4308.2948,N,07726.2667,W,1,04,3.05,176.2,M,-34.4,M,,*5C
$GPRMC,215428.000,A,4308.2948,N,07726.2667,W,0.09,146.38,280821,,,A*7D
$GPGGA,215428.250,4308.2948,N,07726.2667,W,1,04,3.05,176.2,M,-34.4,M,,*56
$GPRMC,215428.500,A,4308.2948,N,07726.2667,W,0.15,149.12,280821,,,A*72
