Vers 81
USE_SERIAL_FEEDBACK=true
DEVELOPMENT_MODE=false
USE_RMC_ONLY=false

$GPRMC,161539.000,A,4308.4835,N,07726.4373,W,0.90,341.64,150921,,,A*74
$GPGGA,161539.250,4308.4834,N,07726.4373,W,1,04,2.70,180.3,M,-34.4,M,,*56
$GPRMC,161539.500,A,4308.4835,N,07726.4372,W,0.44,346.11,150921,,,A*7C
$GPGGA,161539.750,4308.4837,N,07726.4373,W,1,04,4.45,181.0,M,-34.4,M,,*52
$GPRMC,161540.000,A,4308.4840,N,07726.4374,W,0.58,354.31,150921,,,A*7F
$GPGGA,161540.250,4308.4843,N,07726.4374,W,1,04,4.44,182.1,M,-34.4,M,,*5E
$GPRMC,161540.500,A,4308.4845,N,07726.4375,W,0.58,1.09,150921,,,A*76
$GPGGA,161540.750,4308.4846,N,07726.4376,W,1,04,4.45,183.1,M,-34.4,M,,*5C
$GPRMC,161541.000,A,4308.4847,N,07726.4377,W,0.53,354.92,150921,,,A*78
$GPGGA,161541.250,4308.4848,N,07726.4378,W,1,04,4.44,184.0,M,-34.4,M,,*5F
$GPRMC,161541.500,A,4308.4850,N,07726.4380,W,0.47,340.36,150921,,,A*7D
$GPGGA,161541.750,4308.4850,N,07726.4381,W,1,04,2.70,184.3,M,-34.4,M,,*57
$GPRMC,161542.000,A,4308.4850,N,07726.4382,W,0.45,314.65,150921,,,A*7C
$GPGGA,161542.250,4308.4851,N,07726.4384,W,1,04,2.70,184.3,M,-34.4,M,,*55
$GPRMC,161542.500,A,4308.4851,N,07726.4385,W,0.58,306.26,150921,,,A*77
$GPGGA,161542.750,4308.4852,N,07726.4387,W,1,04,2.70,184.2,M,-34.4,M,,*51
$GPRMC,161543.000,A,4308.4851,N,07726.4389,W,0.72,292.42,150921,,,A*79
$GPGGA,161543.250,4308.4852,N,07726.4390,W,1,04,2.70,184.2,M,-34.4,M,,*53
$GPRMC,161543.500,A,4308.4853,N,07726.4392,W,0.86,289.35,150921,,,A*75
$GPGGA,161543.750,4308.4854,N,07726.4394,W,1,04,2.70,184.2,M,-34.4,M,,*54
$GPRMC,161544.000,A,4308.4855,N,07726.4397,W,1.14,289.59,150921,,,A*74
$GPGGA,161544.250,4308.4855,N,07726.4398,W,1,04,2.70,184.1,M,-34.4,M,,*58
$GPRMC,161544.500,A,4308.4855,N,07726.4400,W,1.30,287.15,150921,,,A*78
$GPGGA,161544.750,4308.4855,N,07726.4403,W,1,04,2.70,183.9,M,-34.4,M,,*57
$GPRMC,161545.000,A,4308.4854,N,07726.4407,W,1.70,283.54,150921,,,A*7F
$GPGGA,161545.250,4308.4854,N,07726.4410,W,1,04,2.70,183.7,M,-34.4,M,,*5E
$GPRMC,161545.500,A,4308.4855,N,07726.4413,W,2.04,283.27,150921,,,A*7A
$GPGGA,161545.750,4308.4855,N,07726.4418,W,1,04,2.70,183.5,M,-34.4,M,,*50
$GPRMC,161546.000,A,4308.4855,N,07726.4423,W,3.12,282.71,150921,,,A*7B
$GPGGA,161546.250,4308.4855,N,07726.4428,W,1,04,2.70,183.4,M,-34.4,M,,*54
$GPRMC,161546.500,A,4308.4856,N,07726.4435,W,5.22,279.70,150921,,,A*7A
$GPGGA,161546.750,4308.4856,N,07726.4442,W,1,04,4.43,183.3,M,-34.4,M,,*5F
$GPRMC,161547.000,A,4308.4857,N,07726.4450,W,7.05,278.00,150921,,,A*7D
$GPGGA,161547.250,4308.4858,N,07726.4458,W,1,04,4.42,183.3,M,-34.4,M,,*5F
$GPRMC,161547.500,A,4308.4859,N,07726.4468,W,9.06,279.20,150921,,,A*73
$GPGGA,161547.750,4308.4860,N,07726.4479,W,1,04,4.43,183.2,M,-34.4,M,,*52
$GPRMC,161548.000,A,4308.4862,N,07726.4488,W,10.07,281.16,150921,,,A*44
$GPGGA,161548.250,4308.4864,N,07726.4498,W,1,04,2.69,183.1,M,-34.4,M,,*5E
$GPRMC,161548.500,A,4308.4865,N,07726.4509,W,10.71,282.22,150921,,,A*4B
$GPGGA,161548.750,4308.4867,N,07726.4519,W,1,04,2.69,183.0,M,-34.4,M,,*51
$GPRMC,161549.000,A,4308.4867,N,07726.4530,W,11.30,281.92,150921,,,A*4B
$GPGGA,161549.250,4308.4867,N,07726.4541,W,1,04,2.69,182.9,M,-34.4,M,,*50
$GPRMC,161549.500,A,4308.4867,N,07726.4553,W,11.71,279.86,150921,,,A*4C
$GPGGA,161549.750,4308.4867,N,07726.4566,W,1,04,2.70,182.6,M,-34.4,M,,*57
$GPRMC,161550.000,A,4308.4867,N,07726.4579,W,12.81,278.95,150921,,,A*46
$GPGGA,161550.250,4308.4866,N,07726.4592,W,1,04,2.69,182.2,M,-34.4,M,,*5C
$GPRMC,161550.500,A,4308.4864,N,07726.4606,W,13.74,276.24,150921,,,A*44
$GPGGA,161550.750,4308.4861,N,07726.4621,W,1,04,4.41,182.0,M,-34.4,M,,*5B
$GPRMC,161551.000,A,4308.4857,N,07726.4636,W,14.91,270.86,150921,,,A*41
$GPGGA,161551.250,4308.4856,N,07726.4651,W,1,04,2.69,181.8,M,-34.4,M,,*5B
$GPRMC,161551.500,A,4308.4854,N,07726.4668,W,15.85,269.57,150921,,,A*4C
$GPGGA,161551.750,4308.4853,N,07726.4684,W,1,04,4.41,181.6,M,-34.4,M,,*51
$GPRMC,161552.000,A,4308.4851,N,07726.4702,W,17.11,269.72,150921,,,A*4A
$GPGGA,161552.250,4308.4849,N,07726.4719,W,1,04,2.69,181.1,M,-34.4,M,,*52
$GPRMC,161552.500,A,4308.4847,N,07726.4736,W,17.77,269.79,150921,,,A*44
$GPGGA,161552.750,4308.4845,N,07726.4753,W,1,04,4.41,180.5,M,-34.4,M,,*5C
$GPRMC,161553.000,A,4308.4844,N,07726.4770,W,18.41,270.83,150921,,,A*46
$GPGGA,161553.250,4308.4843,N,07726.4788,W,1,04,4.41,180.1,M,-34.4,M,,*5C
$GPRMC,161553.500,A,4308.4843,N,07726.4806,W,19.08,271.99,150921,,,A*4C
$GPGGA,161553.750,4308.4843,N,07726.4824,W,1,04,4.41,179.6,M,-34.4,M,,*51
$GPRMC,161554.000,A,4308.4842,N,07726.4842,W,19.75,272.80,150921,,,A*4E
$GPGGA,161554.250,4308.4842,N,07726.4861,W,1,04,2.69,179.1,M,-34.4,M,,*58
$GPRMC,161554.500,A,4308.4842,N,07726.4880,W,20.34,273.41,150921,,,A*46
$GPGGA,161554.750,4308.4842,N,07726.4899,W,1,04,4.40,178.6,M,-34.4,M,,*51
$GPRMC,161555.000,A,4308.4842,N,07726.4918,W,20.72,273.43,150921,,,A*42
$GPGGA,161555.250,4308.4842,N,07726.4938,W,1,04,2.69,178.3,M,-34.4,M,,*57
$GPRMC,161555.500,A,4308.4842,N,07726.4957,W,21.07,273.79,150921,,,A*46
$GPGGA,161555.750,4308.4843,N,07726.4977,W,1,04,4.40,178.0,M,-34.4,M,,*56
$GPRMC,161556.000,A,4308.4843,N,07726.4997,W,21.43,274.33,150921,,,A*44
$GPGGA,161556.250,4308.4840,N,07726.5016,W,1,05,1.86,177.2,M,-34.4,M,,*5F
$GPRMC,161556.500,A,4308.4836,N,07726.5035,W,21.81,274.83,150921,,,A*46
$GPGGA,161556.750,4308.4834,N,07726.5055,W,1,05,1.87,175.7,M,-34.4,M,,*58
$GPRMC,161557.000,A,4308.4833,N,07726.5076,W,22.57,275.60,150921,,,A*44
$GPGGA,161557.250,4308.4831,N,07726.5097,W,1,05,1.86,174.6,M,-34.4,M,,*56
$GPRMC,161557.500,A,4308.4830,N,07726.5119,W,23.25,276.22,150921,,,A*4B
$GPGGA,161557.750,4308.4830,N,07726.5140,W,1,05,1.87,173.6,M,-34.4,M,,*5F
$GPRMC,161558.000,A,4308.4829,N,07726.5162,W,23.85,277.37,150921,,,A*4A
$GPGGA,161558.250,4308.4827,N,07726.5184,W,1,05,1.86,172.6,M,-34.4,M,,*5B
$GPRMC,161558.500,A,4308.4824,N,07726.5205,W,24.10,276.89,150921,,,A*4F
$GPGGA,161558.750,4308.4822,N,07726.5228,W,1,05,1.87,171.3,M,-34.4,M,,*59
$GPRMC,161559.000,A,4308.4821,N,07726.5251,W,24.43,276.02,150921,,,A*4A
$GPGGA,161559.250,4308.4820,N,07726.5274,W,1,05,1.87,170.6,M,-34.4,M,,*52
$GPRMC,161559.500,A,4308.4820,N,07726.5298,W,24.92,275.81,150921,,,A*4F
$GPGGA,161559.750,4308.4819,N,07726.5321,W,1,05,1.87,170.1,M,-34.4,M,,*5B
$GPRMC,161600.000,A,4308.4819,N,07726.5346,W,25.63,275.39,150921,,,A*41
$GPGGA,161600.250,4308.4818,N,07726.5370,W,1,05,1.86,169.5,M,-34.4,M,,*59
$GPRMC,161600.500,A,4308.4816,N,07726.5394,W,25.90,273.89,150921,,,A*45
$GPGGA,161600.750,4308.4815,N,07726.5418,W,1,05,1.87,169.1,M,-34.4,M,,*5D
$GPRMC,161601.000,A,4308.4814,N,07726.5443,W,25.95,272.62,150921,,,A*4F
$GPGGA,161601.250,4308.4814,N,07726.5467,W,1,05,1.86,168.7,M,-34.4,M,,*56
$GPRMC,161601.500,A,4308.4814,N,07726.5492,W,26.28,272.83,150921,,,A*4C
$GPGGA,161601.750,4308.4815,N,07726.5516,W,1,05,1.87,168.5,M,-34.4,M,,*56
$GPRMC,161602.000,A,4308.4815,N,07726.5541,W,26.47,273.22,150921,,,A*47
$GPGGA,161602.250,4308.4816,N,07726.5566,W,1,05,1.86,168.2,M,-34.4,M,,*52
$GPRMC,161602.500,A,4308.4817,N,07726.5591,W,26.32,273.11,150921,,,A*4F
$GPGGA,161602.750,4308.4818,N,07726.5615,W,1,05,1.87,168.1,M,-34.4,M,,*5C
$GPRMC,161603.000,A,4308.4818,N,07726.5640,W,26.22,273.38,150921,,,A*41
$GPGGA,161603.250,4308.4819,N,07726.5664,W,1,05,1.86,167.9,M,-34.4,M,,*59
$GPRMC,161603.500,A,4308.4820,N,07726.5689,W,26.14,273.69,150921,,,A*4B
$GPGGA,161603.750,4308.4820,N,07726.5713,W,1,05,1.87,167.7,M,-34.4,M,,*58
$GPRMC,161604.000,A,4308.4820,N,07726.5738,W,26.07,273.38,150921,,,A*44
$GPGGA,161604.250,4308.4820,N,07726.5762,W,1,05,1.86,167.4,M,-34.4,M,,*5E
$GPRMC,161604.500,A,4308.4820,N,07726.5787,W,26.24,273.18,150921,,,A*46
$GPGGA,161604.750,4308.4819,N,07726.5812,W,1,05,1.85,166.9,M,-34.4,M,,*56
$GPRMC,161605.000,A,4308.4818,N,07726.5836,W,26.28,272.88,150921,,,A*48
$GPGGA,161605.250,4308.4817,N,07726.5860,W,1,05,1.85,166.4,M,-34.4,M,,*54
$GPRMC,161605.500,A,4308.4817,N,07726.5885,W,26.48,272.54,150921,,,A*4D
$GPGGA,161605.750,4308.4817,N,07726.5910,W,1,05,1.87,166.0,M,-34.4,M,,*51
$GPRMC,161606.000,A,4308.4816,N,07726.5935,W,26.59,271.89,150921,,,A*43
$GPGGA,161606.250,4308.4815,N,07726.5960,W,1,05,1.85,165.4,M,-34.4,M,,*57
$GPRMC,161606.500,A,4308.4815,N,07726.5984,W,26.66,271.73,150921,,,A*46
$GPGGA,161606.750,4308.4813,N,07726.6009,W,1,05,1.86,164.9,M,-34.4,M,,*5E
$GPRMC,161607.000,A,4308.4811,N,07726.6033,W,26.71,271.28,150921,,,A*48
$GPGGA,161607.250,4308.4810,N,07726.6058,W,1,05,1.85,164.4,M,-34.4,M,,*53
$GPRMC,161607.500,A,4308.4809,N,07726.6083,W,26.57,271.22,150921,,,A*41
$GPGGA,161607.750,4308.4808,N,07726.6108,W,1,05,1.87,163.9,M,-34.4,M,,*53
$GPRMC,161608.000,A,4308.4808,N,07726.6133,W,26.54,271.16,150921,,,A*44
$GPGGA,161606.250,4308.4807,N,07726.6157,W,1,05,1.85,163.6,M,-34.4,M,,*5F
$GPRMC,161606.500,A,4308.4806,N,07726.6183,W,26.58,270.87,150921,,,A*4F
$GPGGA,161606.750,4308.4806,N,07726.6209,W,1,05,1.86,163.3,M,-34.4,M,,*55
$GPRMC,161607.000,A,4308.4806,N,07726.6235,W,27.05,270.74,150921,,,A*40
$GPGGA,161607.250,4308.4806,N,07726.6261,W,1,05,1.85,163.1,M,-34.4,M,,*5E
$GPRMC,161607.500,A,4308.4806,N,07726.6288,W,27.13,270.61,150921,,,A*40
$GPGGA,161607.750,4308.4806,N,07726.6314,W,1,05,1.86,162.9,M,-34.4,M,,*52
$GPRMC,161608.000,A,4308.4805,N,07726.6341,W,27.36,270.46,150921,,,A*4F
$GPGGA,161608.250,4308.4805,N,07726.6368,W,1,05,1.85,162.3,M,-34.4,M,,*59
$GPRMC,161608.500,A,4308.4804,N,07726.6395,W,27.52,269.86,150921,,,A*44
$GPGGA,161608.750,4308.4802,N,07726.6422,W,1,05,1.86,161.9,M,-34.4,M,,*58
$GPRMC,161609.000,A,4308.4801,N,07726.6450,W,28.61,269.02,150921,,,A*48
$GPGGA,161609.250,4308.4799,N,07726.6477,W,1,05,1.85,161.4,M,-34.4,M,,*5F
$GPRMC,161609.500,A,4308.4797,N,07726.6504,W,28.97,268.41,150921,,,A*42
$GPGGA,161609.750,4308.4795,N,07726.6532,W,1,05,1.86,160.9,M,-34.4,M,,*59
$GPRMC,161610.000,A,4308.4794,N,07726.6559,W,29.36,267.95,150921,,,A*48
$GPGGA,161610.250,4308.4792,N,07726.6587,W,1,05,1.86,160.4,M,-34.4,M,,*50
$GPRMC,161610.500,A,4308.4791,N,07726.6615,W,29.52,267.45,150921,,,A*4C
$GPGGA,161610.750,4308.4789,N,07726.6643,W,1,05,1.86,159.9,M,-34.4,M,,*53
$GPRMC,161611.000,A,4308.4787,N,07726.6671,W,29.86,267.29,150921,,,A*4E
$GPGGA,161611.250,4308.4785,N,07726.6699,W,1,05,1.85,159.5,M,-34.4,M,,*53
$GPRMC,161611.500,A,4308.4784,N,07726.6727,W,29.80,266.84,150921,,,A*4A
$GPGGA,161611.750,4308.4782,N,07726.6755,W,1,05,1.86,159.1,M,-34.4,M,,*57
$GPRMC,161612.000,A,4308.4781,N,07726.6783,W,29.84,266.71,150921,,,A*49
$GPGGA,161612.250,4308.4780,N,07726.6811,W,1,05,1.85,158.8,M,-34.4,M,,*57
$GPRMC,161612.500,A,4308.4778,N,07726.6840,W,30.07,266.69,150921,,,A*40
$GPGGA,161612.750,4308.4777,N,07726.6869,W,1,05,1.86,158.6,M,-34.4,M,,*58
$GPRMC,161613.000,A,4308.4774,N,07726.6898,W,30.26,265.24,150921,,,A*44
$GPGGA,161613.250,4308.4772,N,07726.6926,W,1,05,1.85,158.9,M,-34.4,M,,*5F
$GPRMC,161613.500,A,4308.4770,N,07726.6955,W,30.20,265.76,150921,,,A*44
$GPGGA,161613.750,4308.4768,N,07726.6983,W,1,05,1.86,158.9,M,-34.4,M,,*5D
$GPRMC,161614.000,A,4308.4766,N,07726.7012,W,30.18,265.69,150921,,,A*4F
$GPGGA,161614.250,4308.4765,N,07726.7040,W,1,05,1.85,158.8,M,-34.4,M,,*57
$GPRMC,161614.500,A,4308.4763,N,07726.7069,W,30.19,265.37,150921,,,A*49
$GPGGA,161614.750,4308.4761,N,07726.7098,W,1,05,1.85,159.0,M,-34.4,M,,*5A
$GPRMC,161615.000,A,4308.4758,N,07726.7126,W,30.22,265.10,150921,,,A*42
$GPGGA,161615.250,4308.4756,N,07726.7155,W,1,05,1.86,159.1,M,-34.4,M,,*58
$GPRMC,161615.500,A,4308.4754,N,07726.7183,W,30.01,265.34,150921,,,A*43
$GPGGA,161615.750,4308.4752,N,07726.7212,W,1,05,1.86,159.3,M,-34.4,M,,*5B
$GPRMC,161616.000,A,4308.4750,N,07726.7240,W,30.04,265.52,150921,,,A*48
$GPGGA,161616.250,4308.4748,N,07726.7269,W,1,05,1.86,159.4,M,-34.4,M,,*5D
$GPRMC,161616.500,A,4308.4746,N,07726.7297,W,30.05,265.95,150921,,,A*4A
$GPGGA,161616.750,4308.4745,N,07726.7325,W,1,05,1.86,159.6,M,-34.4,M,,*5E
$GPRMC,161617.000,A,4308.4743,N,07726.7354,W,30.07,266.06,150921,,,A*4E
$GPGGA,161617.250,4308.4741,N,07726.7382,W,1,05,1.85,159.9,M,-34.4,M,,*5F
$GPRMC,161617.500,A,4308.4739,N,07726.7411,W,30.03,265.76,150921,,,A*40
$GPGGA,161617.750,4308.4737,N,07726.7439,W,1,05,1.86,160.1,M,-34.4,M,,*5D
$GPRMC,161618.000,A,4308.4735,N,07726.7467,W,29.74,265.60,150921,,,A*48
$GPGGA,161618.250,4308.4733,N,07726.7495,W,1,05,1.85,160.3,M,-34.4,M,,*54
$GPRMC,161618.500,A,4308.4732,N,07726.7523,W,29.65,266.10,150921,,,A*4F
$GPGGA,161618.750,4308.4730,N,07726.7551,W,1,05,1.86,160.5,M,-34.4,M,,*5E
$GPRMC,161619.000,A,4308.4729,N,07726.7579,W,29.45,267.02,150921,,,A*4E
$GPGGA,161619.250,4308.4728,N,07726.7607,W,1,05,1.85,160.8,M,-34.4,M,,*5D
$GPRMC,161619.500,A,4308.4727,N,07726.7634,W,29.34,266.91,150921,,,A*42
$GPGGA,161619.750,4308.4725,N,07726.7661,W,1,05,1.86,161.0,M,-34.4,M,,*5F
$GPRMC,161620.000,A,4308.4724,N,07726.7688,W,28.47,266.60,150921,,,A*42
$GPGGA,161620.250,4308.4722,N,07726.7715,W,1,05,1.85,161.1,M,-34.4,M,,*57
$GPRMC,161620.500,A,4308.4721,N,07726.7741,W,28.22,266.45,150921,,,A*42
$GPGGA,161620.750,4308.4720,N,07726.7767,W,1,05,1.86,161.3,M,-34.4,M,,*54
$GPRMC,161621.000,A,4308.4719,N,07726.7794,W,27.85,266.64,150921,,,A*44
$GPGGA,161621.250,4308.4718,N,07726.7820,W,1,05,1.86,161.5,M,-34.4,M,,*51
$GPRMC,161621.500,A,4308.4716,N,07726.7846,W,27.84,266.17,150921,,,A*4B
$GPGGA,161621.750,4308.4715,N,07726.7873,W,1,05,1.86,161.7,M,-34.4,M,,*5D
$GPRMC,161622.000,A,4308.4713,N,07726.7899,W,27.50,265.91,150921,,,A*4E
$GPGGA,161622.250,4308.4712,N,07726.7925,W,1,05,1.85,161.9,M,-34.4,M,,*53
$GPRMC,161622.500,A,4308.4711,N,07726.7951,W,27.41,265.82,150921,,,A*4E
$GPGGA,161622.750,4308.4709,N,07726.7977,W,1,05,1.86,162.0,M,-34.4,M,,*52
$GPRMC,161623.000,A,4308.4707,N,07726.8003,W,27.56,264.92,150921,,,A*4A
$GPGGA,161623.250,4308.4705,N,07726.8029,W,1,05,1.86,162.1,M,-34.4,M,,*56
$GPRMC,161623.500,A,4308.4702,N,07726.8056,W,27.87,264.38,150921,,,A*46
$GPGGA,161623.750,4308.4700,N,07726.8083,W,1,05,1.86,162.4,M,-34.4,M,,*53
$GPRMC,161624.000,A,4308.4698,N,07726.8110,W,28.30,264.22,150921,,,A*4D
$GPGGA,161624.250,4308.4695,N,07726.8137,W,1,06,1.25,162.6,M,-34.4,M,,*5A
$GPRMC,161624.500,A,4308.4693,N,07726.8165,W,28.97,263.72,150921,,,A*4E
$GPGGA,161624.750,4308.4691,N,07726.8193,W,1,06,1.25,162.8,M,-34.4,M,,*5B
$GPRMC,161625.000,A,4308.4689,N,07726.8221,W,29.42,264.35,150921,,,A*4F
$GPGGA,161625.250,4308.4687,N,07726.8249,W,1,06,1.25,162.9,M,-34.4,M,,*5D
$GPRMC,161625.500,A,4308.4685,N,07726.8278,W,29.63,264.62,150921,,,A*4B
$GPGGA,161625.750,4308.4684,N,07726.8306,W,1,06,1.25,163.1,M,-34.4,M,,*58
$GPRMC,161626.000,A,4308.4682,N,07726.8335,W,29.83,264.72,150921,,,A*4D
$GPGGA,161626.250,4308.4680,N,07726.8364,W,1,06,1.25,163.2,M,-34.4,M,,*5D
$GPRMC,161626.500,A,4308.4679,N,07726.8394,W,30.03,264.70,150921,,,A*45
$GPGGA,161626.750,4308.4678,N,07726.8424,W,1,06,1.25,163.1,M,-34.4,M,,*5F
$GPRMC,161627.000,A,4308.4677,N,07726.8454,W,30.25,265.36,150921,,,A*43
$GPGGA,161627.250,4308.4675,N,07726.8484,W,1,06,1.25,163.1,M,-34.4,M,,*5C
$GPRMC,161627.500,A,4308.4674,N,07726.8514,W,30.46,265.29,150921,,,A*4B
$GPGGA,161627.750,4308.4672,N,07726.8544,W,1,06,1.25,163.2,M,-34.4,M,,*50
$GPRMC,161628.000,A,4308.4670,N,07726.8574,W,30.68,265.07,150921,,,A*43
$GPGGA,161628.250,4308.4668,N,07726.8604,W,1,06,1.25,163.3,M,-34.4,M,,*57
$GPRMC,161628.500,A,4308.4667,N,07726.8635,W,30.93,265.20,150921,,,A*47
$GPGGA,161628.750,4308.4665,N,07726.8665,W,1,06,1.25,163.5,M,-34.4,M,,*5E
$GPRMC,161629.000,A,4308.4663,N,07726.8696,W,31.18,264.91,150921,,,A*47
$GPGGA,161629.250,4308.4661,N,07726.8727,W,1,06,1.25,163.6,M,-34.4,M,,*5A
$GPRMC,161629.500,A,4308.4659,N,07726.8757,W,31.41,264.86,150921,,,A*4D
$GPGGA,161629.750,4308.4657,N,07726.8788,W,1,06,1.25,163.7,M,-34.4,M,,*5E
$GPRMC,161630.000,A,4308.4655,N,07726.8819,W,31.61,264.92,150921,,,A*4E
$GPGGA,161630.250,4308.4654,N,07726.8849,W,1,06,1.25,163.7,M,-34.4,M,,*52
$GPRMC,161630.500,A,4308.4652,N,07726.8879,W,31.77,265.14,150921,,,A*42
$GPGGA,161630.750,4308.4650,N,07726.8910,W,1,06,1.25,163.8,M,-34.4,M,,*51
$GPRMC,161631.000,A,4308.4648,N,07726.8940,W,32.01,264.60,150921,,,A*46
$GPGGA,161631.250,4308.4647,N,07726.8970,W,1,06,1.25,163.9,M,-34.4,M,,*54
$GPRMC,161631.500,A,4308.4645,N,07726.9000,W,32.05,264.17,150921,,,A*46
$GPGGA,161631.750,4308.4643,N,07726.9029,W,1,06,1.25,164.0,M,-34.4,M,,*5F
$GPRMC,161632.000,A,4308.4641,N,07726.9058,W,30.90,264.74,150921,,,A*42
$GPGGA,161632.250,4308.4640,N,07726.9087,W,1,06,1.25,164.1,M,-34.4,M,,*5F
$GPRMC,161632.500,A,4308.4639,N,07726.9116,W,30.60,265.50,150921,,,A*4B
$GPGGA,161632.750,4308.4637,N,07726.9144,W,1,06,1.25,164.2,M,-34.4,M,,*57
$GPRMC,161633.000,A,4308.4636,N,07726.9173,W,30.33,265.19,150921,,,A*48
$GPGGA,161633.250,4308.4634,N,07726.9201,W,1,06,1.25,164.3,M,-34.4,M,,*53
$GPRMC,161633.500,A,4308.4632,N,07726.9230,W,30.36,264.52,150921,,,A*46
$GPGGA,161633.750,4308.4630,N,07726.9259,W,1,06,1.25,164.4,M,-34.4,M,,*58
$GPRMC,161634.000,A,4308.4628,N,07726.9287,W,30.38,264.36,150921,,,A*4F
$GPGGA,161634.250,4308.4626,N,07726.9316,W,1,06,1.25,164.4,M,-34.4,M,,*57
$GPRMC,161634.500,A,4308.4625,N,07726.9344,W,30.35,264.46,150921,,,A*43
$GPGGA,161634.750,4308.4623,N,07726.9373,W,1,06,1.25,164.4,M,-34.4,M,,*54
$GPRMC,161635.000,A,4308.4621,N,07726.9402,W,30.71,263.93,150921,,,A*49
$GPGGA,161635.250,4308.4618,N,07726.9432,W,1,06,1.25,164.5,M,-34.4,M,,*5B
$GPRMC,161635.500,A,4308.4616,N,07726.9461,W,31.19,264.03,150921,,,A*4C
$GPGGA,161635.750,4308.4615,N,07726.9491,W,1,06,1.25,164.5,M,-34.4,M,,*5A
$GPRMC,161636.000,A,4308.4613,N,07726.9521,W,31.53,264.25,150921,,,A*40
$GPGGA,161636.250,4308.4611,N,07726.9551,W,1,06,1.25,164.5,M,-34.4,M,,*55
$GPRMC,161636.500,A,4308.4608,N,07726.9581,W,31.93,264.32,150921,,,A*4F
$GPGGA,161636.750,4308.4606,N,07726.9611,W,1,06,1.25,164.6,M,-34.4,M,,*52
$GPRMC,161637.000,A,4308.4604,N,07726.9642,W,32.46,264.31,150921,,,A*43
$GPGGA,161637.250,4308.4602,N,07726.9673,W,1,06,1.25,164.6,M,-34.4,M,,*56
$GPRMC,161637.500,A,4308.4600,N,07726.9704,W,32.60,264.40,150921,,,A*43
$GPGGA,161637.750,4308.4598,N,07726.9736,W,1,06,1.25,164.7,M,-34.4,M,,*52
$GPRMC,161638.000,A,4308.4596,N,07726.9768,W,32.84,264.68,150921,,,A*4F
$GPGGA,161638.250,4308.4594,N,07726.9800,W,1,06,1.25,164.8,M,-34.4,M,,*51
$GPRMC,161638.500,A,4308.4592,N,07726.9832,W,33.05,264.54,150921,,,A*49
$GPGGA,161638.750,4308.4590,N,07726.9865,W,1,06,1.25,164.8,M,-34.4,M,,*53
$GPRMC,161639.000,A,4308.4588,N,07726.9898,W,33.33,265.04,150921,,,A*47
$GPGGA,161639.250,4308.4587,N,07726.9931,W,1,06,1.25,165.0,M,-34.4,M,,*58
$GPRMC,161639.500,A,4308.4585,N,07726.9964,W,33.60,265.63,150921,,,A*4A
$GPGGA,161639.750,4308.4583,N,07726.9997,W,1,06,1.25,165.2,M,-34.4,M,,*57
$GPRMC,161640.000,A,4308.4582,N,07727.0030,W,33.86,265.81,150921,,,A*42
$GPGGA,161640.250,4308.4580,N,07727.0063,W,1,06,1.25,165.4,M,-34.4,M,,*53
$GPRMC,161640.500,A,4308.4578,N,07727.0097,W,34.93,265.84,150921,,,A*49
$GPGGA,161640.750,4308.4577,N,07727.0130,W,1,06,1.25,165.3,M,-34.4,M,,*5E
$GPRMC,161641.000,A,4308.4575,N,07727.0164,W,34.96,266.71,150921,,,A*41
$GPGGA,161641.250,4308.4574,N,07727.0198,W,1,06,1.25,165.2,M,-34.4,M,,*5A
$GPRMC,161641.500,A,4308.4572,N,07727.0231,W,35.15,266.95,150921,,,A*40
$GPGGA,161641.750,4308.4571,N,07727.0265,W,1,06,1.25,165.3,M,-34.4,M,,*5A
$GPRMC,161642.000,A,4308.4569,N,07727.0298,W,35.19,266.48,150921,,,A*43
$GPGGA,161642.250,4308.4568,N,07727.0332,W,1,06,1.25,165.3,M,-34.4,M,,*57
$GPRMC,161642.500,A,4308.4567,N,07727.0365,W,35.04,267.06,150921,,,A*4C
$GPGGA,161642.750,4308.4566,N,07727.0398,W,1,06,1.25,165.3,M,-34.4,M,,*5C
$GPRMC,161643.000,A,4308.4565,N,07727.0430,W,35.05,267.90,150921,,,A*43
$GPGGA,161643.250,4308.4564,N,07727.0463,W,1,06,1.25,165.3,M,-34.4,M,,*59
$GPRMC,161643.500,A,4308.4563,N,07727.0496,W,34.91,267.85,150921,,,A*44
$GPGGA,161643.750,4308.4562,N,07727.0529,W,1,06,1.25,165.1,M,-34.4,M,,*57
$GPRMC,161644.000,A,4308.4563,N,07727.0563,W,34.66,268.70,150921,,,A*40
$GPGGA,161644.250,4308.4564,N,07727.0597,W,1,06,1.25,164.2,M,-34.4,M,,*54
$GPRMC,161644.500,A,4308.4565,N,07727.0631,W,34.68,269.98,150921,,,A*4E
$GPGGA,161644.750,4308.4567,N,07727.0664,W,1,06,1.25,163.2,M,-34.4,M,,*5A
$GPRMC,161645.000,A,4308.4568,N,07727.0698,W,34.53,270.91,150921,,,A*4D
$GPGGA,161645.250,4308.4570,N,07727.0730,W,1,06,1.25,162.6,M,-34.4,M,,*5D
$GPRMC,161645.500,A,4308.4572,N,07727.0763,W,34.26,272.02,150921,,,A*4C
$GPGGA,161645.750,4308.4574,N,07727.0796,W,1,06,1.25,161.9,M,-34.4,M,,*5C
$GPRMC,161646.000,A,4308.4577,N,07727.0828,W,33.78,273.91,150921,,,A*48
$GPGGA,161646.250,4308.4580,N,07727.0860,W,1,06,1.25,161.2,M,-34.4,M,,*5C
$GPRMC,161646.500,A,4308.4583,N,07727.0892,W,33.54,275.44,150921,,,A*47
$GPGGA,161646.750,4308.4586,N,07727.0925,W,1,06,1.25,160.5,M,-34.4,M,,*59
$GPRMC,161647.000,A,4308.4589,N,07727.0957,W,33.25,276.12,150921,,,A*47
$GPGGA,161647.250,4308.4593,N,07727.0989,W,1,06,1.25,159.8,M,-34.4,M,,*58
$GPRMC,161647.500,A,4308.4598,N,07727.1019,W,32.60,278.56,150921,,,A*4E
$GPGGA,161647.750,4308.4602,N,07727.1051,W,1,06,1.25,159.3,M,-34.4,M,,*50
$GPRMC,161648.000,A,4308.4606,N,07727.1082,W,32.57,278.56,150921,,,A*46
$GPGGA,161648.250,4308.4610,N,07727.1113,W,1,07,1.21,158.9,M,-34.4,M,,*50
$GPRMC,161648.500,A,4308.4614,N,07727.1144,W,32.38,278.37,150921,,,A*45
$GPGGA,161648.750,4308.4617,N,07727.1174,W,1,07,1.21,158.6,M,-34.4,M,,*5C
$GPRMC,161649.000,A,4308.4621,N,07727.1205,W,32.31,277.79,150921,,,A*4D
$GPGGA,161649.250,4308.4624,N,07727.1235,W,1,07,1.21,158.4,M,-34.4,M,,*5C
$GPRMC,161649.500,A,4308.4628,N,07727.1265,W,32.16,277.99,150921,,,A*4C
$GPGGA,161649.750,4308.4631,N,07727.1295,W,1,07,1.21,158.3,M,-34.4,M,,*50
$GPRMC,161650.000,A,4308.4635,N,07727.1324,W,32.02,278.15,150921,,,A*47
$GPGGA,161650.250,4308.4639,N,07727.1354,W,1,07,1.20,158.2,M,-34.4,M,,*59
$GPRMC,161650.500,A,4308.4642,N,07727.1382,W,31.81,279.04,150921,,,A*47
$GPGGA,161650.750,4308.4646,N,07727.1411,W,1,07,1.21,158.1,M,-34.4,M,,*50
$GPRMC,161651.000,A,4308.4650,N,07727.1439,W,31.56,279.35,150921,,,A*4F
$GPGGA,161651.250,4308.4654,N,07727.1467,W,1,07,1.20,157.9,M,-34.4,M,,*50
$GPRMC,161651.500,A,4308.4657,N,07727.1495,W,29.99,279.49,150921,,,A*4A
$GPGGA,161651.750,4308.4661,N,07727.1523,W,1,07,1.21,157.8,M,-34.4,M,,*52
$GPRMC,161652.000,A,4308.4664,N,07727.1550,W,29.88,279.29,150921,,,A*42
$GPGGA,161652.250,4308.4668,N,07727.1578,W,1,07,1.21,157.7,M,-34.4,M,,*5C
$GPRMC,161652.500,A,4308.4671,N,07727.1606,W,29.85,278.97,150921,,,A*4A
$GPGGA,161652.750,4308.4675,N,07727.1634,W,1,07,1.21,157.7,M,-34.4,M,,*5E
$GPRMC,161653.000,A,4308.4678,N,07727.1663,W,30.28,279.48,150921,,,A*48
$GPGGA,161653.250,4308.4682,N,07727.1692,W,1,07,1.21,157.6,M,-34.4,M,,*5F
$GPRMC,161653.500,A,4308.4686,N,07727.1720,W,30.74,279.77,150921,,,A*4F
$GPGGA,161653.750,4308.4690,N,07727.1749,W,1,07,1.21,157.4,M,-34.4,M,,*5C
$GPRMC,161654.000,A,4308.4693,N,07727.1778,W,30.93,279.91,150921,,,A*45
$GPGGA,161654.250,4308.4697,N,07727.1808,W,1,07,1.21,157.3,M,-34.4,M,,*54
$GPRMC,161654.500,A,4308.4700,N,07727.1837,W,31.05,278.72,150921,,,A*4D
$GPGGA,161654.750,4308.4703,N,07727.1866,W,1,07,1.21,157.3,M,-34.4,M,,*55
$GPRMC,161655.000,A,4308.4707,N,07727.1895,W,31.14,279.69,150921,,,A*4D
$GPGGA,161655.250,4308.4711,N,07727.1925,W,1,07,1.20,157.2,M,-34.4,M,,*54
$GPRMC,161655.500,A,4308.4714,N,07727.1954,W,31.36,279.63,150921,,,A*4C
$GPGGA,161655.750,4308.4718,N,07727.1984,W,1,07,1.21,157.1,M,-34.4,M,,*51
$GPRMC,161656.000,A,4308.4722,N,07727.2013,W,31.64,279.21,150921,,,A*47
$GPGGA,161656.250,4308.4725,N,07727.2043,W,1,07,1.21,157.0,M,-34.4,M,,*59
$GPRMC,161656.500,A,4308.4729,N,07727.2072,W,31.34,279.10,150921,,,A*49
$GPGGA,161656.750,4308.4732,N,07727.2102,W,1,07,1.21,156.8,M,-34.4,M,,*57
$GPRMC,161657.000,A,4308.4736,N,07727.2131,W,31.43,279.00,150921,,,A*44
$GPGGA,161657.250,4308.4739,N,07727.2161,W,1,07,1.21,156.7,M,-34.4,M,,*52
$GPRMC,161657.500,A,4308.4743,N,07727.2191,W,31.42,279.08,150921,,,A*40
$GPGGA,161657.750,4308.4747,N,07727.2222,W,1,07,1.21,156.5,M,-34.4,M,,*58
$GPRMC,161658.000,A,4308.4750,N,07727.2252,W,31.55,279.23,150921,,,A*4B
$GPGGA,161658.250,4308.4754,N,07727.2282,W,1,07,1.20,156.4,M,-34.4,M,,*5A
$GPRMC,161658.500,A,4308.4758,N,07727.2313,W,31.65,279.39,150921,,,A*4A
$GPGGA,161658.750,4308.4762,N,07727.2343,W,1,07,1.21,156.3,M,-34.4,M,,*50
$GPRMC,161659.000,A,4308.4765,N,07727.2374,W,32.29,278.96,150921,,,A*4E
$GPGGA,161659.250,4308.4769,N,07727.2405,W,1,07,1.21,156.3,M,-34.4,M,,*5A
$GPRMC,161659.500,A,4308.4772,N,07727.2435,W,32.28,278.00,150921,,,A*41
$GPGGA,161659.750,4308.4775,N,07727.2466,W,1,07,1.21,156.2,M,-34.4,M,,*56
$GPRMC,161700.000,A,4308.4779,N,07727.2496,W,32.16,278.41,150921,,,A*43
$GPGGA,161700.250,4308.4782,N,07727.2526,W,1,07,1.20,156.1,M,-34.4,M,,*51
$GPRMC,161700.500,A,4308.4786,N,07727.2556,W,31.83,278.97,150921,,,A*4F
$GPGGA,161700.750,4308.4790,N,07727.2586,W,1,07,1.21,155.9,M,-34.4,M,,*57
$GPRMC,161701.000,A,4308.4794,N,07727.2615,W,31.49,279.31,150921,,,A*47
$GPGGA,161701.250,4308.4798,N,07727.2645,W,1,07,1.20,155.7,M,-34.4,M,,*58
$GPRMC,161701.500,A,4308.4802,N,07727.2674,W,31.01,279.58,150921,,,A*46
$GPGGA,161701.750,4308.4806,N,07727.2703,W,1,07,1.21,155.5,M,-34.4,M,,*55
$GPRMC,161702.000,A,4308.4810,N,07727.2732,W,30.64,279.67,150921,,,A*4E
$GPGGA,161702.250,4308.4813,N,07727.2761,W,1,07,1.21,155.3,M,-34.4,M,,*55
$GPRMC,161702.500,A,4308.4817,N,07727.2790,W,30.50,279.44,150921,,,A*42
$GPGGA,161702.750,4308.4821,N,07727.2818,W,1,07,1.21,155.1,M,-34.4,M,,*52
$GPRMC,161703.000,A,4308.4824,N,07727.2846,W,30.34,279.25,150921,,,A*47
$GPGGA,161703.250,4308.4828,N,07727.2875,W,1,07,1.21,155.0,M,-34.4,M,,*55
$GPRMC,161703.500,A,4308.4832,N,07727.2902,W,29.85,279.78,150921,,,A*4E
$GPGGA,161703.750,4308.4835,N,07727.2931,W,1,07,1.21,154.9,M,-34.4,M,,*55
$GPRMC,161704.000,A,4308.4838,N,07727.2959,W,29.63,279.07,150921,,,A*48
$GPGGA,161704.250,4308.4842,N,07727.2986,W,1,07,1.21,154.8,M,-34.4,M,,*5A
$GPRMC,161704.500,A,4308.4845,N,07727.3014,W,29.16,279.14,150921,,,A*46
$GPGGA,161704.750,4308.4848,N,07727.3041,W,1,07,1.21,154.7,M,-34.4,M,,*59
$GPRMC,161705.000,A,4308.4852,N,07727.3069,W,29.12,279.30,150921,,,A*4C
$GPGGA,161705.250,4308.4855,N,07727.3096,W,1,07,1.21,154.6,M,-34.4,M,,*5A
$GPRMC,161705.500,A,4308.4858,N,07727.3124,W,29.17,279.01,150921,,,A*4C
$GPGGA,161705.750,4308.4862,N,07727.3151,W,1,07,1.21,154.6,M,-34.4,M,,*51
$GPRMC,161706.000,A,4308.4865,N,07727.3178,W,29.39,279.04,150921,,,A*44
$GPGGA,161706.250,4308.4868,N,07727.3206,W,1,07,1.21,154.6,M,-34.4,M,,*5C
$GPRMC,161706.500,A,4308.4871,N,07727.3233,W,29.39,279.20,150921,,,A*4E
$GPGGA,161706.750,4308.4875,N,07727.3260,W,1,07,1.21,154.5,M,-34.4,M,,*56
$GPRMC,161707.000,A,4308.4878,N,07727.3287,W,29.60,278.50,150921,,,A*46
$GPGGA,161707.250,4308.4881,N,07727.3315,W,1,07,1.21,154.4,M,-34.4,M,,*5B
$GPRMC,161707.500,A,4308.4884,N,07727.3343,W,29.81,278.46,150921,,,A*41
$GPGGA,161707.750,4308.4887,N,07727.3371,W,1,07,1.21,154.2,M,-34.4,M,,*5C
$GPRMC,161708.000,A,4308.4890,N,07727.3399,W,29.93,278.92,150921,,,A*43
$GPGGA,161708.250,4308.4893,N,07727.3426,W,1,07,1.21,154.1,M,-34.4,M,,*55
$GPRMC,161708.500,A,4308.4897,N,07727.3454,W,30.13,278.86,150921,,,A*42
$GPGGA,161708.750,4308.4900,N,07727.3482,W,1,07,1.21,154.0,M,-34.4,M,,*54
$GPRMC,161709.000,A,4308.4903,N,07727.3510,W,30.14,278.96,150921,,,A*4D
$GPGGA,161709.250,4308.4907,N,07727.3538,W,1,07,1.21,153.7,M,-34.4,M,,*57
$GPRMC,161709.500,A,4308.4910,N,07727.3566,W,30.14,278.87,150921,,,A*4B
$GPGGA,161709.750,4308.4913,N,07727.3594,W,1,07,1.21,153.4,M,-34.4,M,,*52
$GPRMC,161710.000,A,4308.4917,N,07727.3622,W,30.14,278.94,150921,,,A*40
$GPGGA,161710.250,4308.4920,N,07727.3650,W,1,07,1.21,153.3,M,-34.4,M,,*53
$GPRMC,161710.500,A,4308.4923,N,07727.3678,W,30.18,278.66,150921,,,A*4C
$GPGGA,161710.750,4308.4927,N,07727.3707,W,1,07,1.21,153.2,M,-34.4,M,,*53
$GPRMC,161711.000,A,4308.4930,N,07727.3735,W,30.35,278.59,150921,,,A*41
$GPGGA,161711.250,4308.4934,N,07727.3764,W,1,07,1.21,153.2,M,-34.4,M,,*50
$GPRMC,161711.500,A,4308.4937,N,07727.3792,W,30.11,278.54,150921,,,A*45
$GPGGA,161711.750,4308.4941,N,07727.3819,W,1,07,1.21,153.2,M,-34.4,M,,*52
$GPRMC,161712.000,A,4308.4944,N,07727.3847,W,30.16,278.71,150921,,,A*40
$GPGGA,161712.250,4308.4947,N,07727.3874,W,1,07,1.21,153.1,M,-34.4,M,,*5A
$GPRMC,161712.500,A,4308.4951,N,07727.3902,W,30.00,278.63,150921,,,A*45
$GPGGA,161712.750,4308.4954,N,07727.3929,W,1,07,1.21,152.9,M,-34.4,M,,*5D
$GPRMC,161713.000,A,4308.4958,N,07727.3957,W,29.70,278.73,150921,,,A*46
$GPGGA,161713.250,4308.4961,N,07727.3985,W,1,07,1.21,152.7,M,-34.4,M,,*57
$GPRMC,161713.500,A,4308.4965,N,07727.4013,W,29.94,279.02,150921,,,A*4E
$GPGGA,161713.750,4308.4968,N,07727.4041,W,1,07,1.21,152.7,M,-34.4,M,,*5D
$GPRMC,161714.000,A,4308.4972,N,07727.4069,W,29.88,279.32,150921,,,A*49
$GPGGA,161714.250,4308.4976,N,07727.4096,W,1,07,1.21,152.7,M,-34.4,M,,*5A
$GPRMC,161714.500,A,4308.4980,N,07727.4124,W,29.85,279.76,150921,,,A*44
$GPGGA,161714.750,4308.4983,N,07727.4152,W,1,07,1.21,152.8,M,-34.4,M,,*53
$GPRMC,161715.000,A,4308.4987,N,07727.4180,W,29.78,279.04,150921,,,A*4E
$GPGGA,161715.250,4308.4990,N,07727.4207,W,1,07,1.20,152.9,M,-34.4,M,,*56
$GPRMC,161715.500,A,4308.4994,N,07727.4236,W,29.78,279.43,150921,,,A*44
$GPGGA,161715.750,4308.4998,N,07727.4264,W,1,07,1.21,152.9,M,-34.4,M,,*5F
$GPRMC,161716.000,A,4308.5002,N,07727.4292,W,29.82,278.98,150921,,,A*49
$GPGGA,161716.250,4308.5005,N,07727.4321,W,1,07,1.20,153.0,M,-34.4,M,,*5C
$GPRMC,161716.500,A,4308.5008,N,07727.4349,W,30.27,278.73,150921,,,A*43
$GPGGA,161716.750,4308.5012,N,07727.4378,W,1,07,1.21,153.2,M,-34.4,M,,*50
$GPRMC,161717.000,A,4308.5015,N,07727.4407,W,30.68,278.68,150921,,,A*47
$GPGGA,161717.250,4308.5019,N,07727.4436,W,1,07,1.21,153.4,M,-34.4,M,,*54
$GPRMC,161717.500,A,4308.5023,N,07727.4465,W,30.97,279.01,150921,,,A*4D
$GPGGA,161717.750,4308.5026,N,07727.4495,W,1,07,1.21,153.4,M,-34.4,M,,*54
$GPRMC,161718.000,A,4308.5029,N,07727.4525,W,31.37,277.61,150921,,,A*4B
$GPGGA,161718.250,4308.5032,N,07727.4555,W,1,07,1.21,153.6,M,-34.4,M,,*54
$GPRMC,161718.500,A,4308.5035,N,07727.4584,W,31.28,277.93,150921,,,A*4B
$GPGGA,161718.750,4308.5039,N,07727.4613,W,1,07,1.21,153.8,M,-34.4,M,,*55
$GPRMC,161719.000,A,4308.5043,N,07727.4642,W,31.18,278.80,150921,,,A*49
$GPGGA,161719.250,4308.5046,N,07727.4672,W,1,07,1.21,153.9,M,-34.4,M,,*5F
$GPRMC,161719.500,A,4308.5051,N,07727.4702,W,31.56,279.40,150921,,,A*4D
$GPGGA,161719.750,4308.5055,N,07727.4733,W,1,07,1.21,154.0,M,-34.4,M,,*52
$GPRMC,161720.000,A,4308.5059,N,07727.4762,W,31.55,280.19,150921,,,A*45
$GPGGA,161720.250,4308.5063,N,07727.4792,W,1,07,1.21,154.2,M,-34.4,M,,*51
$GPRMC,161720.500,A,4308.5068,N,07727.4822,W,31.87,280.60,150921,,,A*48
$GPGGA,161720.750,4308.5072,N,07727.4853,W,1,07,1.21,154.0,M,-34.4,M,,*54
$GPRMC,161721.000,A,4308.5076,N,07727.4884,W,32.57,280.07,150921,,,A*40
$GPGGA,161721.250,4308.5080,N,07727.4915,W,1,07,1.21,153.8,M,-34.4,M,,*51
$GPRMC,161721.500,A,4308.5084,N,07727.4946,W,33.09,279.57,150921,,,A*4E
$GPGGA,161721.750,4308.5088,N,07727.4977,W,1,07,1.21,153.4,M,-34.4,M,,*54
$GPRMC,161722.000,A,4308.5093,N,07727.5009,W,33.47,279.49,150921,,,A*48
$GPGGA,161722.250,4308.5097,N,07727.5041,W,1,07,1.21,153.3,M,-34.4,M,,*56
$GPRMC,161722.500,A,4308.5101,N,07727.5072,W,33.69,279.38,150921,,,A*41
$GPGGA,161722.750,4308.5105,N,07727.5103,W,1,07,1.21,153.0,M,-34.4,M,,*5D
$GPRMC,161723.000,A,4308.5110,N,07727.5134,W,33.70,279.72,150921,,,A*40
$GPGGA,161723.250,4308.5114,N,07727.5166,W,1,07,1.21,152.7,M,-34.4,M,,*5C
$GPRMC,161723.500,A,4308.5119,N,07727.5198,W,33.94,279.72,150921,,,A*40
$GPGGA,161723.750,4308.5123,N,07727.5230,W,1,07,1.21,152.4,M,-34.4,M,,*5E
$GPRMC,161724.000,A,4308.5127,N,07727.5262,W,33.95,279.25,150921,,,A*4A
$GPGGA,161724.250,4308.5131,N,07727.5293,W,1,07,1.21,152.3,M,-34.4,M,,*51
$GPRMC,161724.500,A,4308.5135,N,07727.5324,W,33.60,279.09,150921,,,A*4B
$GPGGA,161724.750,4308.5139,N,07727.5356,W,1,07,1.21,152.2,M,-34.4,M,,*55
$GPRMC,161725.000,A,4308.5143,N,07727.5388,W,33.65,279.44,150921,,,A*44
$GPGGA,161725.250,4308.5147,N,07727.5420,W,1,07,1.21,152.2,M,-34.4,M,,*5E
$GPRMC,161725.500,A,4308.5151,N,07727.5451,W,33.62,279.58,150921,,,A*4B
$GPGGA,161725.750,4308.5155,N,07727.5483,W,1,07,1.21,152.4,M,-34.4,M,,*57
$GPRMC,161726.000,A,4308.5159,N,07727.5514,W,33.33,279.91,150921,,,A*44
$GPGGA,161726.250,4308.5163,N,07727.5545,W,1,07,1.21,152.4,M,-34.4,M,,*5F
$GPRMC,161726.500,A,4308.5168,N,07727.5576,W,33.10,279.97,150921,,,A*40
$GPGGA,161726.750,4308.5172,N,07727.5607,W,1,07,1.21,152.3,M,-34.4,M,,*58
$GPRMC,161727.000,A,4308.5177,N,07727.5637,W,32.88,280.68,150921,,,A*4A
$GPGGA,161727.250,4308.5181,N,07727.5668,W,1,07,1.21,152.1,M,-34.4,M,,*5B
$GPRMC,161727.500,A,4308.5185,N,07727.5698,W,32.60,280.64,150921,,,A*4D
$GPGGA,161727.750,4308.5190,N,07727.5728,W,1,07,1.21,152.0,M,-34.4,M,,*5A
$GPRMC,161728.000,A,4308.5194,N,07727.5758,W,32.30,279.96,150921,,,A*44
$GPGGA,161728.250,4308.5197,N,07727.5788,W,1,07,1.21,152.0,M,-34.4,M,,*5D
$GPRMC,161728.500,A,4308.5201,N,07727.5818,W,32.16,279.40,150921,,,A*4A
$GPGGA,161728.750,4308.5204,N,07727.5847,W,1,07,1.21,151.9,M,-34.4,M,,*57
$GPRMC,161729.000,A,4308.5207,N,07727.5877,W,31.46,278.76,150921,,,A*43
$GPGGA,161729.250,4308.5211,N,07727.5906,W,1,07,1.21,151.7,M,-34.4,M,,*5D
$GPRMC,161729.500,A,4308.5214,N,07727.5934,W,31.02,278.67,150921,,,A*42
$GPGGA,161729.750,4308.5217,N,07727.5963,W,1,07,1.21,151.6,M,-34.4,M,,*5C
$GPRMC,161730.000,A,4308.5220,N,07727.5992,W,30.93,278.18,150921,,,A*45
$GPGGA,161730.250,4308.5223,N,07727.6021,W,1,07,1.21,151.5,M,-34.4,M,,*59
$GPRMC,161730.500,A,4308.5226,N,07727.6049,W,30.89,278.90,150921,,,A*41
$GPGGA,161730.750,4308.5229,N,07727.6078,W,1,07,1.21,151.3,M,-34.4,M,,*5C
$GPRMC,161731.000,A,4308.5233,N,07727.6106,W,30.85,279.12,150921,,,A*4C
$GPGGA,161731.250,4308.5236,N,07727.6135,W,1,07,1.21,151.1,M,-34.4,M,,*5C
$GPRMC,161731.500,A,4308.5239,N,07727.6163,W,30.76,278.90,150921,,,A*47
$GPGGA,161731.750,4308.5242,N,07727.6192,W,1,07,1.21,150.8,M,-34.4,M,,*5F
$GPRMC,161732.000,A,4308.5246,N,07727.6220,W,30.52,279.23,150921,,,A*42
$GPGGA,161732.250,4308.5249,N,07727.6249,W,1,07,1.21,150.6,M,-34.4,M,,*59
$GPRMC,161732.500,A,4308.5253,N,07727.6278,W,30.52,278.68,150921,,,A*40
$GPGGA,161732.750,4308.5255,N,07727.6306,W,1,07,1.21,150.4,M,-34.4,M,,*59
$GPRMC,161733.000,A,4308.5258,N,07727.6334,W,30.38,278.04,150921,,,A*40
$GPGGA,161733.250,4308.5261,N,07727.6362,W,1,07,1.21,150.3,M,-34.4,M,,*5F
$GPRMC,161733.500,A,4308.5263,N,07727.6390,W,30.27,277.18,150921,,,A*4F
$GPGGA,161733.750,4308.5265,N,07727.6418,W,1,07,1.21,150.3,M,-34.4,M,,*54
$GPRMC,161734.000,A,4308.5267,N,07727.6445,W,28.91,276.96,150921,,,A*45
$GPGGA,161734.250,4308.5269,N,07727.6473,W,1,07,1.21,150.4,M,-34.4,M,,*50
$GPRMC,161734.500,A,4308.5272,N,07727.6500,W,28.90,276.89,150921,,,A*4B
$GPGGA,161734.750,4308.5274,N,07727.6528,W,1,07,1.21,150.6,M,-34.4,M,,*54
$GPRMC,161735.000,A,4308.5276,N,07727.6556,W,28.99,276.70,150921,,,A*47
$GPGGA,161735.250,4308.5278,N,07727.6584,W,1,07,1.21,150.8,M,-34.4,M,,*54
$GPRMC,161735.500,A,4308.5280,N,07727.6611,W,28.78,276.32,150921,,,A*42
$GPGGA,161735.750,4308.5282,N,07727.6637,W,1,07,1.21,151.0,M,-34.4,M,,*56
$GPRMC,161736.000,A,4308.5284,N,07727.6664,W,28.28,275.79,150921,,,A*4B
$GPGGA,161736.250,4308.5286,N,07727.6691,W,1,07,1.21,151.2,M,-34.4,M,,*5A
$GPRMC,161736.500,A,4308.5288,N,07727.6718,W,28.24,274.80,150921,,,A*43
$GPGGA,161736.750,4308.5289,N,07727.6744,W,1,07,1.21,151.2,M,-34.4,M,,*59
$GPRMC,161737.000,A,4308.5291,N,07727.6771,W,28.00,274.54,150921,,,A*4F
$GPGGA,161737.250,4308.5292,N,07727.6797,W,1,07,1.21,151.2,M,-34.4,M,,*59
$GPRMC,161737.500,A,4308.5294,N,07727.6823,W,27.65,274.33,150921,,,A*4A
$GPGGA,161737.750,4308.5295,N,07727.6849,W,1,07,1.21,151.2,M,-34.4,M,,*57
$GPRMC,161738.000,A,4308.5296,N,07727.6874,W,27.22,273.91,150921,,,A*4C
$GPGGA,161738.250,4308.5297,N,07727.6900,W,1,07,1.21,151.2,M,-34.4,M,,*53
$GPRMC,161738.500,A,4308.5298,N,07727.6924,W,26.97,274.03,150921,,,A*40
$GPGGA,161738.750,4308.5300,N,07727.6949,W,1,07,1.21,151.3,M,-34.4,M,,*55
$GPRMC,161739.000,A,4308.5301,N,07727.6973,W,26.22,274.38,150921,,,A*41
$GPGGA,161739.250,4308.5302,N,07727.6998,W,1,07,1.21,151.5,M,-34.4,M,,*59
$GPRMC,161739.500,A,4308.5303,N,07727.7022,W,26.30,274.02,150921,,,A*40
$GPGGA,161739.750,4308.5304,N,07727.7047,W,1,07,1.21,151.6,M,-34.4,M,,*53
$GPRMC,161740.000,A,4308.5305,N,07727.7072,W,26.58,273.18,150921,,,A*4A
$GPGGA,161740.250,4308.5306,N,07727.7097,W,1,07,1.21,151.7,M,-34.4,M,,*56
$GPRMC,161740.500,A,4308.5307,N,07727.7122,W,26.96,272.57,150921,,,A*41
$GPGGA,161740.750,4308.5308,N,07727.7148,W,1,07,1.21,151.8,M,-34.4,M,,*51
$GPRMC,161741.000,A,4308.5309,N,07727.7174,W,27.59,273.15,150921,,,A*4D
$GPGGA,161741.250,4308.5309,N,07727.7200,W,1,07,1.21,151.8,M,-34.4,M,,*5B
$GPRMC,161741.500,A,4308.5311,N,07727.7226,W,27.68,273.07,150921,,,A*44
$GPGGA,161741.750,4308.5312,N,07727.7252,W,1,07,1.21,151.9,M,-34.4,M,,*52
$GPRMC,161742.000,A,4308.5313,N,07727.7278,W,27.93,273.83,150921,,,A*43
$GPGGA,161742.250,4308.5315,N,07727.7304,W,1,07,1.20,152.1,M,-34.4,M,,*5B
$GPRMC,161742.500,A,4308.5317,N,07727.7331,W,28.14,274.26,150921,,,A*46
$GPGGA,161742.750,4308.5318,N,07727.7358,W,1,07,1.21,152.2,M,-34.4,M,,*58
$GPRMC,161743.000,A,4308.5320,N,07727.7385,W,28.91,274.10,150921,,,A*41
$GPGGA,161743.250,4308.5321,N,07727.7411,W,1,07,1.21,152.2,M,-34.4,M,,*5C
$GPRMC,161743.500,A,4308.5323,N,07727.7438,W,28.84,274.39,150921,,,A*49
$GPGGA,161743.750,4308.5325,N,07727.7465,W,1,07,1.21,152.3,M,-34.4,M,,*5F
$GPRMC,161744.000,A,4308.5327,N,07727.7491,W,28.40,274.59,150921,,,A*42
$GPGGA,161744.250,4308.5329,N,07727.7517,W,1,07,1.21,152.2,M,-34.4,M,,*54
$GPRMC,161744.500,A,4308.5331,N,07727.7543,W,27.90,275.04,150921,,,A*45
$GPGGA,161744.750,4308.5333,N,07727.7568,W,1,07,1.21,152.0,M,-34.4,M,,*50
$GPRMC,161745.000,A,4308.5334,N,07727.7594,W,27.48,274.67,150921,,,A*4F
$GPGGA,161745.250,4308.5336,N,07727.7619,W,1,07,1.21,151.9,M,-34.4,M,,*5E
$GPRMC,161745.500,A,4308.5337,N,07727.7644,W,27.35,273.71,150921,,,A*4D
$GPGGA,161745.750,4308.5338,N,07727.7670,W,1,07,1.21,151.8,M,-34.4,M,,*5B
$GPRMC,161746.000,A,4308.5339,N,07727.7695,W,27.06,273.03,150921,,,A*4C
$GPGGA,161746.250,4308.5340,N,07727.7720,W,1,07,1.21,151.7,M,-34.4,M,,*59
$GPRMC,161746.500,A,4308.5341,N,07727.7744,W,27.00,272.45,150921,,,A*4E
$GPGGA,161746.750,4308.5342,N,07727.7769,W,1,07,1.21,151.6,M,-34.4,M,,*52
$GPRMC,161747.000,A,4308.5343,N,07727.7793,W,26.35,272.39,150921,,,A*4E
$GPGGA,161747.250,4308.5344,N,07727.7817,W,1,07,1.21,151.7,M,-34.4,M,,*57
$GPRMC,161747.500,A,4308.5345,N,07727.7841,W,25.17,272.77,150921,,,A*44
$GPGGA,161747.750,4308.5346,N,07727.7863,W,1,07,1.21,151.9,M,-34.4,M,,*5D
$GPRMC,161748.000,A,4308.5347,N,07727.7886,W,24.23,272.73,150921,,,A*45
$GPGGA,161748.250,4308.5349,N,07727.7907,W,1,07,1.21,152.0,M,-34.4,M,,*51
$GPRMC,161748.500,A,4308.5350,N,07727.7928,W,22.65,273.19,150921,,,A*4A
$GPGGA,161748.750,4308.5351,N,07727.7948,W,1,07,1.21,152.0,M,-34.4,M,,*56
$GPRMC,161749.000,A,4308.5352,N,07727.7968,W,21.50,272.22,150921,,,A*44
$GPGGA,161749.250,4308.5353,N,07727.7987,W,1,07,1.21,151.9,M,-34.4,M,,*59
$GPRMC,161749.500,A,4308.5354,N,07727.8004,W,20.06,272.36,150921,,,A*4C
$GPGGA,161749.750,4308.5355,N,07727.8021,W,1,07,1.21,151.6,M,-34.4,M,,*5F
$GPRMC,161750.000,A,4308.5355,N,07727.8036,W,17.91,271.60,150921,,,A*4B
$GPGGA,161750.250,4308.5356,N,07727.8052,W,1,07,1.21,151.4,M,-34.4,M,,*57
$GPRMC,161750.500,A,4308.5356,N,07727.8066,W,16.39,269.47,150921,,,A*47
$GPGGA,161750.750,4308.5357,N,07727.8080,W,1,07,1.21,151.6,M,-34.4,M,,*5E
$GPRMC,161751.000,A,4308.5356,N,07727.8092,W,14.20,265.41,150921,,,A*48
$GPGGA,161751.250,4308.5356,N,07727.8102,W,1,07,1.21,151.7,M,-34.4,M,,*51
$GPRMC,161751.500,A,4308.5356,N,07727.8110,W,11.61,263.36,150921,,,A*40
$GPGGA,161751.750,4308.5357,N,07727.8116,W,1,07,1.21,151.8,M,-34.4,M,,*5F
$GPRMC,161752.000,A,4308.5358,N,07727.8121,W,7.85,262.29,150921,,,A*78
$GPGGA,161752.250,4308.5358,N,07727.8127,W,1,07,1.21,152.1,M,-34.4,M,,*5E
$GPRMC,161752.500,A,4308.5360,N,07727.8130,W,5.99,259.88,150921,,,A*7A
$GPGGA,161752.750,4308.5361,N,07727.8130,W,1,07,1.21,152.4,M,-34.4,M,,*52
$GPRMC,161753.000,A,4308.5361,N,07727.8131,W,2.53,254.88,150921,,,A*72
$GPGGA,161753.250,4308.5360,N,07727.8132,W,1,07,1.20,152.7,M,-34.4,M,,*57
$GPRMC,161753.500,A,4308.5359,N,07727.8133,W,1.10,254.88,150921,,,A*7A
$GPGGA,161753.750,4308.5358,N,07727.8133,W,1,07,1.20,153.0,M,-34.4,M,,*5E
$GPRMC,161754.000,A,4308.5356,N,07727.8131,W,0.88,254.88,150921,,,A*75
$GPGGA,161754.250,4308.5355,N,07727.8130,W,1,07,1.20,152.0,M,-34.4,M,,*53
$GPRMC,161754.500,A,4308.5354,N,07727.8129,W,1.07,254.88,150921,,,A*7D
$GPGGA,161754.750,4308.5353,N,07727.8129,W,1,07,1.20,151.6,M,-34.4,M,,*5D
$GPRMC,161755.000,A,4308.5351,N,07727.8129,W,1.07,254.88,150921,,,A*7C
$GPGGA,161755.250,4308.5350,N,07727.8128,W,1,07,1.20,151.9,M,-34.4,M,,*54
$GPRMC,161755.500,A,4308.5350,N,07727.8127,W,1.02,254.88,150921,,,A*73
$GPGGA,161755.750,4308.5349,N,07727.8126,W,1,07,1.20,151.6,M,-34.4,M,,*58
$GPRMC,161756.000,A,4308.5348,N,07727.8126,W,0.95,254.88,150921,,,A*72
$GPGGA,161756.250,4308.5347,N,07727.8126,W,1,07,1.20,151.4,M,-34.4,M,,*52
$GPRMC,161756.500,A,4308.5346,N,07727.8127,W,0.74,254.88,150921,,,A*77
$GPGGA,161756.750,4308.5345,N,07727.8127,W,1,07,1.20,151.5,M,-34.4,M,,*55
$GPRMC,161757.000,A,4308.5345,N,07727.8126,W,0.58,254.88,150921,,,A*7F
$GPGGA,161757.250,4308.5344,N,07727.8126,W,1,07,1.20,151.6,M,-34.4,M,,*52
$GPRMC,161757.500,A,4308.5344,N,07727.8127,W,0.54,254.88,150921,,,A*76
$GPGGA,161757.750,4308.5344,N,07727.8127,W,1,07,1.20,151.7,M,-34.4,M,,*57
$GPRMC,161758.000,A,4308.5343,N,07727.8127,W,0.55,254.88,150921,,,A*7A
$GPGGA,161758.250,4308.5343,N,07727.8128,W,1,07,1.20,151.8,M,-34.4,M,,*5A
$GPRMC,161758.500,A,4308.5343,N,07727.8128,W,0.79,254.88,150921,,,A*7E
$GPGGA,161758.750,4308.5343,N,07727.8129,W,1,07,1.20,151.8,M,-34.4,M,,*5E
$GPRMC,161759.000,A,4308.5342,N,07727.8130,W,1.52,254.88,150921,,,A*7A
$GPGGA,161759.250,4308.5342,N,07727.8132,W,1,07,1.20,151.9,M,-34.4,M,,*50
$GPRMC,161759.500,A,4308.5342,N,07727.8133,W,3.17,253.91,150921,,,A*70
$GPGGA,161759.750,4308.5339,N,07727.8138,W,1,07,1.20,152.0,M,-34.4,M,,*59
$GPRMC,161800.000,A,4308.5335,N,07727.8143,W,5.35,238.24,150921,,,A*74
$GPGGA,161800.250,4308.5332,N,07727.8145,W,1,07,1.21,151.7,M,-34.4,M,,*5B
$GPRMC,161800.500,A,4308.5329,N,07727.8152,W,6.79,236.49,150921,,,A*72
$GPGGA,161800.750,4308.5328,N,07727.8159,W,1,07,1.21,151.5,M,-34.4,M,,*5A
$GPRMC,161801.000,A,4308.5322,N,07727.8167,W,9.06,220.49,150921,,,A*7B
$GPGGA,161801.250,4308.5318,N,07727.8176,W,1,07,1.21,151.4,M,-34.4,M,,*51
$GPRMC,161801.500,A,4308.5312,N,07727.8184,W,9.71,213.47,150921,,,A*7E
$GPGGA,161801.750,4308.5305,N,07727.8191,W,1,07,1.21,151.3,M,-34.4,M,,*56
$GPRMC,161802.000,A,4308.5297,N,07727.8197,W,11.13,207.14,150921,,,A*48
$GPGGA,161802.250,4308.5290,N,07727.8202,W,1,07,1.20,151.3,M,-34.4,M,,*55
$GPRMC,161802.500,A,4308.5281,N,07727.8208,W,13.21,200.25,150921,,,A*49
$GPGGA,161802.750,4308.5270,N,07727.8211,W,1,07,1.21,151.2,M,-34.4,M,,*5C
$GPRMC,161803.000,A,4308.5260,N,07727.8214,W,15.09,193.15,150921,,,A*49
$GPGGA,161803.250,4308.5248,N,07727.8216,W,1,07,1.21,151.2,M,-34.4,M,,*54
$GPRMC,161803.500,A,4308.5236,N,07727.8217,W,16.56,187.50,150921,,,A*41
$GPGGA,161803.750,4308.5224,N,07727.8218,W,1,07,1.21,151.3,M,-34.4,M,,*54
$GPRMC,161804.000,A,4308.5210,N,07727.8219,W,18.09,184.40,150921,,,A*4F
$GPGGA,161804.250,4308.5197,N,07727.8218,W,1,07,1.21,151.3,M,-34.4,M,,*5D
$GPRMC,161804.500,A,4308.5182,N,07727.8218,W,19.19,182.54,150921,,,A*40
$GPGGA,161804.750,4308.5168,N,07727.8218,W,1,07,1.21,151.2,M,-34.4,M,,*59
$GPRMC,161805.000,A,4308.5152,N,07727.8217,W,20.56,181.67,150921,,,A*44
$GPGGA,161805.250,4308.5137,N,07727.8217,W,1,07,1.21,151.1,M,-34.4,M,,*5B
$GPRMC,161805.500,A,4308.5121,N,07727.8217,W,21.77,181.56,150921,,,A*45
$GPGGA,161805.750,4308.5104,N,07727.8217,W,1,07,1.21,151.1,M,-34.4,M,,*5E
$GPRMC,161806.000,A,4308.5088,N,07727.8216,W,22.72,181.13,150921,,,A*47
$GPGGA,161806.250,4308.5071,N,07727.8216,W,1,07,1.21,151.1,M,-34.4,M,,*5A
$GPRMC,161806.500,A,4308.5054,N,07727.8215,W,23.76,180.82,150921,,,A*4C
$GPGGA,161806.750,4308.5036,N,07727.8215,W,1,07,1.21,151.1,M,-34.4,M,,*5F
$GPRMC,161807.000,A,4308.5019,N,07727.8215,W,24.56,180.98,150921,,,A*4F
$GPGGA,161807.250,4308.5001,N,07727.8215,W,1,07,1.21,151.1,M,-34.4,M,,*5F
$GPRMC,161807.500,A,4308.4983,N,07727.8215,W,25.36,181.18,150921,,,A*4F
$GPGGA,161807.750,4308.4964,N,07727.8215,W,1,07,1.21,151.1,M,-34.4,M,,*51
$GPRMC,161808.000,A,4308.4946,N,07727.8215,W,25.94,180.98,150921,,,A*4D
$GPGGA,161808.250,4308.4927,N,07727.8215,W,1,07,1.20,151.2,M,-34.4,M,,*5E
$GPRMC,161808.500,A,4308.4909,N,07727.8215,W,26.42,180.56,150921,,,A*49
$GPGGA,161808.750,4308.4890,N,07727.8215,W,1,07,1.21,151.2,M,-34.4,M,,*57
$GPRMC,161809.000,A,4308.4871,N,07727.8216,W,26.75,180.70,150921,,,A*40
$GPGGA,161809.250,4308.4852,N,07727.8216,W,1,07,1.21,151.1,M,-34.4,M,,*5D
$GPRMC,161809.500,A,4308.4832,N,07727.8217,W,27.57,181.50,150921,,,A*41
$GPGGA,161809.750,4308.4813,N,07727.8217,W,1,07,1.21,151.1,M,-34.4,M,,*5C
$GPRMC,161810.000,A,4308.4793,N,07727.8217,W,28.29,181.61,150921,,,A*4C
$GPGGA,161810.250,4308.4773,N,07727.8218,W,1,07,1.21,151.1,M,-34.4,M,,*57
$GPRMC,161810.500,A,4308.4752,N,07727.8219,W,28.63,181.60,150921,,,A*45
$GPGGA,161810.750,4308.4731,N,07727.8219,W,1,07,1.21,151.1,M,-34.4,M,,*55
$GPRMC,161811.000,A,4308.4710,N,07727.8219,W,28.99,180.70,150921,,,A*42
$GPGGA,161811.250,4308.4689,N,07727.8220,W,1,07,1.20,151.2,M,-34.4,M,,*5B
$GPRMC,161811.500,A,4308.4668,N,07727.8220,W,29.93,180.82,150921,,,A*45
$GPGGA,161811.750,4308.4647,N,07727.8221,W,1,07,1.21,151.2,M,-34.4,M,,*5C
$GPRMC,161812.000,A,4308.4625,N,07727.8222,W,30.38,180.71,150921,,,A*4D
$GPGGA,161812.250,4308.4604,N,07727.8222,W,1,07,1.20,151.2,M,-34.4,M,,*5F
$GPRMC,161812.500,A,4308.4582,N,07727.8223,W,30.61,180.81,150921,,,A*44
$GPGGA,161812.750,4308.4560,N,07727.8224,W,1,07,1.21,151.2,M,-34.4,M,,*5C
$GPRMC,161813.000,A,4308.4538,N,07727.8224,W,30.99,181.25,150921,,,A*4E
$GPGGA,161813.250,4308.4516,N,07727.8225,W,1,07,1.20,151.3,M,-34.4,M,,*58
$GPRMC,161813.500,A,4308.4494,N,07727.8225,W,31.19,181.48,150921,,,A*4F
$GPGGA,161813.750,4308.4472,N,07727.8226,W,1,07,1.21,151.3,M,-34.4,M,,*5C
$GPRMC,161814.000,A,4308.4449,N,07727.8227,W,31.59,181.65,150921,,,A*44
$GPGGA,161814.250,4308.4427,N,07727.8228,W,1,07,1.21,151.4,M,-34.4,M,,*57
$GPRMC,161814.500,A,4308.4405,N,07727.8229,W,31.67,181.91,150921,,,A*41
$GPGGA,161814.750,4308.4382,N,07727.8230,W,1,07,1.21,151.5,M,-34.4,M,,*52
$GPRMC,161815.000,A,4308.4359,N,07727.8231,W,31.77,181.88,150921,,,A*4B
$GPGGA,161815.250,4308.4336,N,07727.8232,W,1,07,1.21,151.5,M,-34.4,M,,*5B
$GPRMC,161815.500,A,4308.4314,N,07727.8233,W,31.98,181.95,150921,,,A*48
$GPGGA,161815.750,4308.4291,N,07727.8234,W,1,07,1.21,151.5,M,-34.4,M,,*54
$GPRMC,161816.000,A,4308.4268,N,07727.8235,W,32.08,181.65,150921,,,A*47
$GPGGA,161816.250,4308.4246,N,07727.8235,W,1,07,1.21,151.4,M,-34.4,M,,*58
$GPRMC,161816.500,A,4308.4223,N,07727.8236,W,31.84,181.52,150921,,,A*4D
$GPGGA,161816.750,4308.4201,N,07727.8237,W,1,07,1.21,151.3,M,-34.4,M,,*5B
$GPRMC,161817.000,A,4308.4179,N,07727.8238,W,31.69,181.18,150921,,,A*46
$GPGGA,161817.250,4308.4156,N,07727.8238,W,1,07,1.21,151.3,M,-34.4,M,,*51
$GPRMC,161817.500,A,4308.4134,N,07727.8239,W,31.95,181.04,150921,,,A*45
$GPGGA,161817.750,4308.4111,N,07727.8239,W,1,07,1.21,151.4,M,-34.4,M,,*51
$GPRMC,161818.000,A,4308.4089,N,07727.8240,W,32.46,180.94,150921,,,A*43
$GPGGA,161818.250,4308.4066,N,07727.8240,W,1,07,1.20,151.4,M,-34.4,M,,*55
$GPRMC,161818.500,A,4308.4043,N,07727.8240,W,32.76,180.96,150921,,,A*41
$GPGGA,161818.750,4308.4020,N,07727.8241,W,1,07,1.21,151.3,M,-34.4,M,,*55
$GPRMC,161819.000,A,4308.3997,N,07727.8241,W,32.81,181.10,150921,,,A*44
$GPGGA,161819.250,4308.3974,N,07727.8242,W,1,07,1.21,151.3,M,-34.4,M,,*5D
$GPRMC,161819.500,A,4308.3951,N,07727.8243,W,33.10,180.94,150921,,,A*4D
$GPGGA,161819.750,4308.3928,N,07727.8243,W,1,07,1.21,151.3,M,-34.4,M,,*50
$GPRMC,161820.000,A,4308.3905,N,07727.8244,W,33.45,181.22,150921,,,A*48
$GPGGA,161820.250,4308.3882,N,07727.8244,W,1,07,1.21,151.3,M,-34.4,M,,*59
$GPRMC,161820.500,A,4308.3859,N,07727.8245,W,33.57,181.31,150921,,,A*45
$GPGGA,161820.750,4308.3835,N,07727.8246,W,1,07,1.21,151.4,M,-34.4,M,,*55
$GPRMC,161821.000,A,4308.3812,N,07727.8247,W,33.38,181.93,150921,,,A*4D
$GPGGA,161821.250,4308.3789,N,07727.8248,W,1,07,1.21,151.4,M,-34.4,M,,*57
$GPRMC,161821.500,A,4308.3765,N,07727.8249,W,33.61,181.58,150921,,,A*42
$GPGGA,161821.750,4308.3742,N,07727.8249,W,1,07,1.21,151.4,M,-34.4,M,,*54
$GPRMC,161822.000,A,4308.3719,N,07727.8250,W,33.62,181.36,150921,,,A*4C
$GPGGA,161822.250,4308.3695,N,07727.8251,W,1,07,1.20,151.6,M,-34.4,M,,*53
$GPRMC,161822.500,A,4308.3672,N,07727.8251,W,33.61,181.49,150921,,,A*4F
$GPGGA,161822.750,4308.3648,N,07727.8252,W,1,07,1.21,151.6,M,-34.4,M,,*54
$GPRMC,161823.000,A,4308.3625,N,07727.8253,W,33.65,181.52,150921,,,A*45
$GPGGA,161823.250,4308.3601,N,07727.8254,W,1,07,1.20,151.7,M,-34.4,M,,*5B
$GPRMC,161823.500,A,4308.3578,N,07727.8254,W,33.69,181.17,150921,,,A*41
$GPGGA,161823.750,4308.3554,N,07727.8255,W,1,07,1.21,151.9,M,-34.4,M,,*53
$GPRMC,161824.000,A,4308.3530,N,07727.8255,W,33.72,180.97,150921,,,A*4D
$GPGGA,161824.250,4308.3507,N,07727.8256,W,1,07,1.20,152.0,M,-34.4,M,,*5F
$GPRMC,161824.500,A,4308.3484,N,07727.8257,W,33.61,181.43,150921,,,A*4E
$GPGGA,161824.750,4308.3462,N,07727.8258,W,1,07,1.21,151.9,M,-34.4,M,,*5D
$GPRMC,161825.000,A,4308.3439,N,07727.8259,W,33.16,181.76,150921,,,A*44
$GPGGA,161825.250,4308.3417,N,07727.8260,W,1,07,1.21,152.0,M,-34.4,M,,*5A
$GPRMC,161825.500,A,4308.3395,N,07727.8261,W,32.09,181.55,150921,,,A*45
$GPGGA,161825.750,4308.3373,N,07727.8261,W,1,07,1.21,152.1,M,-34.4,M,,*5A
$GPRMC,161826.000,A,4308.3351,N,07727.8262,W,31.68,181.60,150921,,,A*4A
$GPGGA,161826.250,4308.3329,N,07727.8263,W,1,07,1.21,152.2,M,-34.4,M,,*52
$GPRMC,161826.500,A,4308.3307,N,07727.8264,W,31.36,181.66,150921,,,A*47
$GPGGA,161826.750,4308.3286,N,07727.8265,W,1,07,1.21,152.1,M,-34.4,M,,*56
$GPRMC,161827.000,A,4308.3265,N,07727.8266,W,30.90,181.76,150921,,,A*48
$GPGGA,161827.250,4308.3243,N,07727.8267,W,1,07,1.21,152.0,M,-34.4,M,,*58
$GPRMC,161827.500,A,4308.3222,N,07727.8268,W,30.76,181.49,150921,,,A*44
$GPGGA,161827.750,4308.3201,N,07727.8269,W,1,07,1.21,152.1,M,-34.4,M,,*54
$GPRMC,161828.000,A,4308.3180,N,07727.8269,W,30.11,181.01,150921,,,A*49
$GPGGA,161828.250,4308.3159,N,07727.8269,W,1,07,1.21,152.1,M,-34.4,M,,*50
$GPRMC,161828.500,A,4308.3139,N,07727.8270,W,30.09,181.30,150921,,,A*4D
$GPGGA,161828.750,4308.3118,N,07727.8271,W,1,07,1.21,152.1,M,-34.4,M,,*59
$GPRMC,161829.000,A,4308.3097,N,07727.8271,W,29.70,180.86,150921,,,A*47
$GPGGA,161829.250,4308.3077,N,07727.8271,W,1,07,1.21,151.9,M,-34.4,M,,*5E
$GPRMC,161829.500,A,4308.3057,N,07727.8272,W,29.41,180.90,150921,,,A*48
$GPGGA,161829.750,4308.3037,N,07727.8273,W,1,07,1.21,151.7,M,-34.4,M,,*53
$GPRMC,161830.000,A,4308.3017,N,07727.8273,W,29.18,180.95,150921,,,A*49
$GPGGA,161830.250,4308.2997,N,07727.8274,W,1,07,1.21,151.6,M,-34.4,M,,*5A
$GPRMC,161830.500,A,4308.2977,N,07727.8275,W,29.04,181.17,150921,,,A*42
$GPGGA,161830.750,4308.2957,N,07727.8276,W,1,07,1.21,151.3,M,-34.4,M,,*54
$GPRMC,161831.000,A,4308.2937,N,07727.8277,W,29.01,181.12,150921,,,A*40
$GPGGA,161831.250,4308.2917,N,07727.8278,W,1,07,1.21,151.1,M,-34.4,M,,*58
$GPRMC,161831.500,A,4308.2896,N,07727.8279,W,29.38,181.22,150921,,,A*48
$GPGGA,161831.750,4308.2875,N,07727.8280,W,1,07,1.21,151.0,M,-34.4,M,,*5E
$GPRMC,161832.000,A,4308.2854,N,07727.8281,W,30.68,181.03,150921,,,A*49
$GPGGA,161832.250,4308.2833,N,07727.8281,W,1,07,1.21,150.9,M,-34.4,M,,*53
$GPRMC,161832.500,A,4308.2812,N,07727.8282,W,30.82,180.95,150921,,,A*47
$GPGGA,161832.750,4308.2791,N,07727.8283,W,1,07,1.21,150.8,M,-34.4,M,,*52
$GPRMC,161833.000,A,4308.2770,N,07727.8284,W,31.04,180.86,150921,,,A*43
$GPGGA,161833.250,4308.2748,N,07727.8284,W,1,07,1.21,150.7,M,-34.4,M,,*5A
$GPRMC,161833.500,A,4308.2726,N,07727.8285,W,31.21,180.79,150921,,,A*43
$GPGGA,161833.750,4308.2704,N,07727.8286,W,1,07,1.21,150.6,M,-34.4,M,,*54
$GPRMC,161834.000,A,4308.2682,N,07727.8286,W,31.38,181.09,150921,,,A*43
$GPGGA,161834.250,4308.2660,N,07727.8287,W,1,07,1.21,150.8,M,-34.4,M,,*5A
$GPRMC,161834.500,A,4308.2638,N,07727.8288,W,31.54,181.51,150921,,,A*4E
$GPGGA,161834.750,4308.2616,N,07727.8289,W,1,07,1.21,150.8,M,-34.4,M,,*50
$GPRMC,161835.000,A,4308.2594,N,07727.8290,W,32.16,181.44,150921,,,A*47
$GPGGA,161835.250,4308.2572,N,07727.8291,W,1,07,1.21,150.8,M,-34.4,M,,*5C
$GPRMC,161835.500,A,4308.2549,N,07727.8291,W,32.22,181.49,150921,,,A*49
$GPGGA,161835.750,4308.2527,N,07727.8292,W,1,07,1.21,150.8,M,-34.4,M,,*5A
$GPRMC,161836.000,A,4308.2504,N,07727.8293,W,32.63,181.27,150921,,,A*49
$GPGGA,161836.250,4308.2482,N,07727.8293,W,1,07,1.21,150.8,M,-34.4,M,,*53
$GPRMC,161836.500,A,4308.2459,N,07727.8294,W,32.81,181.21,150921,,,A*48
$GPGGA,161836.750,4308.2436,N,07727.8295,W,1,07,1.21,150.9,M,-34.4,M,,*5E
$GPRMC,161837.000,A,4308.2414,N,07727.8295,W,32.83,181.17,150921,,,A*43
$GPGGA,161837.250,4308.2391,N,07727.8296,W,1,07,1.21,151.0,M,-34.4,M,,*5B
$GPRMC,161837.500,A,4308.2368,N,07727.8297,W,33.21,181.25,150921,,,A*40
$GPGGA,161837.750,4308.2345,N,07727.8297,W,1,07,1.21,151.1,M,-34.4,M,,*57
$GPRMC,161838.000,A,4308.2322,N,07727.8298,W,33.23,181.26,150921,,,A*4A
$GPGGA,161838.250,4308.2299,N,07727.8299,W,1,07,1.21,151.0,M,-34.4,M,,*52
$GPRMC,161838.500,A,4308.2276,N,07727.8300,W,33.22,181.16,150921,,,A*4D
$GPGGA,161838.750,4308.2253,N,07727.8301,W,1,07,1.21,150.8,M,-34.4,M,,*58
$GPRMC,161839.000,A,4308.2230,N,07727.8302,W,33.22,181.05,150921,,,A*4B
$GPGGA,161839.250,4308.2207,N,07727.8303,W,1,07,1.21,150.7,M,-34.4,M,,*50
$GPRMC,161839.500,A,4308.2184,N,07727.8303,W,33.50,180.69,150921,,,A*4D
$GPGGA,161839.750,4308.2160,N,07727.8304,W,1,07,1.21,150.5,M,-34.4,M,,*52
$GPRMC,161840.000,A,4308.2137,N,07727.8304,W,33.47,180.74,150921,,,A*43
$GPGGA,161840.250,4308.2114,N,07727.8305,W,1,07,1.21,150.4,M,-34.4,M,,*5A
$GPRMC,161840.500,A,4308.2091,N,07727.8306,W,33.27,181.07,150921,,,A*4A
$GPGGA,161840.750,4308.2067,N,07727.8306,W,1,07,1.21,150.3,M,-34.4,M,,*5E
$GPRMC,161841.000,A,4308.2044,N,07727.8307,W,33.33,181.18,150921,,,A*4C
$GPGGA,161841.250,4308.2021,N,07727.8308,W,1,07,1.21,150.0,M,-34.4,M,,*55
$GPRMC,161841.500,A,4308.1997,N,07727.8309,W,33.39,180.99,150921,,,A*41
$GPGGA,161841.750,4308.1974,N,07727.8310,W,1,07,1.21,149.8,M,-34.4,M,,*53
$GPRMC,161842.000,A,4308.1951,N,07727.8310,W,33.48,180.87,150921,,,A*4C
$GPGGA,161842.250,4308.1927,N,07727.8311,W,1,07,1.21,149.6,M,-34.4,M,,*5C
$GPRMC,161842.500,A,4308.1904,N,07727.8311,W,33.32,180.72,150921,,,A*4F
$GPGGA,161842.750,4308.1881,N,07727.8312,W,1,07,1.21,149.4,M,-34.4,M,,*55
$GPRMC,161843.000,A,4308.1857,N,07727.8313,W,33.31,180.90,150921,,,A*41
$GPGGA,161843.250,4308.1834,N,07727.8313,W,1,07,1.21,149.3,M,-34.4,M,,*59
$GPRMC,161843.500,A,4308.1811,N,07727.8313,W,33.28,180.93,150921,,,A*4D
$GPGGA,161843.750,4308.1788,N,07727.8314,W,1,07,1.21,149.1,M,-34.4,M,,*51
$GPRMC,161844.000,A,4308.1765,N,07727.8315,W,32.90,180.71,150921,,,A*4B
$GPGGA,161844.250,4308.1742,N,07727.8316,W,1,07,1.21,148.6,M,-34.4,M,,*51
$GPRMC,161844.500,A,4308.1720,N,07727.8317,W,32.63,180.92,150921,,,A*4C
$GPGGA,161844.750,4308.1697,N,07727.8317,W,1,07,1.21,148.3,M,-34.4,M,,*59
$GPRMC,161845.000,A,4308.1674,N,07727.8317,W,32.21,180.88,150921,,,A*45
$GPGGA,161845.250,4308.1652,N,07727.8318,W,1,07,1.21,148.4,M,-34.4,M,,*5C
$GPRMC,161845.500,A,4308.1629,N,07727.8318,W,31.96,181.24,150921,,,A*4F
$GPGGA,161845.750,4308.1607,N,07727.8318,W,1,07,1.21,148.6,M,-34.4,M,,*5B
$GPRMC,161846.000,A,4308.1585,N,07727.8319,W,31.54,180.90,150921,,,A*4D
$GPGGA,161846.250,4308.1563,N,07727.8319,W,1,07,1.21,148.7,M,-34.4,M,,*5C
$GPRMC,161846.500,A,4308.1541,N,07727.8319,W,31.18,180.97,150921,,,A*4F
$GPGGA,161846.750,4308.1519,N,07727.8320,W,1,07,1.21,148.6,M,-34.4,M,,*5F
$GPRMC,161847.000,A,4308.1498,N,07727.8321,W,30.91,180.94,150921,,,A*46
$GPGGA,161847.250,4308.1476,N,07727.8321,W,1,07,1.21,148.7,M,-34.4,M,,*53
$GPRMC,161847.500,A,4308.1455,N,07727.8322,W,30.80,181.03,150921,,,A*4E
$GPGGA,161847.750,4308.1433,N,07727.8322,W,1,07,1.21,148.7,M,-34.4,M,,*54
$GPRMC,161848.000,A,4308.1412,N,07727.8322,W,30.55,181.37,150921,,,A*48
$GPGGA,161848.250,4308.1391,N,07727.8323,W,1,07,1.21,148.7,M,-34.4,M,,*50
$GPRMC,161848.500,A,4308.1370,N,07727.8324,W,30.42,181.52,150921,,,A*4D
$GPGGA,161848.750,4308.1349,N,07727.8324,W,1,07,1.21,148.6,M,-34.4,M,,*56
$GPRMC,161849.000,A,4308.1329,N,07727.8325,W,30.22,181.52,150921,,,A*42
$GPGGA,161849.250,4308.1308,N,07727.8326,W,1,07,1.21,148.7,M,-34.4,M,,*54
$GPRMC,161849.500,A,4308.1288,N,07727.8326,W,28.91,181.32,150921,,,A*49
$GPGGA,161849.750,4308.1268,N,07727.8327,W,1,07,1.21,148.7,M,-34.4,M,,*57
$GPRMC,161850.000,A,4308.1249,N,07727.8328,W,28.58,181.10,150921,,,A*42
$GPGGA,161850.250,4308.1229,N,07727.8328,W,1,07,1.21,148.8,M,-34.4,M,,*5F
$GPRMC,161850.500,A,4308.1210,N,07727.8328,W,27.12,180.57,150921,,,A*48
$GPGGA,161850.750,4308.1192,N,07727.8328,W,1,07,1.21,148.9,M,-34.4,M,,*58
$GPRMC,161851.000,A,4308.1174,N,07727.8329,W,25.54,180.17,150921,,,A*48
$GPGGA,161851.250,4308.1157,N,07727.8328,W,1,07,1.20,148.9,M,-34.4,M,,*54
$GPRMC,161851.500,A,4308.1140,N,07727.8328,W,23.95,179.60,150921,,,A*46
$GPGGA,161851.750,4308.1125,N,07727.8328,W,1,07,1.21,149.0,M,-34.4,M,,*5D
$GPRMC,161852.000,A,4308.1110,N,07727.8328,W,21.92,179.66,150921,,,A*46
$GPGGA,161852.250,4308.1096,N,07727.8328,W,1,07,1.21,149.1,M,-34.4,M,,*53
$GPRMC,161852.500,A,4308.1082,N,07727.8328,W,19.83,179.45,150921,,,A*43
$GPGGA,161852.750,4308.1070,N,07727.8328,W,1,07,1.21,149.2,M,-34.4,M,,*5D
$GPRMC,161853.000,A,4308.1059,N,07727.8328,W,17.19,179.16,150921,,,A*4A
$GPGGA,161853.250,4308.1048,N,07727.8328,W,1,07,1.20,149.3,M,-34.4,M,,*52
$GPRMC,161853.500,A,4308.1039,N,07727.8328,W,14.12,178.88,150921,,,A*47
$GPGGA,161853.750,4308.1031,N,07727.8328,W,1,07,1.21,149.4,M,-34.4,M,,*5F
$GPRMC,161854.000,A,4308.1024,N,07727.8332,W,11.50,185.87,150921,,,A*4C
$GPGGA,161854.250,4308.1017,N,07727.8334,W,1,07,1.20,149.5,M,-34.4,M,,*54
$GPRMC,161854.500,A,4308.1009,N,07727.8338,W,10.80,193.20,150921,,,A*4A
$GPGGA,161854.750,4308.1004,N,07727.8342,W,1,07,1.21,149.7,M,-34.4,M,,*51
$GPRMC,161855.000,A,4308.0999,N,07727.8350,W,10.15,204.16,150921,,,A*45
$GPGGA,161855.250,4308.0995,N,07727.8357,W,1,07,1.21,149.7,M,-34.4,M,,*51
$GPRMC,161855.500,A,4308.0993,N,07727.8364,W,9.47,223.99,150921,,,A*70
$GPGGA,161855.750,4308.0991,N,07727.8372,W,1,07,1.21,149.6,M,-34.4,M,,*56
$GPRMC,161856.000,A,4308.0989,N,07727.8380,W,9.43,235.49,150921,,,A*79
$GPGGA,161856.250,4308.0986,N,07727.8388,W,1,07,1.20,149.8,M,-34.4,M,,*5C
$GPRMC,161856.500,A,4308.0984,N,07727.8396,W,9.54,242.06,150921,,,A*7B
$GPGGA,161856.750,4308.0983,N,07727.8405,W,1,07,1.21,150.1,M,-34.4,M,,*5E
$GPRMC,161857.000,A,4308.0984,N,07727.8415,W,10.09,255.19,150921,,,A*4B
$GPGGA,161857.250,4308.0983,N,07727.8424,W,1,07,1.21,150.3,M,-34.4,M,,*5B
$GPRMC,161857.500,A,4308.0983,N,07727.8435,W,10.66,260.09,150921,,,A*45
$GPGGA,161857.750,4308.0983,N,07727.8446,W,1,07,1.21,150.6,M,-34.4,M,,*5F
$GPRMC,161858.000,A,4308.0984,N,07727.8457,W,11.37,263.94,150921,,,A*4E
$GPGGA,161858.250,4308.0984,N,07727.8468,W,1,07,1.20,150.9,M,-34.4,M,,*50
$GPRMC,161858.500,A,4308.0985,N,07727.8482,W,12.45,267.67,150921,,,A*4C
$GPGGA,161858.750,4308.0987,N,07727.8496,W,1,07,1.21,150.9,M,-34.4,M,,*56
$GPRMC,161859.000,A,4308.0988,N,07727.8510,W,13.87,270.32,150921,,,A*46
$GPGGA,161859.250,4308.0989,N,07727.8525,W,1,07,1.21,151.0,M,-34.4,M,,*5D
$GPRMC,161859.500,A,4308.0990,N,07727.8540,W,14.88,270.89,150921,,,A*47
$GPGGA,161859.750,4308.0990,N,07727.8556,W,1,07,1.21,151.2,M,-34.4,M,,*56
$GPRMC,161900.000,A,4308.0991,N,07727.8573,W,16.31,270.79,150921,,,A*41
$GPGGA,161900.250,4308.0992,N,07727.8589,W,1,07,1.21,151.3,M,-34.4,M,,*5F
$GPRMC,161900.500,A,4308.0993,N,07727.8606,W,17.05,271.40,150921,,,A*4A
$GPGGA,161900.750,4308.0993,N,07727.8625,W,1,07,1.21,151.4,M,-34.4,M,,*59
$GPRMC,161901.000,A,4308.0994,N,07727.8643,W,18.12,270.82,150921,,,A*4E
$GPGGA,161901.250,4308.0994,N,07727.8662,W,1,07,1.21,151.4,M,-34.4,M,,*59
$GPRMC,161901.500,A,4308.0995,N,07727.8681,W,18.97,270.38,150921,,,A*48
$GPGGA,161901.750,4308.0996,N,07727.8700,W,1,07,1.21,151.4,M,-34.4,M,,*5B
$GPRMC,161902.000,A,4308.0997,N,07727.8719,W,19.59,271.81,150921,,,A*4C
