Vers 81
USE_SERIAL_FEEDBACK=true
DEVELOPMENT_MODE=false
USE_RMC_ONLY=false

$GPRMC,204004.750,A,3555.4587,N,08401.9451,W,0.07,45.09,250721,,,A*4C
$GPGGA,204005.000,3555.4586,N,08401.9452,W,1,06,1.82,329.5,M,-32.1,M,,*5E
$GPRMC,204005.250,A,3555.4585,N,08401.9452,W,0.02,327.08,250721,,,A*7A
$GPGGA,204005.500,3555.4584,N,08401.9452,W,1,06,1.82,329.3,M,-32.1,M,,*5F
$GPRMC,204005.750,A,3555.4584,N,08401.9453,W,0.03,345.08,250721,,,A*7A
$GPGGA,204006.000,3555.4584,N,08401.9454,W,1,06,2.56,329.3,M,-32.1,M,,*55
$GPRMC,204006.250,A,3555.4584,N,08401.9454,W,0.04,225.53,250721,,,A*75
$GPGGA,204006.500,3555.4583,N,08401.9454,W,1,06,1.82,329.2,M,-32.1,M,,*5C
$GPRMC,204006.750,A,3555.4583,N,08401.9455,W,0.03,105.07,250721,,,A*71
$GPGGA,204007.000,3555.4582,N,08401.9455,W,1,06,1.82,329.1,M,-32.1,M,,*5B
$GPRMC,204007.250,A,3555.4582,N,08401.9456,W,0.06,144.48,250721,,,A*7C
$GPGGA,204007.500,3555.4582,N,08401.9456,W,1,06,1.82,329.0,M,-32.1,M,,*5C
$GPRMC,204007.750,A,3555.4581,N,08401.9457,W,0.02,7.27,250721,,,A*70
$GPGGA,204008.000,3555.4581,N,08401.9457,W,1,06,2.57,328.9,M,-32.1,M,,*57
$GPRMC,204008.250,A,3555.4580,N,08401.9458,W,0.03,96.51,250721,,,A*4C
$GPGGA,204008.500,3555.4580,N,08401.9458,W,1,06,1.82,328.8,M,-32.1,M,,*56
$GPRMC,204008.750,A,3555.4580,N,08401.9459,W,0.03,59.37,250721,,,A*4B
$GPGGA,204009.000,3555.4579,N,08401.9459,W,1,06,1.82,328.7,M,-32.1,M,,*5A
$GPRMC,204009.250,A,3555.4579,N,08401.9459,W,0.03,139.77,250721,,,A*7A
$GPGGA,204009.500,3555.4579,N,08401.9460,W,1,06,1.83,328.7,M,-32.1,M,,*54
$GPRMC,204009.750,A,3555.4579,N,08401.9460,W,0.03,295.28,250721,,,A*7A
$GPGGA,204010.000,3555.4578,N,08401.9460,W,1,06,1.82,328.6,M,-32.1,M,,*58
$GPRMC,204010.250,A,3555.4578,N,08401.9460,W,0.04,93.08,250721,,,A*47
$GPGGA,204010.500,3555.4578,N,08401.9461,W,1,06,1.82,328.5,M,-32.1,M,,*5F
$GPRMC,204010.750,A,3555.4577,N,08401.9461,W,0.02,229.86,250721,,,A*7F
$GPGGA,204011.000,3555.4577,N,08401.9461,W,1,06,1.82,328.4,M,-32.1,M,,*55
$GPRMC,204011.250,A,3555.4577,N,08401.9461,W,0.01,6.52,250721,,,A*7E
$GPGGA,204011.500,3555.4577,N,08401.9461,W,1,06,2.57,328.4,M,-32.1,M,,*5B
$GPRMC,204011.750,A,3555.4576,N,08401.9461,W,0.03,65.26,250721,,,A*4E
$GPGGA,204012.000,3555.4576,N,08401.9462,W,1,06,1.82,328.2,M,-32.1,M,,*52
$GPRMC,204012.250,A,3555.4575,N,08401.9462,W,0.03,254.54,250721,,,A*7D
$GPGGA,204012.500,3555.4575,N,08401.9462,W,1,06,1.82,328.1,M,-32.1,M,,*57
$GPRMC,204012.750,A,3555.4575,N,08401.9462,W,0.04,110.97,250721,,,A*73
$GPGGA,204013.000,3555.4575,N,08401.9463,W,1,06,1.83,328.0,M,-32.1,M,,*52
$GPRMC,204013.250,A,3555.4575,N,08401.9463,W,0.03,69.57,250721,,,A*42
$GPGGA,204013.500,3555.4574,N,08401.9463,W,1,06,1.82,327.9,M,-32.1,M,,*51
$GPRMC,204013.750,A,3555.4574,N,08401.9463,W,0.03,102.98,250721,,,A*79
$GPGGA,204014.000,3555.4574,N,08401.9463,W,1,06,1.83,327.9,M,-32.1,M,,*52
$GPRMC,204014.250,A,3555.4574,N,08401.9463,W,0.01,20.10,250721,,,A*48
$GPGGA,204014.500,3555.4574,N,08401.9463,W,1,06,1.83,327.8,M,-32.1,M,,*56
$GPRMC,204014.750,A,3555.4573,N,08401.9463,W,0.03,227.63,250721,,,A*79
$GPGGA,204015.000,3555.4573,N,08401.9463,W,1,06,1.83,327.7,M,-32.1,M,,*5A
$GPRMC,204015.250,A,3555.4573,N,08401.9463,W,0.03,96.65,250721,,,A*43
$GPGGA,204015.500,3555.4573,N,08401.9463,W,1,06,1.82,327.6,M,-32.1,M,,*5F
$GPRMC,204015.750,A,3555.4573,N,08401.9463,W,0.03,277.03,250721,,,A*7B
$GPGGA,204016.000,3555.4572,N,08401.9463,W,1,06,1.83,327.4,M,-32.1,M,,*5B
$GPRMC,204016.250,A,3555.4572,N,08401.9463,W,0.01,142.21,250721,,,A*7B
$GPGGA,204016.500,3555.4572,N,08401.9463,W,1,06,1.83,327.3,M,-32.1,M,,*59
$GPRMC,204016.750,A,3555.4572,N,08401.9463,W,0.02,292.00,250721,,,A*70
$GPGGA,204017.000,3555.4572,N,08401.9463,W,1,06,1.83,327.2,M,-32.1,M,,*5C
$GPRMC,204017.250,A,3555.4572,N,08401.9464,W,0.05,357.27,250721,,,A*79
$GPGGA,204017.500,3555.4572,N,08401.9464,W,1,06,2.57,327.2,M,-32.1,M,,*54
$GPRMC,204017.750,A,3555.4571,N,08401.9464,W,0.04,168.73,250721,,,A*71
$GPGGA,204018.000,3555.4571,N,08401.9464,W,1,06,1.83,327.1,M,-32.1,M,,*54
$GPRMC,204018.250,A,3555.4571,N,08401.9464,W,0.03,222.84,250721,,,A*79
$GPGGA,204018.500,3555.4571,N,08401.9464,W,1,06,1.83,327.1,M,-32.1,M,,*51
$GPRMC,204018.750,A,3555.4572,N,08401.9464,W,0.06,333.69,250721,,,A*78
$GPGGA,204019.000,3555.4572,N,08401.9464,W,1,06,1.83,327.0,M,-32.1,M,,*57
$GPRMC,204019.250,A,3555.4572,N,08401.9464,W,0.04,149.33,250721,,,A*7E
$GPGGA,204019.500,3555.4572,N,08401.9464,W,1,06,1.83,327.0,M,-32.1,M,,*52
$GPRMC,204019.750,A,3555.4572,N,08401.9464,W,0.03,111.19,250721,,,A*79
$GPGGA,204020.000,3555.4572,N,08401.9464,W,1,06,1.83,326.9,M,-32.1,M,,*55
$GPRMC,204020.250,A,3555.4572,N,08401.9464,W,0.03,252.43,250721,,,A*7D
$GPGGA,204020.500,3555.4571,N,08401.9464,W,1,06,1.83,326.9,M,-32.1,M,,*53
$GPRMC,204020.750,A,3555.4571,N,08401.9464,W,0.04,51.57,250721,,,A*48
$GPGGA,204021.000,3555.4572,N,08401.9464,W,1,06,1.83,326.8,M,-32.1,M,,*55
$GPRMC,204021.250,A,3555.4572,N,08401.9464,W,0.05,345.47,250721,,,A*79
$GPGGA,204021.500,3555.4571,N,08401.9464,W,1,06,2.57,326.8,M,-32.1,M,,*59
$GPRMC,204021.750,A,3555.4571,N,08401.9464,W,0.03,187.09,250721,,,A*7F
$GPGGA,204022.000,3555.4571,N,08401.9464,W,1,06,1.83,326.7,M,-32.1,M,,*5A
$GPRMC,204022.250,A,3555.4571,N,08401.9464,W,0.01,2.44,250721,,,A*7E
$GPGGA,204022.500,3555.4571,N,08401.9464,W,1,06,2.57,326.7,M,-32.1,M,,*55
$GPRMC,204022.750,A,3555.4571,N,08401.9464,W,0.05,166.76,250721,,,A*7D
$GPGGA,204023.000,3555.4571,N,08401.9465,W,1,06,1.83,326.6,M,-32.1,M,,*5B
$GPRMC,204023.250,A,3555.4571,N,08401.9465,W,0.03,35.08,250721,,,A*40
$GPGGA,204023.500,3555.4571,N,08401.9465,W,1,06,1.83,326.6,M,-32.1,M,,*5E
$GPRMC,204023.750,A,3555.4571,N,08401.9465,W,0.04,27.42,250721,,,A*4F
$GPGGA,204024.000,3555.4571,N,08401.9465,W,1,06,1.83,326.6,M,-32.1,M,,*5C
$GPRMC,204024.250,A,3555.4571,N,08401.9465,W,0.04,265.50,250721,,,A*7A
$GPGGA,204024.500,3555.4571,N,08401.9465,W,1,06,1.83,326.6,M,-32.1,M,,*59
$GPRMC,204024.750,A,3555.4571,N,08401.9465,W,0.03,63.66,250721,,,A*49
$GPGGA,204025.000,3555.4571,N,08401.9465,W,1,06,1.83,326.6,M,-32.1,M,,*5D
$GPRMC,204025.250,A,3555.4571,N,08401.9465,W,0.02,31.51,250721,,,A*4F
$GPGGA,204025.500,3555.4571,N,08401.9465,W,1,06,1.83,326.6,M,-32.1,M,,*58
$GPRMC,204025.750,A,3555.4571,N,08401.9465,W,0.05,187.62,250721,,,A*71
$GPGGA,204026.000,3555.4571,N,08401.9465,W,1,06,1.83,326.6,M,-32.1,M,,*5E
$GPRMC,204026.250,A,3555.4571,N,08401.9465,W,0.01,50.60,250721,,,A*4A
$GPGGA,204026.500,3555.4571,N,08401.9465,W,1,06,1.83,326.6,M,-32.1,M,,*5B
$GPRMC,204026.750,A,3555.4571,N,08401.9465,W,0.03,9.55,250721,,,A*77
$GPGGA,204027.000,3555.4571,N,08401.9465,W,1,06,2.57,326.6,M,-32.1,M,,*55
$GPRMC,204027.250,A,3555.4571,N,08401.9465,W,0.03,355.30,250721,,,A*7A
$GPGGA,204027.500,3555.4571,N,08401.9465,W,1,06,2.58,326.6,M,-32.1,M,,*5F
$GPRMC,204027.750,A,3555.4571,N,08401.9465,W,0.03,109.15,250721,,,A*73
$GPGGA,204028.000,3555.4571,N,08401.9465,W,1,06,1.83,326.6,M,-32.1,M,,*50
$GPRMC,204028.250,A,3555.4571,N,08401.9465,W,0.03,17.70,250721,,,A*44
$GPGGA,204028.500,3555.4571,N,08401.9465,W,1,06,1.83,326.6,M,-32.1,M,,*55
$GPRMC,204028.750,A,3555.4571,N,08401.9465,W,0.01,14.36,250721,,,A*42
$GPGGA,204029.000,3555.4571,N,08401.9465,W,1,06,2.58,326.6,M,-32.1,M,,*54
$GPRMC,204029.250,A,3555.4571,N,08401.9465,W,0.03,7.89,250721,,,A*72
$GPGGA,204029.500,3555.4571,N,08401.9465,W,1,06,2.57,326.6,M,-32.1,M,,*5E
$GPRMC,204029.750,A,3555.4571,N,08401.9465,W,0.03,12.28,250721,,,A*48
$GPGGA,204030.000,3555.4571,N,08401.9465,W,1,06,2.58,326.6,M,-32.1,M,,*5C
$GPRMC,204030.250,A,3555.4571,N,08401.9465,W,0.03,102.27,250721,,,A*7A
$GPGGA,204030.500,3555.4571,N,08401.9465,W,1,06,1.83,326.6,M,-32.1,M,,*5C
$GPRMC,204030.750,A,3555.4571,N,08401.9465,W,0.05,24.71,250721,,,A*4F
$GPGGA,204031.000,3555.4571,N,08401.9465,W,1,06,1.83,326.6,M,-32.1,M,,*58
$GPRMC,204031.250,A,3555.4571,N,08401.9465,W,0.02,159.24,250721,,,A*77
$GPGGA,204031.500,3555.4571,N,08401.9465,W,1,06,1.83,326.6,M,-32.1,M,,*5D
$GPRMC,204031.750,A,3555.4571,N,08401.9465,W,0.02,51.31,250721,,,A*4F
$GPGGA,204032.000,3555.4571,N,08401.9465,W,1,06,1.83,326.6,M,-32.1,M,,*5B
$GPRMC,204032.250,A,3555.4571,N,08401.9465,W,0.03,320.75,250721,,,A*7D
$GPGGA,204032.500,3555.4571,N,08401.9465,W,1,06,1.83,326.6,M,-32.1,M,,*5E
$GPRMC,204032.750,A,3555.4571,N,08401.9465,W,0.04,348.14,250721,,,A*76
$GPGGA,204033.000,3555.4571,N,08401.9465,W,1,06,2.58,326.6,M,-32.1,M,,*5F
$GPRMC,204033.250,A,3555.4571,N,08401.9465,W,0.04,89.54,250721,,,A*48
$GPGGA,204033.500,3555.4571,N,08401.9465,W,1,06,1.83,326.6,M,-32.1,M,,*5F
$GPRMC,204033.750,A,3555.4571,N,08401.9465,W,0.00,0.00,250721,,,A*79
$GPGGA,204034.000,3555.4571,N,08401.9465,W,1,06,2.58,326.6,M,-32.1,M,,*58
$GPRMC,204034.250,A,3555.4571,N,08401.9465,W,0.00,131.04,250721,,,A*7C
$GPGGA,204034.500,3555.4571,N,08401.9465,W,1,06,1.83,326.6,M,-32.1,M,,*58
$GPRMC,204034.750,A,3555.4571,N,08401.9465,W,0.03,33.27,250721,,,A*48
$GPGGA,204035.000,3555.4571,N,08401.9465,W,1,06,1.83,326.6,M,-32.1,M,,*5C
$GPRMC,204035.250,A,3555.4571,N,08401.9465,W,0.03,104.14,250721,,,A*79
$GPGGA,204035.500,3555.4571,N,08401.9465,W,1,06,1.83,326.6,M,-32.1,M,,*59
$GPRMC,204035.750,A,3555.4571,N,08401.9465,W,0.02,22.11,250721,,,A*4D
$GPGGA,204036.000,3555.4571,N,08401.9465,W,1,06,1.83,326.5,M,-32.1,M,,*5C
$GPRMC,204036.250,A,3555.4571,N,08401.9465,W,0.03,228.27,250721,,,A*77
$GPGGA,204036.500,3555.4571,N,08401.9465,W,1,06,1.83,326.5,M,-32.1,M,,*59
$GPRMC,204036.750,A,3555.4571,N,08401.9465,W,0.02,216.98,250721,,,A*7A
$GPGGA,204037.000,3555.4571,N,08401.9465,W,1,06,1.83,326.5,M,-32.1,M,,*5D
$GPRMC,204037.250,A,3555.4571,N,08401.9465,W,0.01,312.33,250721,,,A*79
$GPGGA,204037.500,3555.4571,N,08401.9465,W,1,06,1.83,326.5,M,-32.1,M,,*58
$GPRMC,204037.750,A,3555.4571,N,08401.9465,W,0.03,79.41,250721,,,A*45
$GPGGA,204038.000,3555.4571,N,08401.9465,W,1,06,1.83,326.5,M,-32.1,M,,*52
$GPRMC,204038.250,A,3555.4571,N,08401.9465,W,0.04,194.62,250721,,,A*7B
$GPGGA,204038.500,3555.4571,N,08401.9465,W,1,06,1.83,326.5,M,-32.1,M,,*57
$GPRMC,204038.750,A,3555.4571,N,08401.9465,W,0.03,289.72,250721,,,A*77
$GPGGA,204039.000,3555.4571,N,08401.9465,W,1,06,1.83,326.5,M,-32.1,M,,*53
$GPRMC,204039.250,A,3555.4571,N,08401.9465,W,0.05,42.73,250721,,,A*41
$GPGGA,204039.500,3555.4571,N,08401.9465,W,1,06,1.83,326.5,M,-32.1,M,,*56
$GPRMC,204039.750,A,3555.4571,N,08401.9465,W,0.01,334.52,250721,,,A*71
$GPGGA,204040.000,3555.4571,N,08401.9465,W,1,06,1.83,326.5,M,-32.1,M,,*5D
$GPRMC,204040.250,A,3555.4571,N,08401.9465,W,0.03,211.99,250721,,,A*79
$GPGGA,204040.500,3555.4571,N,08401.9465,W,1,06,1.83,326.5,M,-32.1,M,,*58
$GPRMC,204040.750,A,3555.4571,N,08401.9465,W,0.03,44.31,250721,,,A*4C
$GPGGA,204041.000,3555.4571,N,08401.9465,W,1,06,1.83,326.5,M,-32.1,M,,*5C
$GPRMC,204041.250,A,3555.4571,N,08401.9465,W,0.02,27.32,250721,,,A*4F
$GPGGA,204041.500,3555.4571,N,08401.9465,W,1,06,1.83,326.5,M,-32.1,M,,*59
$GPRMC,204041.750,A,3555.4571,N,08401.9465,W,0.01,236.64,250721,,,A*78
$GPGGA,204042.000,3555.4571,N,08401.9465,W,1,06,1.83,326.5,M,-32.1,M,,*5F
$GPRMC,204042.250,A,3555.4571,N,08401.9465,W,0.01,348.21,250721,,,A*77
$GPGGA,204042.500,3555.4571,N,08401.9465,W,1,06,2.58,326.5,M,-32.1,M,,*5F
$GPRMC,204042.750,A,3555.4571,N,08401.9465,W,0.01,112.04,250721,,,A*78
$GPGGA,204043.000,3555.4571,N,08401.9465,W,1,06,1.83,326.5,M,-32.1,M,,*5E
$GPRMC,204043.250,A,3555.4571,N,08401.9465,W,0.03,165.99,250721,,,A*7A
$GPGGA,204043.500,3555.4571,N,08401.9465,W,1,06,1.83,326.5,M,-32.1,M,,*5B
$GPRMC,204043.750,A,3555.4571,N,08401.9465,W,0.03,83.23,250721,,,A*47
$GPGGA,204044.000,3555.4571,N,08401.9464,W,1,06,1.83,326.5,M,-32.1,M,,*58
$GPRMC,204044.250,A,3555.4571,N,08401.9465,W,0.02,220.63,250721,,,A*7B
$GPGGA,204044.500,3555.4571,N,08401.9465,W,1,06,1.83,326.5,M,-32.1,M,,*5C
$GPRMC,204044.750,A,3555.4571,N,08401.9465,W,0.03,330.71,250721,,,A*7C
$GPGGA,204045.000,3555.4571,N,08401.9465,W,1,06,1.83,326.5,M,-32.1,M,,*58
$GPRMC,204045.250,A,3555.4571,N,08401.9465,W,0.03,6.36,250721,,,A*7D
$GPGGA,204045.500,3555.4571,N,08401.9464,W,1,06,2.58,326.5,M,-32.1,M,,*59
$GPRMC,204045.750,A,3555.4571,N,08401.9464,W,0.04,341.26,250721,,,A*7F
$GPGGA,204046.000,3555.4571,N,08401.9465,W,1,06,1.83,326.5,M,-32.1,M,,*5B
$GPRMC,204046.250,A,3555.4571,N,08401.9465,W,0.04,121.69,250721,,,A*77
$GPGGA,204046.500,3555.4571,N,08401.9464,W,1,06,1.83,326.5,M,-32.1,M,,*5F
$GPRMC,204046.750,A,3555.4571,N,08401.9464,W,0.02,163.37,250721,,,A*78
$GPGGA,204047.000,3555.4571,N,08401.9464,W,1,06,1.83,326.5,M,-32.1,M,,*5B
$GPRMC,204047.250,A,3555.4571,N,08401.9464,W,0.03,108.88,250721,,,A*74
$GPGGA,204047.500,3555.4571,N,08401.9464,W,1,06,1.83,326.5,M,-32.1,M,,*5E
$GPRMC,204047.750,A,3555.4571,N,08401.9464,W,0.03,123.54,250721,,,A*79
$GPGGA,204048.000,3555.4571,N,08401.9464,W,1,06,1.83,326.5,M,-32.1,M,,*54
$GPRMC,204048.250,A,3555.4571,N,08401.9464,W,0.02,351.41,250721,,,A*71
$GPGGA,204048.500,3555.4571,N,08401.9464,W,1,06,2.59,326.5,M,-32.1,M,,*55
$GPRMC,204048.750,A,3555.4571,N,08401.9464,W,0.02,25.77,250721,,,A*41
$GPGGA,204049.000,3555.4571,N,08401.9464,W,1,06,1.84,326.5,M,-32.1,M,,*52
$GPRMC,204049.250,A,3555.4571,N,08401.9464,W,0.03,128.28,250721,,,A*72
$GPGGA,204049.500,3555.4571,N,08401.9464,W,1,06,1.83,326.5,M,-32.1,M,,*50
$GPRMC,204049.750,A,3555.4571,N,08401.9464,W,0.02,219.80,250721,,,A*75
$GPGGA,204050.000,3555.4571,N,08401.9464,W,1,06,1.83,326.5,M,-32.1,M,,*5D
$GPRMC,204050.250,A,3555.4571,N,08401.9464,W,0.06,133.73,250721,,,A*7B
$GPGGA,204050.500,3555.4571,N,08401.9464,W,1,06,1.84,326.5,M,-32.1,M,,*5F
$GPRMC,204050.750,A,3555.4571,N,08401.9464,W,0.03,21.35,250721,,,A*4B
$GPGGA,204051.000,3555.4571,N,08401.9464,W,1,06,1.84,326.5,M,-32.1,M,,*5B
$GPRMC,204051.250,A,3555.4571,N,08401.9464,W,0.02,61.28,250721,,,A*46
$GPGGA,204051.500,3555.4571,N,08401.9464,W,1,06,1.84,326.5,M,-32.1,M,,*5E
$GPRMC,204051.750,A,3555.4571,N,08401.9464,W,0.03,183.95,250721,,,A*79
$GPGGA,204052.000,3555.4571,N,08401.9464,W,1,06,1.84,326.5,M,-32.1,M,,*58
$GPRMC,204052.250,A,3555.4571,N,08401.9464,W,0.01,24.57,250721,,,A*4F
$GPGGA,204052.500,3555.4571,N,08401.9464,W,1,06,1.84,326.5,M,-32.1,M,,*5D
$GPRMC,204052.750,A,3555.4571,N,08401.9464,W,0.02,41.95,250721,,,A*44
$GPGGA,204053.000,3555.4571,N,08401.9464,W,1,06,1.84,326.5,M,-32.1,M,,*59
$GPRMC,204053.250,A,3555.4571,N,08401.9464,W,0.02,192.40,250721,,,A*77
$GPGGA,204053.500,3555.4571,N,08401.9464,W,1,06,1.84,326.5,M,-32.1,M,,*5C
$GPRMC,204053.750,A,3555.4571,N,08401.9464,W,0.02,23.76,250721,,,A*4C
$GPGGA,204054.000,3555.4571,N,08401.9464,W,1,06,1.84,326.5,M,-32.1,M,,*5E
$GPRMC,204054.250,A,3555.4571,N,08401.9464,W,0.01,19.88,250721,,,A*45
$GPGGA,204054.500,3555.4571,N,08401.9464,W,1,06,1.84,326.5,M,-32.1,M,,*5B
$GPRMC,204054.750,A,3555.4571,N,08401.9464,W,0.01,256.05,250721,,,A*7C
$GPGGA,204055.000,3555.4571,N,08401.9464,W,1,06,1.84,326.5,M,-32.1,M,,*5F
$GPRMC,204055.250,A,3555.4571,N,08401.9464,W,0.01,173.95,250721,,,A*75
$GPGGA,204055.500,3555.4571,N,08401.9464,W,1,06,1.84,326.5,M,-32.1,M,,*5A
$GPRMC,204055.750,A,3555.4571,N,08401.9464,W,0.04,359.56,250721,,,A*70
$GPGGA,204056.000,3555.4571,N,08401.9464,W,1,06,2.59,326.5,M,-32.1,M,,*5F
$GPRMC,204056.250,A,3555.4571,N,08401.9464,W,0.04,114.45,250721,,,A*7F
$GPGGA,204056.500,3555.4571,N,08401.9464,W,1,06,1.84,326.5,M,-32.1,M,,*59
$GPRMC,204056.750,A,3555.4571,N,08401.9464,W,0.03,23.45,250721,,,A*48
$GPGGA,204057.000,3555.4571,N,08401.9464,W,1,06,1.84,326.5,M,-32.1,M,,*5D
$GPRMC,204057.250,A,3555.4571,N,08401.9464,W,0.03,234.39,250721,,,A*73
$GPGGA,204057.500,3555.4571,N,08401.9464,W,1,06,1.84,326.5,M,-32.1,M,,*58
$GPRMC,204057.750,A,3555.4571,N,08401.9464,W,0.00,156.19,250721,,,A*70
$GPGGA,204058.000,3555.4571,N,08401.9464,W,1,06,1.84,326.5,M,-32.1,M,,*52
$GPRMC,204058.250,A,3555.4571,N,08401.9464,W,0.03,36.14,250721,,,A*43
$GPGGA,204058.500,3555.4571,N,08401.9464,W,1,06,1.84,326.5,M,-32.1,M,,*57
$GPRMC,204058.750,A,3555.4571,N,08401.9464,W,0.02,68.05,250721,,,A*4C
$GPGGA,204059.000,3555.4571,N,08401.9464,W,1,06,1.84,326.5,M,-32.1,M,,*53
$GPRMC,204059.250,A,3555.4571,N,08401.9464,W,0.03,118.53,250721,,,A*7C
$GPGGA,204059.500,3555.4571,N,08401.9464,W,1,06,1.84,326.5,M,-32.1,M,,*56
$GPRMC,204059.750,A,3555.4571,N,08401.9464,W,0.01,282.06,250721,,,A*7B
$GPGGA,204100.000,3555.4571,N,08401.9464,W,1,06,1.84,326.5,M,-32.1,M,,*5E
$GPRMC,204100.250,A,3555.4571,N,08401.9464,W,0.02,302.54,250721,,,A*7E
$GPGGA,204100.500,3555.4571,N,08401.9464,W,1,06,1.84,326.5,M,-32.1,M,,*5B
$GPRMC,204100.750,A,3555.4571,N,08401.9464,W,0.01,61.40,250721,,,A*4B
$GPGGA,204101.000,3555.4571,N,08401.9464,W,1,06,1.84,326.5,M,-32.1,M,,*5F
$GPRMC,204101.250,A,3555.4571,N,08401.9464,W,0.03,9.77,250721,,,A*77
$GPGGA,204101.500,3555.4571,N,08401.9464,W,1,06,2.59,326.5,M,-32.1,M,,*59
$GPRMC,204101.750,A,3555.4571,N,08401.9464,W,0.02,58.80,250721,,,A*4F
$GPGGA,204102.000,3555.4571,N,08401.9464,W,1,06,1.84,326.5,M,-32.1,M,,*5C
$GPRMC,204102.250,A,3555.4571,N,08401.9464,W,0.02,314.75,250721,,,A*78
$GPGGA,204102.500,3555.4571,N,08401.9464,W,1,06,1.84,326.5,M,-32.1,M,,*59
$GPRMC,204102.750,A,3555.4571,N,08401.9464,W,0.04,291.40,250721,,,A*71
$GPGGA,204103.000,3555.4571,N,08401.9464,W,1,06,1.84,326.5,M,-32.1,M,,*5D
$GPRMC,204103.250,A,3555.4571,N,08401.9464,W,0.03,54.65,250721,,,A*4E
$GPGGA,204103.500,3555.4571,N,08401.9464,W,1,06,1.84,326.5,M,-32.1,M,,*58
$GPRMC,204103.750,A,3555.4571,N,08401.9464,W,0.05,146.71,250721,,,A*7A
$GPGGA,204104.000,3555.4571,N,08401.9464,W,1,06,1.84,326.5,M,-32.1,M,,*5A
$GPRMC,204104.250,A,3555.4571,N,08401.9464,W,0.03,347.99,250721,,,A*7B
$GPGGA,204104.500,3555.4571,N,08401.9464,W,1,06,2.59,326.5,M,-32.1,M,,*5C
$GPRMC,204104.750,A,3555.4571,N,08401.9464,W,0.02,150.20,250721,,,A*79
$GPGGA,204105.000,3555.4571,N,08401.9464,W,1,06,1.84,326.5,M,-32.1,M,,*5B
$GPRMC,204105.250,A,3555.4571,N,08401.9464,W,0.04,332.98,250721,,,A*7E
$GPGGA,204105.500,3555.4571,N,08401.9464,W,1,06,1.84,326.5,M,-32.1,M,,*5E
$GPRMC,204105.750,A,3555.4571,N,08401.9464,W,0.02,167.87,250721,,,A*71
$GPGGA,204106.000,3555.4571,N,08401.9464,W,1,06,1.84,326.5,M,-32.1,M,,*58
$GPRMC,204106.250,A,3555.4571,N,08401.9464,W,0.03,316.44,250721,,,A*7D
$GPGGA,204106.500,3555.4571,N,08401.9464,W,1,06,1.84,326.5,M,-32.1,M,,*5D
$GPRMC,204106.750,A,3555.4571,N,08401.9464,W,0.03,5.74,250721,,,A*7A
$GPGGA,204107.000,3555.4571,N,08401.9464,W,1,06,2.60,326.5,M,-32.1,M,,*50
$GPRMC,204107.250,A,3555.4571,N,08401.9464,W,0.03,35.46,250721,,,A*4C
$GPGGA,204107.500,3555.4571,N,08401.9464,W,1,06,1.84,326.5,M,-32.1,M,,*5C
$GPRMC,204107.750,A,3555.4571,N,08401.9464,W,0.05,162.20,250721,,,A*7C
$GPGGA,204108.000,3555.4571,N,08401.9464,W,1,06,1.84,326.5,M,-32.1,M,,*56
$GPRMC,204108.250,A,3555.4571,N,08401.9464,W,0.04,58.02,250721,,,A*4F
$GPGGA,204108.500,3555.4571,N,08401.9464,W,1,06,1.84,326.5,M,-32.1,M,,*53
$GPRMC,204108.750,A,3555.4571,N,08401.9464,W,0.01,138.45,250721,,,A*7B
$GPGGA,204109.000,3555.4571,N,08401.9464,W,1,06,1.84,326.5,M,-32.1,M,,*57
$GPRMC,204109.250,A,3555.4571,N,08401.9464,W,0.05,297.77,250721,,,A*7C
$GPGGA,204109.500,3555.4571,N,08401.9464,W,1,06,1.84,326.5,M,-32.1,M,,*52
$GPRMC,204109.750,A,3555.4571,N,08401.9464,W,0.04,57.97,250721,,,A*48
$GPGGA,204110.000,3555.4571,N,08401.9464,W,1,06,1.84,326.5,M,-32.1,M,,*5F
$GPRMC,204110.250,A,3555.4571,N,08401.9464,W,0.03,263.15,250721,,,A*7D
$GPGGA,204110.500,3555.4571,N,08401.9464,W,1,06,1.84,326.5,M,-32.1,M,,*5A
$GPRMC,204110.750,A,3555.4571,N,08401.9464,W,0.03,14.51,250721,,,A*4A
$GPGGA,204111.000,3555.4571,N,08401.9464,W,1,06,2.60,326.5,M,-32.1,M,,*57
$GPRMC,204111.250,A,3555.4571,N,08401.9464,W,0.02,195.66,250721,,,A*73
$GPGGA,204111.500,3555.4571,N,08401.9464,W,1,06,1.84,326.5,M,-32.1,M,,*5B
$GPRMC,204111.750,A,3555.4571,N,08401.9464,W,0.05,185.40,250721,,,A*74
$GPGGA,204112.000,3555.4571,N,08401.9464,W,1,06,1.84,326.5,M,-32.1,M,,*5D
$GPRMC,204112.250,A,3555.4571,N,08401.9464,W,0.02,182.92,250721,,,A*7D
$GPGGA,204112.500,3555.4571,N,08401.9464,W,1,06,1.84,326.5,M,-32.1,M,,*58
$GPRMC,204112.750,A,3555.4571,N,08401.9464,W,0.01,266.35,250721,,,A*7F
$GPGGA,204113.000,3555.4571,N,08401.9464,W,1,06,1.84,326.5,M,-32.1,M,,*5C
$GPRMC,204113.250,A,3555.4571,N,08401.9464,W,0.03,344.63,250721,,,A*7B
$GPGGA,204113.500,3555.4571,N,08401.9464,W,1,06,1.84,326.5,M,-32.1,M,,*59
$GPRMC,204113.750,A,3555.4571,N,08401.9464,W,0.02,36.75,250721,,,A*4E
$GPGGA,204114.000,3555.4571,N,08401.9464,W,1,06,1.84,326.5,M,-32.1,M,,*5B
$GPRMC,204114.250,A,3555.4571,N,08401.9464,W,0.04,140.29,250721,,,A*73
$GPGGA,204114.500,3555.4571,N,08401.9464,W,1,06,1.84,326.5,M,-32.1,M,,*5E
$GPRMC,204114.750,A,3555.4571,N,08401.9464,W,0.03,240.96,250721,,,A*76
$GPGGA,204115.000,3555.4571,N,08401.9464,W,1,06,1.84,326.5,M,-32.1,M,,*5A
$GPRMC,204115.250,A,3555.4571,N,08401.9464,W,0.04,97.71,250721,,,A*44
$GPGGA,204115.500,3555.4571,N,08401.9464,W,1,06,1.84,326.5,M,-32.1,M,,*5F
$GPRMC,204115.750,A,3555.4571,N,08401.9464,W,0.03,220.85,250721,,,A*73
$GPGGA,204116.000,3555.4571,N,08401.9464,W,1,06,1.84,326.5,M,-32.1,M,,*59
$GPRMC,204116.250,A,3555.4571,N,08401.9464,W,0.02,357.50,250721,,,A*7D
$GPGGA,204116.500,3555.4571,N,08401.9464,W,1,06,2.60,326.5,M,-32.1,M,,*55
$GPRMC,204116.750,A,3555.4571,N,08401.9464,W,0.01,356.85,250721,,,A*72
$GPGGA,204117.000,3555.4571,N,08401.9464,W,1,06,2.60,326.5,M,-32.1,M,,*51
$GPRMC,204117.250,A,3555.4571,N,08401.9464,W,0.02,230.06,250721,,,A*7F
$GPGGA,204117.500,3555.4571,N,08401.9464,W,1,06,1.84,326.5,M,-32.1,M,,*5D
$GPRMC,204117.750,A,3555.4571,N,08401.9464,W,0.03,338.13,250721,,,A*76
$GPGGA,204118.000,3555.4571,N,08401.9464,W,1,06,1.84,326.5,M,-32.1,M,,*57
$GPRMC,204118.250,A,3555.4571,N,08401.9464,W,0.01,169.50,250721,,,A*7F
$GPGGA,204118.500,3555.4571,N,08401.9464,W,1,06,1.84,326.5,M,-32.1,M,,*52
$GPRMC,204118.750,A,3555.4571,N,08401.9464,W,0.01,198.80,250721,,,A*79
$GPGGA,204119.000,3555.4571,N,08401.9464,W,1,06,1.84,326.5,M,-32.1,M,,*56
$GPRMC,204119.250,A,3555.4571,N,08401.9464,W,0.02,164.28,250721,,,A*7F
$GPGGA,204119.500,3555.4571,N,08401.9464,W,1,06,1.84,326.5,M,-32.1,M,,*53
$GPRMC,204119.750,A,3555.4571,N,08401.9464,W,0.02,358.72,250721,,,A*78
$GPGGA,204120.000,3555.4571,N,08401.9464,W,1,06,2.60,326.5,M,-32.1,M,,*55
$GPRMC,204120.250,A,3555.4571,N,08401.9464,W,0.00,105.86,250721,,,A*74
$GPGGA,204120.500,3555.4571,N,08401.9464,W,1,06,1.84,326.5,M,-32.1,M,,*59
$GPRMC,204120.750,A,3555.4571,N,08401.9464,W,0.03,338.60,250721,,,A*76
$GPGGA,204121.000,3555.4571,N,08401.9464,W,1,06,1.84,326.5,M,-32.1,M,,*5D
$GPRMC,204121.250,A,3555.4571,N,08401.9464,W,0.04,97.62,250721,,,A*41
$GPGGA,204121.500,3555.4571,N,08401.9464,W,1,06,1.84,326.5,M,-32.1,M,,*58
$GPRMC,204121.750,A,3555.4571,N,08401.9464,W,0.02,22.92,250721,,,A*43
$GPGGA,204122.000,3555.4571,N,08401.9464,W,1,06,1.84,326.5,M,-32.1,M,,*5E
$GPRMC,204122.250,A,3555.4571,N,08401.9464,W,0.02,46.20,250721,,,A*4E
$GPGGA,204122.500,3555.4571,N,08401.9464,W,1,06,1.84,326.5,M,-32.1,M,,*5B
$GPRMC,204122.750,A,3555.4571,N,08401.9464,W,0.03,71.65,250721,,,A*4F
$GPGGA,204123.000,3555.4571,N,08401.9464,W,1,06,1.84,326.5,M,-32.1,M,,*5F
$GPRMC,204123.250,A,3555.4571,N,08401.9464,W,0.04,96.56,250721,,,A*45
$GPGGA,204123.500,3555.4571,N,08401.9464,W,1,06,1.84,326.5,M,-32.1,M,,*5A
$GPRMC,204123.750,A,3555.4571,N,08401.9464,W,0.02,237.76,250721,,,A*7D
$GPGGA,204124.000,3555.4571,N,08401.9464,W,1,06,1.84,326.5,M,-32.1,M,,*58
$GPRMC,204124.250,A,3555.4571,N,08401.9464,W,0.01,101.49,250721,,,A*76
$GPGGA,204124.500,3555.4571,N,08401.9464,W,1,06,1.84,326.5,M,-32.1,M,,*5D
$GPRMC,204124.750,A,3555.4571,N,08401.9464,W,0.03,304.80,250721,,,A*73
$GPGGA,204125.000,3555.4571,N,08401.9464,W,1,06,1.84,326.5,M,-32.1,M,,*59
$GPRMC,204125.250,A,3555.4571,N,08401.9464,W,0.02,157.37,250721,,,A*7E
$GPGGA,204125.500,3555.4571,N,08401.9464,W,1,06,1.84,326.5,M,-32.1,M,,*5C
$GPRMC,204125.750,A,3555.4571,N,08401.9464,W,0.03,90.48,250721,,,A*48
$GPGGA,204126.000,3555.4571,N,08401.9464,W,1,06,1.84,326.5,M,-32.1,M,,*5A
$GPRMC,204126.250,A,3555.4571,N,08401.9464,W,0.03,201.29,250721,,,A*73
$GPGGA,204126.500,3555.4571,N,08401.9464,W,1,06,1.85,326.5,M,-32.1,M,,*5E
$GPRMC,204126.750,A,3555.4571,N,08401.9464,W,0.05,9.96,250721,,,A*7E
$GPGGA,204127.000,3555.4571,N,08401.9464,W,1,06,2.61,326.5,M,-32.1,M,,*53
$GPRMC,204127.250,A,3555.4571,N,08401.9464,W,0.03,203.53,250721,,,A*7D
$GPGGA,204127.500,3555.4571,N,08401.9464,W,1,06,1.84,326.5,M,-32.1,M,,*5E
$GPRMC,204127.750,A,3555.4571,N,08401.9464,W,0.02,221.62,250721,,,A*7B
$GPGGA,204128.000,3555.4571,N,08401.9464,W,1,06,1.84,326.5,M,-32.1,M,,*54
$GPRMC,204128.250,A,3555.4571,N,08401.9464,W,0.02,121.94,250721,,,A*7B
$GPGGA,204128.500,3555.4571,N,08401.9464,W,1,06,1.84,326.5,M,-32.1,M,,*51
$GPRMC,204128.750,A,3555.4571,N,08401.9464,W,0.10,11.06,250721,,,A*44
$GPGGA,204129.000,3555.4571,N,08401.9464,W,1,06,2.61,326.5,M,-32.1,M,,*5D
$GPRMC,204129.250,A,3555.4571,N,08401.9464,W,0.05,232.03,250721,,,A*72
$GPGGA,204129.500,3555.4571,N,08401.9464,W,1,06,1.85,326.4,M,-32.1,M,,*50
$GPRMC,204129.750,A,3555.4571,N,08401.9464,W,0.02,132.64,250721,,,A*72
$GPGGA,204130.000,3555.4571,N,08401.9464,W,1,06,1.85,326.4,M,-32.1,M,,*5D
$GPRMC,204130.250,A,3555.4571,N,08401.9464,W,0.02,154.02,250721,,,A*7F
$GPGGA,204130.500,3555.4571,N,08401.9464,W,1,06,1.85,326.4,M,-32.1,M,,*58
$GPRMC,204130.750,A,3555.4571,N,08401.9464,W,0.04,27.88,250721,,,A*4B
$GPGGA,204131.000,3555.4571,N,08401.9464,W,1,06,1.85,326.4,M,-32.1,M,,*5C
$GPRMC,204131.250,A,3555.4571,N,08401.9464,W,0.03,170.13,250721,,,A*79
$GPGGA,204131.500,3555.4571,N,08401.9464,W,1,06,1.85,326.4,M,-32.1,M,,*59
$GPRMC,204131.750,A,3555.4571,N,08401.9464,W,0.04,228.55,250721,,,A*77
$GPGGA,204132.000,3555.4571,N,08401.9464,W,1,06,1.85,326.4,M,-32.1,M,,*5F
$GPRMC,204132.250,A,3555.4571,N,08401.9464,W,0.03,32.45,250721,,,A*4E
$GPGGA,204132.500,3555.4571,N,08401.9464,W,1,06,1.85,326.4,M,-32.1,M,,*5A
$GPRMC,204132.750,A,3555.4571,N,08401.9464,W,0.01,23.90,250721,,,A*41
$GPGGA,204133.000,3555.4571,N,08401.9464,W,1,06,1.85,326.4,M,-32.1,M,,*5E
$GPRMC,204133.250,A,3555.4571,N,08401.9464,W,0.02,23.40,250721,,,A*4B
$GPGGA,204133.500,3555.4571,N,08401.9464,W,1,06,1.85,326.4,M,-32.1,M,,*5B
$GPRMC,204133.750,A,3555.4571,N,08401.9464,W,0.03,153.11,250721,,,A*7D
$GPGGA,204134.000,3555.4571,N,08401.9464,W,1,06,1.85,326.4,M,-32.1,M,,*59
$GPRMC,204134.250,A,3555.4571,N,08401.9464,W,0.02,171.09,250721,,,A*77
$GPGGA,204134.500,3555.4571,N,08401.9464,W,1,06,1.85,326.4,M,-32.1,M,,*5C
$GPRMC,204134.750,A,3555.4571,N,08401.9464,W,0.03,75.55,250721,,,A*4F
$GPGGA,204135.000,3555.4571,N,08401.9464,W,1,06,1.85,326.4,M,-32.1,M,,*58
$GPRMC,204135.250,A,3555.4571,N,08401.9464,W,0.03,306.89,250721,,,A*7D
$GPGGA,204135.500,3555.4571,N,08401.9464,W,1,06,1.85,326.4,M,-32.1,M,,*5D
$GPRMC,204135.750,A,3555.4571,N,08401.9464,W,0.02,284.80,250721,,,A*7B
$GPGGA,204136.000,3555.4571,N,08401.9464,W,1,06,1.85,326.4,M,-32.1,M,,*5B
$GPRMC,204136.250,A,3555.4571,N,08401.9464,W,0.02,350.22,250721,,,A*7D
$GPGGA,204136.500,3555.4571,N,08401.9464,W,1,06,2.61,326.4,M,-32.1,M,,*57
$GPRMC,204136.750,A,3555.4571,N,08401.9464,W,0.02,194.85,250721,,,A*7F
$GPGGA,204137.000,3555.4571,N,08401.9464,W,1,06,1.85,326.4,M,-32.1,M,,*5A
$GPRMC,204137.250,A,3555.4571,N,08401.9464,W,0.02,234.08,250721,,,A*77
$GPGGA,204137.500,3555.4571,N,08401.9464,W,1,06,1.85,326.4,M,-32.1,M,,*5F
$GPRMC,204137.750,A,3555.4571,N,08401.9464,W,0.03,195.59,250721,,,A*7F
$GPGGA,204138.000,3555.4571,N,08401.9464,W,1,06,1.85,326.4,M,-32.1,M,,*55
$GPRMC,204138.250,A,3555.4571,N,08401.9464,W,0.02,150.80,250721,,,A*79
$GPGGA,204138.500,3555.4571,N,08401.9464,W,1,06,1.85,326.4,M,-32.1,M,,*50
$GPRMC,204138.750,A,3555.4571,N,08401.9464,W,0.06,141.49,250721,,,A*7D
$GPGGA,204139.000,3555.4571,N,08401.9464,W,1,06,1.85,326.4,M,-32.1,M,,*54
$GPRMC,204139.250,A,3555.4571,N,08401.9464,W,0.04,328.49,250721,,,A*76
$GPGGA,204139.500,3555.4571,N,08401.9464,W,1,06,1.85,326.4,M,-32.1,M,,*51
$GPRMC,204139.750,A,3555.4571,N,08401.9464,W,0.02,102.00,250721,,,A*72
$GPGGA,204140.000,3555.4571,N,08401.9464,W,1,06,1.85,326.4,M,-32.1,M,,*5A
$GPRMC,204140.250,A,3555.4571,N,08401.9464,W,0.00,102.12,250721,,,A*78
$GPGGA,204140.500,3555.4571,N,08401.9464,W,1,06,1.85,326.4,M,-32.1,M,,*5F
$GPRMC,204140.750,A,3555.4571,N,08401.9464,W,0.02,189.31,250721,,,A*7D
$GPGGA,204141.000,3555.4571,N,08401.9464,W,1,06,1.85,326.4,M,-32.1,M,,*5B
$GPRMC,204141.250,A,3555.4571,N,08401.9464,W,0.01,337.09,250721,,,A*76
$GPGGA,204141.500,3555.4571,N,08401.9464,W,1,06,1.85,326.5,M,-32.1,M,,*5F
$GPRMC,204141.750,A,3555.4571,N,08401.9464,W,0.05,209.22,250721,,,A*72
$GPGGA,204142.000,3555.4571,N,08401.9464,W,1,06,1.85,326.5,M,-32.1,M,,*59
$GPRMC,204142.250,A,3555.4571,N,08401.9464,W,0.06,118.47,250721,,,A*77
$GPGGA,204142.500,3555.4571,N,08401.9464,W,1,06,1.85,326.5,M,-32.1,M,,*5C
$GPRMC,204142.750,A,3555.4571,N,08401.9464,W,0.03,337.00,250721,,,A*7B
$GPGGA,204143.000,3555.4571,N,08401.9464,W,1,06,1.85,326.5,M,-32.1,M,,*58
$GPRMC,204143.250,A,3555.4571,N,08401.9464,W,0.03,176.21,250721,,,A*7B
$GPGGA,204143.500,3555.4571,N,08401.9464,W,1,06,1.85,326.5,M,-32.1,M,,*5D
$GPRMC,204143.750,A,3555.4571,N,08401.9463,W,0.04,54.22,250721,,,A*4C
$GPGGA,204144.000,3555.4571,N,08401.9463,W,1,06,1.85,326.5,M,-32.1,M,,*58
$GPRMC,204144.250,A,3555.4571,N,08401.9463,W,0.01,308.07,250721,,,A*76
$GPGGA,204144.500,3555.4571,N,08401.9463,W,1,06,1.85,326.5,M,-32.1,M,,*5D
$GPRMC,204144.750,A,3555.4571,N,08401.9463,W,0.02,326.20,250721,,,A*79
$GPGGA,204145.000,3555.4571,N,08401.9463,W,1,06,1.85,326.5,M,-32.1,M,,*59
$GPRMC,204145.250,A,3555.4571,N,08401.9463,W,0.01,67.13,250721,,,A*48
$GPGGA,204145.500,3555.4571,N,08401.9463,W,1,06,1.85,326.5,M,-32.1,M,,*5C
$GPRMC,204145.750,A,3555.4571,N,08401.9463,W,0.03,225.38,250721,,,A*72
$GPGGA,204146.000,3555.4571,N,08401.9463,W,1,06,1.85,326.5,M,-32.1,M,,*5A
$GPRMC,204146.250,A,3555.4571,N,08401.9463,W,0.02,43.48,250721,,,A*40
$GPGGA,204146.500,3555.4571,N,08401.9463,W,1,06,1.85,326.5,M,-32.1,M,,*5F
$GPRMC,204146.750,A,3555.4571,N,08401.9463,W,0.01,91.47,250721,,,A*46
$GPGGA,204147.000,3555.4571,N,08401.9463,W,1,06,1.85,326.5,M,-32.1,M,,*5B
$GPRMC,204147.250,A,3555.4571,N,08401.9463,W,0.05,57.39,250721,,,A*45
$GPGGA,204147.500,3555.4571,N,08401.9463,W,1,06,1.85,326.5,M,-32.1,M,,*5E
$GPRMC,204147.750,A,3555.4571,N,08401.9463,W,0.02,343.30,250721,,,A*78
$GPGGA,204148.000,3555.4571,N,08401.9463,W,1,06,1.85,326.5,M,-32.1,M,,*54
$GPRMC,204148.250,A,3555.4571,N,08401.9463,W,0.03,100.44,250721,,,A*75
$GPGGA,204148.500,3555.4571,N,08401.9463,W,1,06,1.85,326.5,M,-32.1,M,,*51
$GPRMC,204148.750,A,3555.4571,N,08401.9463,W,0.04,81.78,250721,,,A*40
$GPGGA,204149.000,3555.4571,N,08401.9463,W,1,06,1.85,326.5,M,-32.1,M,,*55
$GPRMC,204149.250,A,3555.4571,N,08401.9463,W,0.02,244.96,250721,,,A*79
$GPGGA,204149.500,3555.4571,N,08401.9463,W,1,06,1.85,326.5,M,-32.1,M,,*50
$GPRMC,204149.750,A,3555.4571,N,08401.9463,W,0.02,166.54,250721,,,A*71
$GPGGA,204150.000,3555.4571,N,08401.9463,W,1,06,1.85,326.5,M,-32.1,M,,*5D
$GPRMC,204150.250,A,3555.4571,N,08401.9463,W,0.02,101.77,250721,,,A*7C
$GPGGA,204150.500,3555.4571,N,08401.9463,W,1,06,1.85,326.5,M,-32.1,M,,*58
$GPRMC,204150.750,A,3555.4571,N,08401.9463,W,0.04,35.97,250721,,,A*47
$GPGGA,204151.000,3555.4571,N,08401.9463,W,1,06,1.85,326.5,M,-32.1,M,,*5C
$GPRMC,204151.250,A,3555.4571,N,08401.9463,W,0.02,189.62,250721,,,A*79
$GPGGA,204151.500,3555.4571,N,08401.9463,W,1,06,1.85,326.5,M,-32.1,M,,*59
$GPRMC,204151.750,A,3555.4571,N,08401.9463,W,0.02,339.03,250721,,,A*72
$GPGGA,204152.000,3555.4571,N,08401.9463,W,1,06,1.85,326.5,M,-32.1,M,,*5F
$GPRMC,204152.250,A,3555.4571,N,08401.9463,W,0.04,87.19,250721,,,A*4F
$GPGGA,204152.500,3555.4571,N,08401.9463,W,1,06,1.85,326.5,M,-32.1,M,,*5A
$GPRMC,204152.750,A,3555.4571,N,08401.9463,W,0.03,18.49,250721,,,A*4E
$GPGGA,204153.000,3555.4571,N,08401.9463,W,1,06,1.85,326.5,M,-32.1,M,,*5E
$GPRMC,204153.250,A,3555.4571,N,08401.9463,W,0.04,160.96,250721,,,A*71
$GPGGA,204153.500,3555.4571,N,08401.9463,W,1,06,1.85,326.5,M,-32.1,M,,*5B
$GPRMC,204153.750,A,3555.4571,N,08401.9463,W,0.03,176.07,250721,,,A*7C
$GPGGA,204154.000,3555.4571,N,08401.9463,W,1,06,1.85,326.5,M,-32.1,M,,*59
$GPRMC,204154.250,A,3555.4571,N,08401.9463,W,0.02,137.99,250721,,,A*7D
$GPGGA,204154.500,3555.4571,N,08401.9463,W,1,06,1.85,326.5,M,-32.1,M,,*5C
$GPRMC,204154.750,A,3555.4571,N,08401.9463,W,0.03,316.73,250721,,,A*7C
$GPGGA,204155.000,3555.4571,N,08401.9463,W,1,06,1.85,326.5,M,-32.1,M,,*58
$GPRMC,204155.250,A,3555.4571,N,08401.9463,W,0.03,72.87,250721,,,A*42
$GPGGA,204155.500,3555.4571,N,08401.9463,W,1,06,1.85,326.5,M,-32.1,M,,*5D
$GPRMC,204155.750,A,3555.4571,N,08401.9463,W,0.01,73.35,250721,,,A*4D
$GPGGA,204156.000,3555.4571,N,08401.9463,W,1,06,1.85,326.5,M,-32.1,M,,*5B
$GPRMC,204156.250,A,3555.4571,N,08401.9463,W,0.03,307.84,250721,,,A*73
$GPGGA,204156.500,3555.4571,N,08401.9463,W,1,06,1.85,326.5,M,-32.1,M,,*5E
$GPRMC,204156.750,A,3555.4571,N,08401.9463,W,0.03,359.19,250721,,,A*79
$GPGGA,204157.000,3555.4571,N,08401.9463,W,1,06,2.62,326.5,M,-32.1,M,,*50
$GPRMC,204157.250,A,3555.4571,N,08401.9463,W,0.03,88.10,250721,,,A*4B
$GPGGA,204157.500,3555.4571,N,08401.9463,W,1,06,1.85,326.5,M,-32.1,M,,*5F
$GPRMC,204157.750,A,3555.4571,N,08401.9463,W,0.03,348.81,250721,,,A*79
$GPGGA,204158.000,3555.4571,N,08401.9463,W,1,06,2.62,326.5,M,-32.1,M,,*5F
$GPRMC,204158.250,A,3555.4571,N,08401.9463,W,0.05,184.88,250721,,,A*7E
$GPGGA,204158.500,3555.4571,N,08401.9463,W,1,06,1.85,326.5,M,-32.1,M,,*50
$GPRMC,204158.750,A,3555.4571,N,08401.9463,W,0.01,21.00,250721,,,A*41
$GPGGA,204159.000,3555.4571,N,08401.9463,W,1,06,1.85,326.5,M,-32.1,M,,*54
$GPRMC,204159.250,A,3555.4571,N,08401.9463,W,0.04,126.83,250721,,,A*7D
$GPGGA,204159.500,3555.4571,N,08401.9463,W,1,06,1.85,326.5,M,-32.1,M,,*51
$GPRMC,204159.750,A,3555.4571,N,08401.9463,W,0.05,15.04,250721,,,A*47
$GPGGA,204200.000,3555.4571,N,08401.9463,W,1,06,1.85,326.5,M,-32.1,M,,*5B
$GPRMC,204200.250,A,3555.4571,N,08401.9463,W,0.01,112.45,250721,,,A*7A
$GPGGA,204200.500,3555.4571,N,08401.9463,W,1,06,1.85,326.4,M,-32.1,M,,*5F
$GPRMC,204200.750,A,3555.4571,N,08401.9463,W,0.02,124.14,250721,,,A*7D
$GPGGA,204201.000,3555.4571,N,08401.9463,W,1,06,1.85,326.4,M,-32.1,M,,*5B
$GPRMC,204201.250,A,3555.4571,N,08401.9463,W,0.02,331.47,250721,,,A*79
$GPGGA,204201.500,3555.4571,N,08401.9463,W,1,06,1.85,326.4,M,-32.1,M,,*5E
$GPRMC,204201.750,A,3555.4571,N,08401.9463,W,0.03,190.91,250721,,,A*7F
$GPGGA,204202.000,3555.4571,N,08401.9463,W,1,06,1.85,326.4,M,-32.1,M,,*58
$GPRMC,204202.250,A,3555.4571,N,08401.9463,W,0.04,195.80,250721,,,A*7B
$GPGGA,204202.500,3555.4571,N,08401.9463,W,1,06,1.85,326.4,M,-32.1,M,,*5D
$GPRMC,204202.750,A,3555.4571,N,08401.9463,W,0.03,9.36,250721,,,A*70
$GPGGA,204203.000,3555.4571,N,08401.9463,W,1,06,2.62,326.4,M,-32.1,M,,*53
$GPRMC,204203.250,A,3555.4571,N,08401.9463,W,0.02,90.19,250721,,,A*48
$GPGGA,204203.500,3555.4571,N,08401.9463,W,1,06,1.85,326.4,M,-32.1,M,,*5C
$GPRMC,204203.750,A,3555.4571,N,08401.9463,W,0.04,35.95,250721,,,A*40
$GPGGA,204204.000,3555.4571,N,08401.9463,W,1,06,1.86,326.4,M,-32.1,M,,*5D
$GPRMC,204204.250,A,3555.4571,N,08401.9463,W,0.04,59.23,250721,,,A*45
$GPGGA,204204.500,3555.4571,N,08401.9463,W,1,06,1.85,326.4,M,-32.1,M,,*5B
$GPRMC,204204.750,A,3555.4571,N,08401.9463,W,0.04,119.65,250721,,,A*77
$GPGGA,204205.000,3555.4571,N,08401.9463,W,1,06,1.86,326.4,M,-32.1,M,,*5C
$GPRMC,204205.250,A,3555.4571,N,08401.9463,W,0.03,133.62,250721,,,A*7B
$GPGGA,204205.500,3555.4571,N,08401.9463,W,1,06,1.85,326.4,M,-32.1,M,,*5A
$GPRMC,204205.750,A,3555.4571,N,08401.9463,W,0.03,291.00,250721,,,A*71
$GPGGA,204206.000,3555.4571,N,08401.9463,W,1,06,1.85,326.4,M,-32.1,M,,*5C
$GPRMC,204206.250,A,3555.4571,N,08401.9463,W,0.04,1.75,250721,,,A*79
$GPGGA,204206.500,3555.4571,N,08401.9463,W,1,06,2.63,326.4,M,-32.1,M,,*52
$GPRMC,204206.750,A,3555.4571,N,08401.9463,W,0.02,91.90,250721,,,A*48
$GPGGA,204207.000,3555.4571,N,08401.9463,W,1,06,1.86,326.4,M,-32.1,M,,*5E
$GPRMC,204207.250,A,3555.4571,N,08401.9463,W,0.02,285.44,250721,,,A*72
$GPGGA,204207.500,3555.4571,N,08401.9463,W,1,06,1.86,326.4,M,-32.1,M,,*5B
$GPRMC,204207.750,A,3555.4571,N,08401.9463,W,0.03,127.81,250721,,,A*74
$GPGGA,204208.000,3555.4571,N,08401.9463,W,1,06,1.86,326.4,M,-32.1,M,,*51
$GPRMC,204208.250,A,3555.4571,N,08401.9463,W,0.02,333.20,250721,,,A*73
$GPGGA,204208.500,3555.4571,N,08401.9463,W,1,06,1.86,326.4,M,-32.1,M,,*54
$GPRMC,204208.750,A,3555.4571,N,08401.9463,W,0.02,137.88,250721,,,A*72
$GPGGA,204209.000,3555.4571,N,08401.9463,W,1,06,1.86,326.4,M,-32.1,M,,*50
$GPRMC,204209.250,A,3555.4571,N,08401.9463,W,0.04,55.48,250721,,,A*49
$GPGGA,204209.500,3555.4571,N,08401.9463,W,1,06,1.86,326.4,M,-32.1,M,,*55
$GPRMC,204209.750,A,3555.4571,N,08401.9463,W,0.02,158.98,250721,,,A*7B
$GPGGA,204210.000,3555.4571,N,08401.9463,W,1,06,1.86,326.4,M,-32.1,M,,*58
$GPRMC,204210.250,A,3555.4571,N,08401.9463,W,0.01,78.00,250721,,,A*47
$GPGGA,204210.500,3555.4571,N,08401.9463,W,1,06,1.86,326.4,M,-32.1,M,,*5D
$GPRMC,204210.750,A,3555.4571,N,08401.9463,W,0.03,133.60,250721,,,A*78
$GPGGA,204211.000,3555.4571,N,08401.9463,W,1,06,1.86,326.4,M,-32.1,M,,*59
$GPRMC,204211.250,A,3555.4571,N,08401.9463,W,0.02,165.18,250721,,,A*71
$GPGGA,204211.500,3555.4571,N,08401.9463,W,1,06,1.86,326.4,M,-32.1,M,,*5C
$GPRMC,204211.750,A,3555.4571,N,08401.9463,W,0.02,136.61,250721,,,A*7C
$GPGGA,204212.000,3555.4571,N,08401.9463,W,1,06,1.86,326.4,M,-32.1,M,,*5A
$GPRMC,204212.250,A,3555.4571,N,08401.9463,W,0.05,168.32,250721,,,A*70
$GPGGA,204212.500,3555.4571,N,08401.9463,W,1,06,1.86,326.4,M,-32.1,M,,*5F
$GPRMC,204212.750,A,3555.4571,N,08401.9463,W,0.00,327.84,250721,,,A*74
$GPGGA,204213.000,3555.4571,N,08401.9463,W,1,06,1.86,326.4,M,-32.1,M,,*5B
$GPRMC,204213.250,A,3555.4571,N,08401.9463,W,0.02,49.62,250721,,,A*41
$GPGGA,204213.500,3555.4571,N,08401.9463,W,1,06,1.86,326.4,M,-32.1,M,,*5E
$GPRMC,204213.750,A,3555.4571,N,08401.9463,W,0.01,296.29,250721,,,A*78
$GPGGA,204214.000,3555.4571,N,08401.9463,W,1,06,1.86,326.4,M,-32.1,M,,*5C
$GPRMC,204214.250,A,3555.4571,N,08401.9463,W,0.04,108.96,250721,,,A*7F
$GPGGA,204214.500,3555.4571,N,08401.9463,W,1,06,1.86,326.4,M,-32.1,M,,*59
$GPRMC,204214.750,A,3555.4571,N,08401.9463,W,0.04,86.69,250721,,,A*4D
$GPGGA,204215.000,3555.4571,N,08401.9463,W,1,06,1.86,326.4,M,-32.1,M,,*5D
$GPRMC,204215.250,A,3555.4571,N,08401.9463,W,0.04,79.97,250721,,,A*48
$GPGGA,204215.500,3555.4571,N,08401.9463,W,1,06,1.86,326.4,M,-32.1,M,,*58
$GPRMC,204215.750,A,3555.4571,N,08401.9463,W,0.06,156.48,250721,,,A*71
$GPGGA,204216.000,3555.4571,N,08401.9463,W,1,06,1.86,326.4,M,-32.1,M,,*5E
$GPRMC,204216.250,A,3555.4571,N,08401.9463,W,0.02,194.90,250721,,,A*78
$GPGGA,204216.500,3555.4571,N,08401.9463,W,1,06,1.86,326.4,M,-32.1,M,,*5B
$GPRMC,204216.750,A,3555.4571,N,08401.9463,W,0.01,178.76,250721,,,A*74
$GPGGA,204217.000,3555.4571,N,08401.9463,W,1,06,1.86,326.4,M,-32.1,M,,*5F
$GPRMC,204217.250,A,3555.4571,N,08401.9463,W,0.06,193.19,250721,,,A*7B
$GPGGA,204217.500,3555.4571,N,08401.9463,W,1,06,1.86,326.4,M,-32.1,M,,*5A
$GPRMC,204217.750,A,3555.4571,N,08401.9463,W,0.00,168.12,250721,,,A*77
$GPGGA,204218.000,3555.4571,N,08401.9463,W,1,06,1.86,326.4,M,-32.1,M,,*50
$GPRMC,204218.250,A,3555.4571,N,08401.9463,W,0.03,348.49,250721,,,A*70
$GPGGA,204218.500,3555.4571,N,08401.9463,W,1,06,2.63,326.4,M,-32.1,M,,*5D
$GPRMC,204218.750,A,3555.4571,N,08401.9463,W,0.03,161.01,250721,,,A*70
$GPGGA,204219.000,3555.4571,N,08401.9463,W,1,06,1.86,326.4,M,-32.1,M,,*51
$GPRMC,204219.250,A,3555.4571,N,08401.9463,W,0.02,209.49,250721,,,A*74
$GPGGA,204219.500,3555.4571,N,08401.9463,W,1,06,1.86,326.4,M,-32.1,M,,*54
$GPRMC,204219.750,A,3555.4571,N,08401.9463,W,0.03,95.58,250721,,,A*47
$GPGGA,204220.000,3555.4571,N,08401.9463,W,1,06,1.86,326.4,M,-32.1,M,,*5B
$GPRMC,204220.250,A,3555.4571,N,08401.9463,W,0.02,171.97,250721,,,A*71
$GPGGA,204220.500,3555.4571,N,08401.9463,W,1,06,1.86,326.4,M,-32.1,M,,*5E
$GPRMC,204220.750,A,3555.4571,N,08401.9463,W,0.02,153.50,250721,,,A*7F
$GPGGA,204221.000,3555.4571,N,08401.9463,W,1,06,1.86,326.4,M,-32.1,M,,*5A
$GPRMC,204221.250,A,3555.4571,N,08401.9463,W,0.01,219.21,250721,,,A*73
$GPGGA,204221.500,3555.4571,N,08401.9463,W,1,06,1.86,326.4,M,-32.1,M,,*5F
$GPRMC,204221.750,A,3555.4571,N,08401.9463,W,0.03,67.24,250721,,,A*4A
$GPGGA,204222.000,3555.4571,N,08401.9463,W,1,06,1.86,326.4,M,-32.1,M,,*59
$GPRMC,204222.250,A,3555.4571,N,08401.9463,W,0.03,136.24,250721,,,A*79
$GPGGA,204222.500,3555.4571,N,08401.9463,W,1,06,1.86,326.4,M,-32.1,M,,*5C
$GPRMC,204222.750,A,3555.4571,N,08401.9463,W,0.01,138.29,250721,,,A*7D
$GPGGA,204223.000,3555.4571,N,08401.9463,W,1,06,1.86,326.4,M,-32.1,M,,*58
$GPRMC,204223.250,A,3555.4571,N,08401.9463,W,0.02,119.81,250721,,,A*7B
$GPGGA,204223.500,3555.4571,N,08401.9463,W,1,06,1.86,326.4,M,-32.1,M,,*5D
$GPRMC,204223.750,A,3555.4571,N,08401.9463,W,0.03,131.49,250721,,,A*71
$GPGGA,204224.000,3555.4571,N,08401.9463,W,1,06,1.86,326.4,M,-32.1,M,,*5F
$GPRMC,204224.250,A,3555.4571,N,08401.9463,W,0.04,313.65,250721,,,A*78
$GPGGA,204224.500,3555.4571,N,08401.9463,W,1,06,1.86,326.4,M,-32.1,M,,*5A
$GPRMC,204224.750,A,3555.4571,N,08401.9463,W,0.00,224.18,250721,,,A*76
$GPGGA,204225.000,3555.4571,N,08401.9463,W,1,06,1.86,326.4,M,-32.1,M,,*5E
$GPRMC,204225.250,A,3555.4571,N,08401.9463,W,0.00,218.95,250721,,,A*78
$GPGGA,204225.500,3555.4571,N,08401.9463,W,1,06,1.86,326.4,M,-32.1,M,,*5B
$GPRMC,204225.750,A,3555.4571,N,08401.9463,W,0.03,94.66,250721,,,A*44
$GPGGA,204226.000,3555.4571,N,08401.9463,W,1,06,1.86,326.4,M,-32.1,M,,*5D
$GPRMC,204226.250,A,3555.4571,N,08401.9463,W,0.01,287.32,250721,,,A*71
$GPGGA,204226.500,3555.4571,N,08401.9463,W,1,06,1.86,326.4,M,-32.1,M,,*58
$GPRMC,204226.750,A,3555.4571,N,08401.9463,W,0.04,349.72,250721,,,A*76
$GPGGA,204227.000,3555.4571,N,08401.9463,W,1,06,2.64,326.4,M,-32.1,M,,*53
$GPRMC,204227.250,A,3555.4571,N,08401.9463,W,0.03,270.33,250721,,,A*7B
$GPGGA,204227.500,3555.4571,N,08401.9463,W,1,06,1.86,326.4,M,-32.1,M,,*59
$GPRMC,204227.750,A,3555.4571,N,08401.9463,W,0.01,354.31,250721,,,A*79
$GPGGA,204228.000,3555.4571,N,08401.9463,W,1,06,2.64,326.4,M,-32.1,M,,*5C
$GPRMC,204228.250,A,3555.4571,N,08401.9463,W,0.06,153.79,250721,,,A*7D
$GPGGA,204228.500,3555.4571,N,08401.9463,W,1,06,1.86,326.4,M,-32.1,M,,*56
$GPRMC,204228.750,A,3555.4571,N,08401.9463,W,0.01,25.97,250721,,,A*4F
$GPGGA,204229.000,3555.4571,N,08401.9463,W,1,06,1.86,326.4,M,-32.1,M,,*52
$GPRMC,204229.250,A,3555.4571,N,08401.9463,W,0.01,354.63,250721,,,A*75
$GPGGA,204229.500,3555.4571,N,08401.9463,W,1,06,2.64,326.4,M,-32.1,M,,*58
$GPRMC,204229.750,A,3555.4571,N,08401.9463,W,0.04,96.16,250721,,,A*4A
$GPGGA,204230.000,3555.4571,N,08401.9463,W,1,06,1.86,326.4,M,-32.1,M,,*5A
$GPRMC,204230.250,A,3555.4571,N,08401.9463,W,0.01,4.47,250721,,,A*7D
$GPGGA,204230.500,3555.4571,N,08401.9463,W,1,06,2.64,326.4,M,-32.1,M,,*50
$GPRMC,204230.750,A,3555.4571,N,08401.9463,W,0.02,20.51,250721,,,A*4A
$GPGGA,204231.000,3555.4571,N,08401.9463,W,1,06,1.86,326.4,M,-32.1,M,,*5B
$GPRMC,204231.250,A,3555.4571,N,08401.9463,W,0.02,106.31,250721,,,A*7D
$GPGGA,204231.500,3555.4571,N,08401.9463,W,1,06,1.86,326.4,M,-32.1,M,,*5E
$GPRMC,204231.750,A,3555.4571,N,08401.9463,W,0.01,274.96,250721,,,A*70
$GPGGA,204232.000,3555.4571,N,08401.9463,W,1,06,1.86,326.4,M,-32.1,M,,*58
$GPRMC,204232.250,A,3555.4571,N,08401.9463,W,0.02,329.80,250721,,,A*7B
$GPGGA,204232.500,3555.4571,N,08401.9463,W,1,07,1.48,326.4,M,-32.1,M,,*5E
$GPRMC,204232.750,A,3555.4571,N,08401.9463,W,0.01,353.61,250721,,,A*7F
$GPGGA,204233.000,3555.4571,N,08401.9463,W,1,07,1.71,326.4,M,-32.1,M,,*50
$GPRMC,204233.250,A,3555.4571,N,08401.9463,W,0.01,175.38,250721,,,A*71
$GPGGA,204233.500,3555.4571,N,08401.9463,W,1,07,1.48,326.4,M,-32.1,M,,*5F
$GPRMC,204233.750,A,3555.4571,N,08401.9463,W,0.03,15.72,250721,,,A*4F
$GPGGA,204234.000,3555.4571,N,08401.9463,W,1,07,1.48,326.4,M,-32.1,M,,*5D
$GPRMC,204234.250,A,3555.4571,N,08401.9463,W,0.01,138.69,250721,,,A*7B
$GPGGA,204234.500,3555.4571,N,08401.9463,W,1,07,1.48,326.4,M,-32.1,M,,*58
$GPRMC,204234.750,A,3555.4571,N,08401.9463,W,0.05,38.48,250721,,,A*48
$GPGGA,204235.000,3555.4571,N,08401.9463,W,1,07,1.48,326.4,M,-32.1,M,,*5C
$GPRMC,204235.250,A,3555.4571,N,08401.9463,W,0.02,35.97,250721,,,A*44
$GPGGA,204235.500,3555.4571,N,08401.9463,W,1,07,1.48,326.4,M,-32.1,M,,*59
$GPRMC,204235.750,A,3555.4571,N,08401.9463,W,0.03,159.05,250721,,,A*70
$GPGGA,204236.000,3555.4571,N,08401.9463,W,1,07,1.48,326.4,M,-32.1,M,,*5F
$GPRMC,204236.250,A,3555.4571,N,08401.9463,W,0.04,8.23,250721,,,A*70
$GPGGA,204236.500,3555.4571,N,08401.9463,W,1,07,1.71,326.4,M,-32.1,M,,*50
$GPRMC,204236.750,A,3555.4571,N,08401.9463,W,0.03,282.17,250721,,,A*75
$GPGGA,204237.000,3555.4571,N,08401.9463,W,1,07,1.48,326.4,M,-32.1,M,,*5E
$GPRMC,204237.250,A,3555.4571,N,08401.9463,W,0.01,194.71,250721,,,A*77
$GPGGA,204237.500,3555.4571,N,08401.9463,W,1,07,1.48,326.4,M,-32.1,M,,*5B
$GPRMC,204237.750,A,3555.4571,N,08401.9462,W,0.02,194.05,250721,,,A*73
$GPGGA,204238.000,3555.4571,N,08401.9462,W,1,07,1.48,326.4,M,-32.1,M,,*50
$GPRMC,204238.250,A,3555.4571,N,08401.9462,W,0.02,197.86,250721,,,A*71
$GPGGA,204238.500,3555.4571,N,08401.9463,W,1,07,1.48,326.4,M,-32.1,M,,*54
$GPRMC,204238.750,A,3555.4571,N,08401.9463,W,0.04,195.82,250721,,,A*75
$GPGGA,204239.000,3555.4571,N,08401.9463,W,1,07,1.48,326.3,M,-32.1,M,,*57
$GPRMC,204239.250,A,3555.4571,N,08401.9463,W,0.04,155.92,250721,,,A*7C
$GPGGA,204239.500,3555.4571,N,08401.9463,W,1,07,1.48,326.3,M,-32.1,M,,*52
$GPRMC,204239.750,A,3555.4571,N,08401.9463,W,0.02,63.81,250721,,,A*49
$GPGGA,204240.000,3555.4571,N,08401.9463,W,1,07,1.48,326.3,M,-32.1,M,,*59
$GPRMC,204240.250,A,3555.4571,N,08401.9463,W,0.03,321.67,250721,,,A*7E
$GPGGA,204240.500,3555.4571,N,08401.9463,W,1,07,1.48,326.3,M,-32.1,M,,*5C
$GPRMC,204240.750,A,3555.4571,N,08401.9463,W,0.04,162.62,250721,,,A*7C
$GPGGA,204241.000,3555.4571,N,08401.9463,W,1,07,1.48,326.3,M,-32.1,M,,*58
$GPRMC,204241.250,A,3555.4571,N,08401.9463,W,0.01,42.22,250721,,,A*4A
$GPGGA,204241.500,3555.4571,N,08401.9463,W,1,07,1.48,326.3,M,-32.1,M,,*5D
$GPRMC,204241.750,A,3555.4571,N,08401.9463,W,0.04,312.55,250721,,,A*7C
$GPGGA,204242.000,3555.4571,N,08401.9463,W,1,07,1.48,326.3,M,-32.1,M,,*5B
$GPRMC,204242.250,A,3555.4571,N,08401.9463,W,0.05,13.45,250721,,,A*48
$GPGGA,204242.500,3555.4571,N,08401.9463,W,1,07,1.71,326.3,M,-32.1,M,,*54
$GPRMC,204242.750,A,3555.4571,N,08401.9463,W,0.03,336.50,250721,,,A*7B
$GPGGA,204243.000,3555.4571,N,08401.9463,W,1,07,1.48,326.3,M,-32.1,M,,*5A
$GPRMC,204243.250,A,3555.4571,N,08401.9463,W,0.05,6.68,250721,,,A*72
$GPGGA,204243.500,3555.4571,N,08401.9463,W,1,07,1.71,326.3,M,-32.1,M,,*55
$GPRMC,204243.750,A,3555.4571,N,08401.9463,W,0.03,93.46,250721,,,A*41
$GPGGA,204244.000,3555.4571,N,08401.9462,W,1,07,1.48,326.3,M,-32.1,M,,*5C
$GPRMC,204244.250,A,3555.4571,N,08401.9463,W,0.03,340.89,250721,,,A*7D
$GPGGA,204244.500,3555.4571,N,08401.9463,W,1,07,1.70,326.3,M,-32.1,M,,*53
$GPRMC,204244.750,A,3555.4571,N,08401.9463,W,0.01,216.72,250721,,,A*7C
$GPGGA,204245.000,3555.4571,N,08401.9463,W,1,07,1.71,326.3,M,-32.1,M,,*56
$GPRMC,204245.250,A,3555.4571,N,08401.9463,W,0.01,116.15,250721,,,A*7A
$GPGGA,204245.500,3555.4571,N,08401.9463,W,1,07,1.70,326.3,M,-32.1,M,,*52
$GPRMC,204245.750,A,3555.4571,N,08401.9463,W,0.01,62.87,250721,,,A*46
$GPGGA,204246.000,3555.4571,N,08401.9463,W,1,07,1.70,326.3,M,-32.1,M,,*54
$GPRMC,204246.250,A,3555.4571,N,08401.9463,W,0.00,104.60,250721,,,A*79
$GPGGA,204246.500,3555.4571,N,08401.9463,W,1,07,1.71,326.3,M,-32.1,M,,*50
$GPRMC,204246.750,A,3555.4571,N,08401.9463,W,0.01,123.91,250721,,,A*76
$GPGGA,204247.000,3555.4571,N,08401.9463,W,1,07,1.71,326.3,M,-32.1,M,,*54
$GPRMC,204247.250,A,3555.4571,N,08401.9463,W,0.01,4.79,250721,,,A*70
$GPGGA,204247.500,3555.4571,N,08401.9463,W,1,07,1.71,326.3,M,-32.1,M,,*51
$GPRMC,204247.750,A,3555.4571,N,08401.9463,W,0.01,21.59,250721,,,A*40
$GPGGA,204248.000,3555.4571,N,08401.9463,W,1,07,1.70,326.3,M,-32.1,M,,*5A
$GPRMC,204248.250,A,3555.4571,N,08401.9463,W,0.01,229.26,250721,,,A*78
$GPGGA,204248.500,3555.4571,N,08401.9463,W,1,07,1.70,326.3,M,-32.1,M,,*5F
$GPRMC,204248.750,A,3555.4571,N,08401.9463,W,0.01,59.77,250721,,,A*4C
$GPGGA,204249.000,3555.4571,N,08401.9463,W,1,07,1.70,326.3,M,-32.1,M,,*5B
$GPRMC,204249.250,A,3555.4571,N,08401.9463,W,0.00,90.50,250721,,,A*49
$GPGGA,204249.500,3555.4571,N,08401.9463,W,1,07,1.70,326.3,M,-32.1,M,,*5E
$GPRMC,204249.750,A,3555.4571,N,08401.9463,W,0.01,76.37,250721,,,A*44
$GPGGA,204250.000,3555.4571,N,08401.9463,W,1,07,1.70,326.3,M,-32.1,M,,*53
$GPRMC,204250.250,A,3555.4571,N,08401.9463,W,0.01,56.22,250721,,,A*4F
$GPGGA,204250.500,3555.4571,N,08401.9463,W,1,07,1.71,326.3,M,-32.1,M,,*57
$GPRMC,204250.750,A,3555.4571,N,08401.9463,W,0.01,17.18,250721,,,A*46
$GPGGA,204251.000,3555.4571,N,08401.9463,W,1,07,1.70,326.3,M,-32.1,M,,*52
$GPRMC,204251.250,A,3555.4571,N,08401.9463,W,0.00,333.94,250721,,,A*72
$GPGGA,204251.500,3555.4571,N,08401.9463,W,1,07,1.70,326.3,M,-32.1,M,,*57
$GPRMC,204251.750,A,3555.4571,N,08401.9463,W,0.00,267.04,250721,,,A*7E
$GPGGA,204252.000,3555.4571,N,08401.9463,W,1,07,1.70,326.3,M,-32.1,M,,*51
$GPRMC,204252.250,A,3555.4571,N,08401.9463,W,0.01,174.40,250721,,,A*78
$GPGGA,204252.500,3555.4571,N,08401.9463,W,1,07,1.70,326.3,M,-32.1,M,,*54
$GPRMC,204252.750,A,3555.4571,N,08401.9463,W,0.00,96.48,250721,,,A*49
$GPGGA,204253.000,3555.4571,N,08401.9463,W,1,07,1.70,326.3,M,-32.1,M,,*50
$GPRMC,204253.250,A,3555.4571,N,08401.9463,W,0.01,54.83,250721,,,A*45
$GPGGA,204253.500,3555.4571,N,08401.9463,W,1,07,1.70,326.3,M,-32.1,M,,*55
$GPRMC,204253.750,A,3555.4571,N,08401.9463,W,0.01,34.65,250721,,,A*4E
$GPGGA,204254.000,3555.4571,N,08401.9463,W,1,07,1.70,326.3,M,-32.1,M,,*57
$GPRMC,204254.250,A,3555.4571,N,08401.9463,W,0.00,147.79,250721,,,A*75
$GPGGA,204254.500,3555.4571,N,08401.9463,W,1,07,1.70,326.3,M,-32.1,M,,*52
$GPRMC,204254.750,A,3555.4571,N,08401.9463,W,0.00,332.90,250721,,,A*77
$GPGGA,204255.000,3555.4571,N,08401.9463,W,1,07,1.70,326.3,M,-32.1,M,,*56
$GPRMC,204255.250,A,3555.4571,N,08401.9463,W,0.00,359.81,250721,,,A*7E
$GPGGA,204255.500,3555.4571,N,08401.9463,W,1,07,1.70,326.3,M,-32.1,M,,*53
$GPRMC,204255.750,A,3555.4571,N,08401.9463,W,0.01,48.17,250721,,,A*46
$GPGGA,204256.000,3555.4571,N,08401.9463,W,1,07,1.70,326.3,M,-32.1,M,,*55
$GPRMC,204256.250,A,3555.4571,N,08401.9463,W,0.00,204.54,250721,,,A*7C
$GPGGA,204256.500,3555.4571,N,08401.9463,W,1,07,1.70,326.3,M,-32.1,M,,*50
$GPRMC,204256.750,A,3555.4571,N,08401.9463,W,0.00,354.29,250721,,,A*77
$GPGGA,204257.000,3555.4571,N,08401.9463,W,1,07,1.70,326.3,M,-32.1,M,,*54
$GPRMC,204257.250,A,3555.4571,N,08401.9463,W,0.01,178.10,250721,,,A*74
$GPGGA,204257.500,3555.4571,N,08401.9463,W,1,07,1.70,326.3,M,-32.1,M,,*51
$GPRMC,204257.750,A,3555.4571,N,08401.9463,W,0.01,147.87,250721,,,A*73
$GPGGA,204258.000,3555.4571,N,08401.9463,W,1,07,1.70,326.3,M,-32.1,M,,*5B
$GPRMC,204258.250,A,3555.4571,N,08401.9463,W,0.00,41.76,250721,,,A*41
$GPGGA,204258.500,3555.4571,N,08401.9463,W,1,07,1.70,326.3,M,-32.1,M,,*5E
$GPRMC,204258.750,A,3555.4571,N,08401.9463,W,0.00,254.50,250721,,,A*76
$GPGGA,204259.000,3555.4571,N,08401.9463,W,1,07,1.70,326.3,M,-32.1,M,,*5A
$GPRMC,204259.250,A,3555.4571,N,08401.9463,W,0.01,199.66,250721,,,A*74
$GPGGA,204259.500,3555.4571,N,08401.9463,W,1,07,1.70,326.3,M,-32.1,M,,*5F
$GPRMC,204259.750,A,3555.4571,N,08401.9463,W,0.00,213.08,250721,,,A*79
$GPGGA,204300.000,3555.4571,N,08401.9463,W,1,07,1.70,326.3,M,-32.1,M,,*57
$GPRMC,204300.250,A,3555.4571,N,08401.9463,W,0.01,266.86,250721,,,A*74
$GPGGA,204300.500,3555.4571,N,08401.9463,W,1,07,1.70,326.3,M,-32.1,M,,*52
$GPRMC,204300.750,A,3555.4571,N,08401.9463,W,0.01,61.48,250721,,,A*46
$GPGGA,204301.000,3555.4571,N,08401.9463,W,1,07,1.70,326.3,M,-32.1,M,,*56
$GPRMC,204301.250,A,3555.4571,N,08401.9463,W,0.01,2.67,250721,,,A*7A
$GPGGA,204301.500,3555.4571,N,08401.9463,W,1,07,1.70,326.3,M,-32.1,M,,*53
$GPRMC,204301.750,A,3555.4571,N,08401.9463,W,0.01,120.06,250721,,,A*79
$GPGGA,204302.000,3555.4571,N,08401.9463,W,1,07,1.70,326.3,M,-32.1,M,,*55
$GPRMC,204302.250,A,3555.4571,N,08401.9463,W,0.00,186.07,250721,,,A*73
$GPGGA,204302.500,3555.4571,N,08401.9463,W,1,07,1.70,326.3,M,-32.1,M,,*50
$GPRMC,204302.750,A,3555.4571,N,08401.9463,W,0.01,315.01,250721,,,A*79
$GPGGA,204303.000,3555.4571,N,08401.9463,W,1,07,1.70,326.3,M,-32.1,M,,*54
$GPRMC,204303.250,A,3555.4571,N,08401.9463,W,0.00,113.71,250721,,,A*7F
$GPGGA,204303.500,3555.4571,N,08401.9463,W,1,07,1.70,326.3,M,-32.1,M,,*51
$GPRMC,204303.750,A,3555.4571,N,08401.9463,W,0.01,149.35,250721,,,A*74
$GPGGA,204304.000,3555.4571,N,08401.9463,W,1,07,1.70,326.3,M,-32.1,M,,*53
$GPRMC,204304.250,A,3555.4571,N,08401.9463,W,0.01,3.62,250721,,,A*7B
$GPGGA,204304.500,3555.4571,N,08401.9463,W,1,07,1.70,326.3,M,-32.1,M,,*56
$GPRMC,204304.750,A,3555.4571,N,08401.9463,W,0.01,167.11,250721,,,A*79
$GPGGA,204305.000,3555.4571,N,08401.9463,W,1,07,1.70,326.3,M,-32.1,M,,*52
$GPRMC,204305.250,A,3555.4571,N,08401.9463,W,0.00,262.56,250721,,,A*79
$GPGGA,204305.500,3555.4571,N,08401.9463,W,1,07,1.70,326.3,M,-32.1,M,,*57
$GPRMC,204305.750,A,3555.4571,N,08401.9463,W,0.00,271.97,250721,,,A*73
$GPGGA,204306.000,3555.4571,N,08401.9463,W,1,07,1.70,326.3,M,-32.1,M,,*51
$GPRMC,204306.250,A,3555.4571,N,08401.9463,W,0.01,157.80,250721,,,A*75
$GPGGA,204306.500,3555.4571,N,08401.9463,W,1,07,1.70,326.3,M,-32.1,M,,*54
$GPRMC,204306.750,A,3555.4571,N,08401.9463,W,0.01,228.50,250721,,,A*76
$GPGGA,204307.000,3555.4571,N,08401.9463,W,1,07,1.70,326.3,M,-32.1,M,,*50
$GPRMC,204307.250,A,3555.4571,N,08401.9463,W,0.01,216.45,250721,,,A*7B
$GPGGA,204307.500,3555.4571,N,08401.9463,W,1,07,1.70,326.3,M,-32.1,M,,*55
$GPRMC,204307.750,A,3555.4571,N,08401.9463,W,0.01,232.72,250721,,,A*7C
$GPGGA,204308.000,3555.4571,N,08401.9463,W,1,07,1.70,326.3,M,-32.1,M,,*5F
$GPRMC,204308.250,A,3555.4571,N,08401.9463,W,0.01,210.41,250721,,,A*76
$GPGGA,204308.500,3555.4571,N,08401.9463,W,1,07,1.70,326.3,M,-32.1,M,,*5A
$GPRMC,204308.750,A,3555.4571,N,08401.9463,W,0.00,160.03,250721,,,A*70
$GPGGA,204309.000,3555.4571,N,08401.9463,W,1,07,1.70,326.3,M,-32.1,M,,*5E
$GPRMC,204309.250,A,3555.4571,N,08401.9463,W,0.01,75.44,250721,,,A*43
$GPGGA,204309.500,3555.4571,N,08401.9463,W,1,07,1.70,326.3,M,-32.1,M,,*5B
$GPRMC,204309.750,A,3555.4571,N,08401.9463,W,0.01,196.06,250721,,,A*7C
$GPGGA,204310.000,3555.4571,N,08401.9463,W,1,07,1.70,326.3,M,-32.1,M,,*56
$GPRMC,204310.250,A,3555.4571,N,08401.9463,W,0.01,327.77,250721,,,A*7F
$GPGGA,204310.500,3555.4571,N,08401.9463,W,1,07,1.70,326.3,M,-32.1,M,,*53
$GPRMC,204310.750,A,3555.4571,N,08401.9463,W,0.01,217.07,250721,,,A*7F
$GPGGA,204311.000,3555.4571,N,08401.9463,W,1,07,1.70,326.3,M,-32.1,M,,*57
$GPRMC,204311.250,A,3555.4571,N,08401.9463,W,0.00,17.62,250721,,,A*4B
$GPGGA,204311.500,3555.4571,N,08401.9463,W,1,07,1.70,326.3,M,-32.1,M,,*52
$GPRMC,204311.750,A,3555.4571,N,08401.9463,W,0.01,29.93,250721,,,A*4C
$GPGGA,204312.000,3555.4571,N,08401.9463,W,1,07,1.70,326.3,M,-32.1,M,,*54
$GPRMC,204312.250,A,3555.4571,N,08401.9463,W,0.00,92.44,250721,,,A*41
$GPGGA,204312.500,3555.4571,N,08401.9463,W,1,07,1.70,326.3,M,-32.1,M,,*51
$GPRMC,204312.750,A,3555.4571,N,08401.9463,W,0.01,225.54,250721,,,A*7A
$GPGGA,204313.000,3555.4571,N,08401.9463,W,1,07,1.70,326.3,M,-32.1,M,,*55
$GPRMC,204313.250,A,3555.4571,N,08401.9463,W,0.00,51.18,250721,,,A*46
$GPGGA,204313.500,3555.4571,N,08401.9463,W,1,07,1.70,326.3,M,-32.1,M,,*50
$GPRMC,204313.750,A,3555.4571,N,08401.9463,W,0.00,66.71,250721,,,A*48
$GPGGA,204314.000,3555.4571,N,08401.9463,W,1,07,1.70,326.3,M,-32.1,M,,*52
$GPRMC,204314.250,A,3555.4571,N,08401.9463,W,0.00,14.52,250721,,,A*4E
$GPGGA,204314.500,3555.4571,N,08401.9463,W,1,07,1.70,326.3,M,-32.1,M,,*57
$GPRMC,204314.750,A,3555.4571,N,08401.9463,W,0.00,63.28,250721,,,A*46
$GPGGA,204315.000,3555.4571,N,08401.9463,W,1,07,1.70,326.3,M,-32.1,M,,*53
$GPRMC,204315.250,A,3555.4571,N,08401.9463,W,0.01,61.07,250721,,,A*4C
$GPGGA,204315.500,3555.4571,N,08401.9463,W,1,07,1.70,326.3,M,-32.1,M,,*56
$GPRMC,204315.750,A,3555.4571,N,08401.9463,W,0.01,23.17,250721,,,A*4E
$GPGGA,204316.000,3555.4571,N,08401.9463,W,1,07,1.70,326.3,M,-32.1,M,,*50
$GPRMC,204316.250,A,3555.4571,N,08401.9463,W,0.00,213.39,250721,,,A*74
$GPGGA,204316.500,3555.4571,N,08401.9463,W,1,07,1.70,326.3,M,-32.1,M,,*55
$GPRMC,204316.750,A,3555.4571,N,08401.9463,W,0.00,257.48,250721,,,A*77
$GPGGA,204317.000,3555.4571,N,08401.9463,W,1,07,1.70,326.3,M,-32.1,M,,*51
$GPRMC,204317.250,A,3555.4571,N,08401.9463,W,0.00,314.09,250721,,,A*70
$GPGGA,204317.500,3555.4571,N,08401.9463,W,1,07,1.70,326.3,M,-32.1,M,,*54
$GPRMC,204317.750,A,3555.4571,N,08401.9463,W,0.00,9.54,250721,,,A*72
$GPGGA,204318.000,3555.4571,N,08401.9463,W,1,07,1.70,326.3,M,-32.1,M,,*5E
$GPRMC,204318.250,A,3555.4571,N,08401.9463,W,0.00,326.05,250721,,,A*72
$GPGGA,204318.500,3555.4571,N,08401.9463,W,1,07,1.70,326.3,M,-32.1,M,,*5B
$GPRMC,204318.750,A,3555.4571,N,08401.9463,W,0.00,159.25,250721,,,A*7F
$GPGGA,204319.000,3555.4571,N,08401.9463,W,1,07,1.70,326.3,M,-32.1,M,,*5F
$GPRMC,204319.250,A,3555.4571,N,08401.9463,W,0.00,156.48,250721,,,A*7F
$GPGGA,204319.500,3555.4571,N,08401.9463,W,1,07,1.70,326.3,M,-32.1,M,,*5A
$GPRMC,204319.750,A,3555.4571,N,08401.9463,W,0.00,241.97,250721,,,A*7D
$GPGGA,204320.000,3555.4571,N,08401.9463,W,1,07,1.70,326.3,M,-32.1,M,,*55
$GPRMC,204320.250,A,3555.4571,N,08401.9463,W,0.00,0.00,250721,,,A*7B
$GPGGA,204320.500,3555.4571,N,08401.9463,W,1,07,1.70,326.3,M,-32.1,M,,*50
$GPRMC,204320.750,A,3555.4571,N,08401.9463,W,0.01,252.01,250721,,,A*7B
$GPGGA,204321.000,3555.4571,N,08401.9463,W,1,07,1.70,326.3,M,-32.1,M,,*54
$GPRMC,204321.250,A,3555.4571,N,08401.9463,W,0.01,255.82,250721,,,A*73
$GPGGA,204321.500,3555.4571,N,08401.9463,W,1,07,1.70,326.3,M,-32.1,M,,*51
$GPRMC,204321.750,A,3555.4571,N,08401.9463,W,0.00,294.30,250721,,,A*73
$GPGGA,204322.000,3555.4571,N,08401.9463,W,1,07,1.70,326.3,M,-32.1,M,,*57
$GPRMC,204322.250,A,3555.4571,N,08401.9463,W,0.00,9.16,250721,,,A*77
$GPGGA,204322.500,3555.4571,N,08401.9463,W,1,07,1.70,326.3,M,-32.1,M,,*52
$GPRMC,204322.750,A,3555.4571,N,08401.9463,W,0.00,329.83,250721,,,A*7F
$GPGGA,204323.000,3555.4571,N,08401.9463,W,1,07,1.70,326.3,M,-32.1,M,,*56
$GPRMC,204323.250,A,3555.4571,N,08401.9463,W,0.00,326.31,250721,,,A*7D
$GPGGA,204323.500,3555.4571,N,08401.9463,W,1,07,1.70,326.3,M,-32.1,M,,*53
$GPRMC,204323.750,A,3555.4571,N,08401.9463,W,0.01,292.43,250721,,,A*72
$GPGGA,204324.000,3555.4571,N,08401.9463,W,1,07,1.70,326.3,M,-32.1,M,,*51
$GPRMC,204324.250,A,3555.4571,N,08401.9463,W,0.00,12.20,250721,,,A*4E
$GPGGA,204324.500,3555.4571,N,08401.9463,W,1,07,1.70,326.3,M,-32.1,M,,*54
$GPRMC,204324.750,A,3555.4571,N,08401.9463,W,0.00,247.29,250721,,,A*70
$GPGGA,204325.000,3555.4571,N,08401.9463,W,1,07,1.70,326.3,M,-32.1,M,,*50
$GPRMC,204325.250,A,3555.4571,N,08401.9463,W,0.00,0.00,250721,,,A*7E
$GPGGA,204325.500,3555.4571,N,08401.9463,W,1,07,1.70,326.3,M,-32.1,M,,*55
$GPRMC,204325.750,A,3555.4571,N,08401.9463,W,0.00,307.79,250721,,,A*71
$GPGGA,204326.000,3555.4571,N,08401.9463,W,1,07,1.70,326.3,M,-32.1,M,,*53
$GPRMC,204326.250,A,3555.4571,N,08401.9463,W,0.01,291.05,250721,,,A*73
$GPGGA,204326.500,3555.4571,N,08401.9463,W,1,07,1.70,326.3,M,-32.1,M,,*56
$GPRMC,204326.750,A,3555.4571,N,08401.9463,W,0.00,275.96,250721,,,A*77
$GPGGA,204327.000,3555.4571,N,08401.9463,W,1,07,1.70,326.3,M,-32.1,M,,*52
$GPRMC,204327.250,A,3555.4571,N,08401.9463,W,0.00,203.95,250721,,,A*71
$GPGGA,204327.500,3555.4571,N,08401.9463,W,1,07,1.70,326.3,M,-32.1,M,,*57
$GPRMC,204327.750,A,3555.4571,N,08401.9463,W,0.00,216.43,250721,,,A*7B
$GPGGA,204328.000,3555.4571,N,08401.9463,W,1,07,1.70,326.3,M,-32.1,M,,*5D
$GPRMC,204328.250,A,3555.4571,N,08401.9463,W,0.01,226.07,250721,,,A*73
$GPGGA,204328.500,3555.4571,N,08401.9463,W,1,07,1.70,326.3,M,-32.1,M,,*58
$GPRMC,204328.750,A,3555.4571,N,08401.9463,W,0.01,284.02,250721,,,A*7B
$GPGGA,204329.000,3555.4571,N,08401.9463,W,1,07,1.70,326.3,M,-32.1,M,,*5C
$GPRMC,204329.250,A,3555.4571,N,08401.9463,W,0.01,331.52,250721,,,A*75
$GPGGA,204329.500,3555.4571,N,08401.9463,W,1,07,1.70,326.3,M,-32.1,M,,*59
$GPRMC,204329.750,A,3555.4571,N,08401.9463,W,0.00,267.44,250721,,,A*74
$GPGGA,204330.000,3555.4571,N,08401.9463,W,1,07,1.70,326.3,M,-32.1,M,,*54
$GPRMC,204330.250,A,3555.4571,N,08401.9463,W,0.01,216.83,250721,,,A*75
$GPGGA,204330.500,3555.4571,N,08401.9463,W,1,07,1.70,326.3,M,-32.1,M,,*51
$GPRMC,204330.750,A,3555.4571,N,08401.9463,W,0.01,326.12,250721,,,A*7A
$GPGGA,204331.000,3555.4571,N,08401.9463,W,1,07,1.70,326.3,M,-32.1,M,,*55
$GPRMC,204331.250,A,3555.4571,N,08401.9463,W,0.01,259.01,250721,,,A*75
$GPGGA,204331.500,3555.4571,N,08401.9463,W,1,07,1.70,326.3,M,-32.1,M,,*50
