Vers 81
USE_SERIAL_FEEDBACK=true
DEVELOPMENT_MODE=false
USE_RMC_ONLY=false

$GPRMC,182304.000,A,4308.2951,N,07726.2530,W,0.32,116.48,200721,,,A*7D
$GPGGA,182304.250,4308.2950,N,07726.2529,W,1,03,4.68,184.3,M,-34.4,M,,*55
$GPRMC,182304.500,A,4308.2950,N,07726.2529,W,0.78,132.49,200721,,,A*78
$GPGGA,182304.750,4308.2948,N,07726.2529,W,1,03,4.69,184.3,M,-34.4,M,,*58
$GPRMC,182305.000,A,4308.2948,N,07726.2528,W,0.70,132.53,200721,,,A*77
$GPGGA,182305.250,4308.2948,N,07726.2529,W,1,03,4.68,184.3,M,-34.4,M,,*5D
$GPRMC,182305.500,A,4308.2949,N,07726.2530,W,0.42,139.16,200721,,,A*71
$GPGGA,182305.750,4308.2948,N,07726.2531,W,1,03,4.68,184.3,M,-34.4,M,,*51
$GPRMC,182306.000,A,4308.2948,N,07726.2531,W,0.59,145.91,200721,,,A*79
$GPGGA,182306.250,4308.2947,N,07726.2532,W,1,03,4.69,184.3,M,-34.4,M,,*5A
$GPRMC,182306.500,A,4308.2947,N,07726.2533,W,0.67,157.93,200721,,,A*7D
$GPGGA,182306.750,4308.2947,N,07726.2534,W,1,03,4.69,184.3,M,-34.4,M,,*59
$GPRMC,182307.000,A,4308.2947,N,07726.2534,W,0.67,157.84,200721,,,A*78
$GPGGA,182307.250,4308.2948,N,07726.2536,W,1,03,4.69,184.3,M,-34.4,M,,*50
$GPRMC,182307.500,A,4308.2949,N,07726.2536,W,0.60,154.99,200721,,,A*79
$GPGGA,182307.750,4308.2950,N,07726.2538,W,1,03,4.69,184.3,M,-34.4,M,,*52
$GPRMC,182308.000,A,4308.2951,N,07726.2539,W,0.36,161.13,200721,,,A*72
$GPGGA,182308.077,4308.2952,N,07726.2540,W,1,03,4.68,184.3,M,-3.4,M,,*53
$GPGGA,182308.500,4308.2953,N,07726.2542,W,1,03,4.69,184.3,M,-34.4,M,,*54
$GPRMC,182308.500,A,4308.2953,N,07726.2542,W,0.12,187.66,200721,,,A*75
$GPGGA,182308.750,4308.2955,N,07726.2543,W,1,03,4.69,184.3,M,-34.4,M,,*54
$GPRMC,182308.750,A,4308.2955,N,07726.2543,W,0.02,182.39,200721$GPGGA,182309.000,4308.2956,N,07726.2544,W,1,03,4.69,184.3,M,-34.4,M,,*53
$GPRMC,182309.250,A,4308.2957,N,07726.2545,W,0.02,255.39,200721,,,A*72
$GPGGA,182309.500,4308.2957,N,07726.2546,W,1,03,4.69,184.3,M,-34.4,M,,*55
$GPRMC,182309.750,A,4308.2958,N,07726.2546,W,0.11,152.82,200721,,,A*7D
$GPGGA,182310.000,4308.2959,N,07726.2548,W,1,03,4.69,184.3,M,-34.4,M,,*58
$GPRMC,182310.250,A,4308.2960,N,07726.2550,W,0.08,155.07,200721,,,A*7E
$GPGGA,182310.500,4308.2962,N,07726.2552,W,1,03,4.69,184.3,M,-34.4,M,,*5E
$GPRMC,182310.750,A,4308.2963,N,07726.2554,W,0.10,254.07,200721,,,A*77
$GPGGA,182311.000,4308.2964,N,07726.2555,W,1,03,4.69,184.3,M,-34.4,M,,*5B
$GPRMC,182311.250,A,4308.2964,N,07726.2555,W,0.09,197.84,200721,,,A*7A
$GPGGA,182311.500,4308.2964,N,07726.2556,W,1,03,4.69,184.3,M,-34.4,M,,*5D
$GPRMC,182311.750,A,4308.2965,N,07726.2557,W,0.05,176.53,200721,,,A*75
$GPGGA,182312.000,4308.2965,N,07726.2558,W,1,03,4.69,184.3,M,-34.4,M,,*54
$GPRMC,182312.250,A,4308.2965,N,07726.2558,W,0.19,158.60,200721,,,A*7D
$GPGGA,182312.500,4308.2966,N,07726.2560,W,1,03,4.69,184.3,M,-34.4,M,,*59
$GPRMC,182312.750,A,4308.2967,N,07726.2561,W,0.13,188.14,200721,,,A*74
$GPGGA,182313.000,4308.2967,N,07726.2562,W,1,03,4.69,184.3,M,-34.4,M,,*5E
$GPRMC,182313.250,A,4308.2968,N,07726.2563,W,0.14,176.64,200721,,,A*7C
$GPGGA,182313.500,4308.2969,N,07726.2565,W,1,03,4.69,184.3,M,-34.4,M,,*52
$GPRMC,182313.750,A,4308.2970,N,07726.2566,W,0.10,189.45,200721,,,A*72
$GPGGA,182314.000,4308.2971,N,07726.2567,W,1,03,4.69,184.3,M,-34.4,M,,*5B
$GPGGA,182314.137,4308.2973,N,07726.2570,W,1,03,4.70,184.3,M,-34.4,M,,*52
$GPRMC,182314.137,A,4308.2973,N,07726.2570,W,0.10,191.36,200721,,A*7B
$GPGGA,182314.500,4308.2974,N,07726.2571,W,1,03,4.69,184.3,M,-34.4,M,,*5C
$GPRMC,182314.500,A,4308.2974,N,07726.2571,W,0.08,190.51,200721,,A*74
$GPGGA,182314.750,4308.2975,N,07726.2572,W,1,03,4.69,184.3,M,-34.4,M,,*59
$GPRMC,182314.750,A,4308.2975,N,07726.2572,W,0.07,192.34,200721,,A*7F
$GPGGA,182315.000,4308.2975,N,07726.2572,W,1,03,4.69,184.3,M,-34.4,M,,*5A
$GPRMC,182315.000,A,4308.2975,N,07726.2572,W,0.05,191.45,200721,,,A*7B
$GPGGA,182315.250,4308.2976,N,07726.2573,W,1,03,4.69,184.3,M,-34.4,M,,*5F
$GPRMC,182315.250,A,4308.2976,N,07726.2573,W,0.09,194.02,200721,,A*74
$GPGGA,182315.500,4308.2977,N,07726.2574,W,1,03,4.69,184.4,M,-34.4,M,,*5C
$GPRMC,182315.500,A,4308.2977,N,07726.2574,W,0.03,74.52,200721,,A*40
$GPGGA,182315.750,4308.2975,N,07726.2572,W,1,03,4.69,184.3,M,-34.4,M,,*58
$GPRMC,182315.750,A,4308.2975,N,07726.2572,W,0.28,141.13,200721$GPGGA,182316.000,4308.2977,N,07726.2574,W,1,03,4.69,184.4,M,-34.4,M,,*5A
$GPRMC,182316.250,A,4308.2978,N,07726.2575,W,0.06,149.61,200721,,,A*75
$GPGGA,182316.500,4308.2978,N,07726.2576,W,1,03,4.69,184.4,M,-34.4,M,,*52
$GPRMC,182316.750,A,4308.2979,N,07726.2577,W,0.06,130.57,200721,,,A*78
$GPGGA,182317.000,4308.2981,N,07726.2578,W,1,03,4.70,184.4,M,-34.4,M,,*56
$GPRMC,182317.250,A,4308.2981,N,07726.2579,W,0.01,339.08,200721,,,A*73
$GPGGA,182317.500,4308.2981,N,07726.2579,W,1,03,4.69,184.3,M,-34.4,M,,*5D
$GPRMC,182317.750,A,4308.2981,N,07726.2580,W,0.02,353.21,200721,,,A*74
$GPGGA,182318.000,4308.2981,N,07726.2580,W,1,03,90.23,184.3,M,-34.4,M,,*62
$GPRMC,182318.250,A,4308.2981,N,07726.2580,W,0.05,120.28,200721,,,A*76
$GPGGA,182318.500,4308.2981,N,07726.2580,W,1,03,4.70,184.3,M,-34.4,M,,*5C
$GPRMC,182318.750,A,4308.2981,N,07726.2580,W,0.01,354.31,200721,,,A*7E
$GPGGA,182319.000,4308.2981,N,07726.2580,W,1,03,90.23,184.3,M,-34.4,M,,*63
$GPRMC,182319.250,A,4308.2981,N,07726.2581,W,0.01,178.31,200721,,,A*77
$GPGGA,182319.500,4308.2981,N,07726.2581,W,1,03,4.69,184.3,M,-34.4,M,,*54
$GPRMC,182319.750,A,4308.2980,N,07726.2581,W,0.03,219.40,200721,,,A*73
$GPGGA,182320.000,4308.2980,N,07726.2581,W,1,03,4.70,184.3,M,-34.4,M,,*52
$GPGGA,182320.500,4308.2989,N,07726.2589,W,1,04,4.27,183.0,M,-34.4,M,,*57
$GPRMC,182320.500,A,4308.2989,N,07726.2589,W,0.03,42.05,200721,,A*42
$GPGGA,182320.750,4308.2988,N,07726.2588,W,1,04,4.28,182.9,M,-34.4,M,,*57
$GPRMC,182320.750,A,4308.2988,N,07726.2588,W,0.02,39.31,200721,$GPGGA,182321.000,4308.2987,N,07726.2588,W,1,04,4.28,182.8,M,-34.4,M,,*5A
$GPRMC,182321.250,A,4308.2987,N,07726.2588,W,0.02,20.83,200721,,,A*45
$GPGGA,182321.500,4308.2987,N,07726.2588,W,1,04,4.28,182.7,M,-34.4,M,,*50
$GPRMC,182321.750,A,4308.2986,N,07726.2588,W,0.03,357.64,200721,,,A*7A
$GPGGA,182322.000,4308.2986,N,07726.2588,W,1,04,19.63,182.5,M,-34.4,M,,*66
$GPRMC,182322.250,A,4308.2985,N,07726.2588,W,0.02,358.04,200721,,,A*77
$GPGGA,182322.500,4308.2984,N,07726.2587,W,1,04,19.64,182.3,M,-34.4,M,,*6F
$GPRMC,182322.750,A,4308.2984,N,07726.2587,W,0.01,303.04,200721,,,A*71
$GPGGA,182323.000,4308.2984,N,07726.2587,W,1,04,4.28,182.1,M,-34.4,M,,*5D
$GPRMC,182323.250,A,4308.2983,N,07726.2587,W,0.02,42.77,200721,,,A*43
$GPGGA,182323.500,4308.2983,N,07726.2587,W,1,04,4.28,181.9,M,-34.4,M,,*54
$GPRMC,182323.750,A,4308.2982,N,07726.2586,W,0.05,99.39,200721,,,A*4D
$GPGGA,182324.000,4308.2982,N,07726.2586,W,1,04,4.28,181.8,M,-34.4,M,,*57
$GPRMC,182324.250,A,4308.2981,N,07726.2586,W,0.05,96.89,200721,,,A*48
$GPGGA,182324.500,4308.2981,N,07726.2586,W,1,04,4.28,181.8,M,-34.4,M,,*51
$GPRMC,182324.750,A,4308.2981,N,07726.2586,W,0.02,120.90,200721,,,A*7E
$GPGGA,182325.000,4308.2981,N,07726.2587,W,1,04,4.28,181.6,M,-34.4,M,,*5A
$GPRMC,182325.250,A,4308.2981,N,07726.2587,W,0.02,191.95,200721,,,A*74
$GPGGA,182325.500,4308.2980,N,07726.2587,W,1,04,4.28,181.5,M,-34.4,M,,*5D
$GPRMC,182325.750,A,4308.2980,N,07726.2587,W,0.09,223.54,200721,,,A*7C
$GPGGA,182326.000,4308.2980,N,07726.2587,W,1,04,4.28,181.4,M,-34.4,M,,*5A
$GPRMC,182326.250,A,4308.2979,N,07726.2587,W,0.10,187.68,200721,,,A*76
$GPGGA,182326.500,4308.2979,N,07726.2587,W,1,04,4.28,181.3,M,-34.4,M,,*5E
$GPRMC,182326.750,A,4308.2979,N,07726.2587,W,0.11,168.47,200721,,,A*7E
$GPGGA,182327.000,4308.2979,N,07726.2587,W,1,04,4.28,181.3,M,-34.4,M,,*5A
$GPRMC,182327.250,A,4308.2979,N,07726.2587,W,0.10,140.46,200721,,,A*70
$GPGGA,182327.500,4308.2979,N,07726.2587,W,1,04,4.28,181.2,M,-34.4,M,,*5E
$GPRMC,182327.750,A,4308.2978,N,07726.2587,W,0.09,133.89,200721,,,A*7B
$GPGGA,182328.000,4308.2978,N,07726.2587,W,1,04,4.28,181.0,M,-34.4,M,,*57
$GPRMC,182328.250,A,4308.2978,N,07726.2586,W,0.09,137.90,200721,,,A*7C
$GPGGA,182328.500,4308.2977,N,07726.2586,W,1,04,4.28,180.9,M,-34.4,M,,*54
$GPRMC,182328.750,A,4308.2977,N,07726.2586,W,0.09,139.62,200721,,,A*75
$GPGGA,182329.000,4308.2977,N,07726.2586,W,1,04,4.28,180.8,M,-34.4,M,,*51
$GPRMC,182329.250,A,4308.2977,N,07726.2586,W,0.11,162.73,200721,,,A*76
$GPGGA,182329.500,4308.2977,N,07726.2586,W,1,04,4.28,180.7,M,-34.4,M,,*5B
$GPRMC,182329.750,A,4308.2977,N,07726.2586,W,0.08,169.33,200721,,,A*74
$GPGGA,182330.000,4308.2977,N,07726.2586,W,1,04,4.28,180.6,M,-34.4,M,,*57
$GPRMC,182330.250,A,4308.2976,N,07726.2585,W,0.16,190.65,200721,,,A*71
$GPGGA,182330.500,4308.2976,N,07726.2585,W,1,04,4.28,180.5,M,-34.4,M,,*53
$GPRMC,182330.750,A,4308.2975,N,07726.2585,W,0.26,196.27,200721,,,A*74
$GPGGA,182331.000,4308.2974,N,07726.2585,W,1,04,4.28,180.4,M,-34.4,M,,*54
$GPRMC,182331.250,A,4308.2974,N,07726.2585,W,0.27,182.37,200721,,,A*74
$GPGGA,182331.500,4308.2974,N,07726.2585,W,1,04,4.28,180.3,M,-34.4,M,,*56
$GPRMC,182331.750,A,4308.2975,N,07726.2586,W,0.21,189.38,200721,,,A*71
$GPGGA,182332.000,4308.2975,N,07726.2586,W,1,04,4.28,180.2,M,-34.4,M,,*53
$GPRMC,182332.250,A,4308.2991,N,07726.2600,W,0.16,212.49,200721,,,A*73
$GPGGA,182332.500,4308.2997,N,07726.2605,W,1,06,1.33,177.7,M,-34.4,M,,*52
$GPRMC,182332.750,A,4308.3003,N,07726.2611,W,0.14,266.64,200721,,,A*7B
$GPGGA,182333.000,4308.3008,N,07726.2615,W,1,06,1.33,176.3,M,-34.4,M,,*5C
$GPRMC,182333.250,A,4308.3012,N,07726.2619,W,0.12,241.39,200721,,,A*7C
$GPGGA,182333.500,4308.3015,N,07726.2621,W,1,06,1.33,175.1,M,-34.4,M,,*53
$GPRMC,182333.750,A,4308.3017,N,07726.2624,W,0.12,231.46,200721,,,A*7D
$GPGGA,182334.000,4308.3020,N,07726.2625,W,1,06,1.33,174.3,M,-34.4,M,,*50
$GPRMC,182334.250,A,4308.3021,N,07726.2627,W,0.08,233.85,200721,,,A*7F
$GPGGA,182334.500,4308.3023,N,07726.2628,W,1,06,1.33,173.8,M,-34.4,M,,*57
$GPRMC,182334.750,A,4308.3024,N,07726.2629,W,0.06,246.64,200721,,,A*72
$GPGGA,182335.000,4308.3025,N,07726.2630,W,1,06,1.33,173.3,M,-34.4,M,,*57
$GPRMC,182335.250,A,4308.3026,N,07726.2630,W,0.08,116.48,200721,,,A*7A
$GPGGA,182335.500,4308.3027,N,07726.2631,W,1,06,1.33,172.9,M,-34.4,M,,*5A
$GPRMC,182335.750,A,4308.3027,N,07726.2631,W,0.04,200.97,200721,,,A*75
$GPGGA,182336.000,4308.3027,N,07726.2632,W,1,06,1.33,172.9,M,-34.4,M,,*5F
$GPRMC,182336.250,A,4308.3027,N,07726.2632,W,0.04,185.52,200721,,,A*77
$GPGGA,182336.500,4308.3027,N,07726.2632,W,1,06,1.33,172.9,M,-34.4,M,,*5A
$GPRMC,182336.750,A,4308.3027,N,07726.2632,W,0.02,36.23,200721,,,A*4B
$GPGGA,182337.000,4308.3027,N,07726.2632,W,1,06,1.33,172.9,M,-34.4,M,,*5E
$GPRMC,182337.250,A,4308.3027,N,07726.2632,W,0.03,297.45,200721,,,A*77
$GPGGA,182337.500,4308.3027,N,07726.2632,W,1,06,1.33,172.9,M,-34.4,M,,*5B
$GPRMC,182337.750,A,4308.3027,N,07726.2632,W,0.04,335.28,200721,,,A*77
$GPGGA,182338.000,4308.3027,N,07726.2632,W,1,06,1.33,172.9,M,-34.4,M,,*51
$GPRMC,182336.250,A,4308.3029,N,07726.2633,W,0.03,34.25,200721,,,A*44
$GPGGA,182336.500,4308.3030,N,07726.2634,W,1,06,1.33,172.2,M,-34.4,M,,*51
$GPRMC,182336.750,A,4308.3031,N,07726.2635,W,0.04,284.66,200721,,,A*77
$GPGGA,182337.000,4308.3032,N,07726.2636,W,1,06,1.33,171.7,M,-34.4,M,,*53
$GPRMC,182337.250,A,4308.3033,N,07726.2637,W,0.03,284.06,200721,,,A*72
$GPGGA,182337.500,4308.3034,N,07726.2638,W,1,06,1.33,171.2,M,-34.4,M,,*5B
$GPRMC,182337.750,A,4308.3034,N,07726.2638,W,0.05,128.59,200721,,,A*76
$GPGGA,182338.000,4308.3035,N,07726.2639,W,1,06,1.33,170.8,M,-34.4,M,,*5A
$GPRMC,182338.250,A,4308.3036,N,07726.2640,W,0.05,88.86,200721,,,A*48
$GPGGA,182338.500,4308.3037,N,07726.2641,W,1,06,1.33,170.4,M,-34.4,M,,*5E
$GPRMC,182338.750,A,4308.3038,N,07726.2642,W,0.01,245.54,200721,,,A*79
$GPGGA,182339.000,4308.3038,N,07726.2642,W,1,06,1.33,170.0,M,-34.4,M,,*52
$GPRMC,182339.250,A,4308.3039,N,07726.2643,W,0.05,26.05,200721,,,A*4A
$GPGGA,182339.500,4308.3039,N,07726.2643,W,1,06,1.33,169.6,M,-34.4,M,,*59
$GPRMC,182339.750,A,4308.3039,N,07726.2643,W,0.01,211.47,200721,,,A*7B
$GPGGA,182340.000,4308.3040,N,07726.2644,W,1,06,1.33,169.4,M,-34.4,M,,*59
$GPRMC,182340.250,A,4308.3040,N,07726.2644,W,0.04,281.81,200721,,,A*7F
$GPGGA,182340.500,4308.3040,N,07726.2645,W,1,06,1.33,169.2,M,-34.4,M,,*5B
$GPRMC,182340.750,A,4308.3040,N,07726.2645,W,0.01,121.23,200721,,,A*7F
$GPGGA,182341.000,4308.3041,N,07726.2645,W,1,06,1.33,169.0,M,-34.4,M,,*5C
$GPRMC,182341.250,A,4308.3041,N,07726.2646,W,0.05,297.39,200721,,,A*78
$GPGGA,182341.500,4308.3041,N,07726.2646,W,1,06,1.33,168.8,M,-34.4,M,,*53
$GPRMC,182341.750,A,4308.3041,N,07726.2646,W,0.04,341.33,200721,,,A*7C
$GPGGA,182342.000,4308.3042,N,07726.2647,W,1,06,1.33,168.6,M,-34.4,M,,*59
$GPRMC,182342.250,A,4308.3042,N,07726.2647,W,0.04,298.85,200721,,,A*70
$GPGGA,182342.500,4308.3042,N,07726.2647,W,1,06,1.33,168.5,M,-34.4,M,,*5F
$GPRMC,182342.750,A,4308.3043,N,07726.2648,W,0.02,308.19,200721,,,A*70
$GPGGA,182343.000,4308.3043,N,07726.2648,W,1,06,1.33,168.4,M,-34.4,M,,*54
$GPRMC,182343.250,A,4308.3043,N,07726.2648,W,0.04,260.68,200721,,,A*7B
$GPGGA,182343.500,4308.3043,N,07726.2649,W,1,06,1.33,168.2,M,-34.4,M,,*56
$GPRMC,182343.750,A,4308.3043,N,07726.2649,W,0.11,255.53,200721,,,A*75
$GPGGA,182344.000,4308.3044,N,07726.2649,W,1,06,1.33,168.1,M,-34.4,M,,*50
$GPRMC,182344.250,A,4308.3044,N,07726.2649,W,0.14,251.14,200721,,,A*72
$GPGGA,182344.500,4308.3044,N,07726.2650,W,1,06,1.33,168.0,M,-34.4,M,,*5C
$GPRMC,182344.750,A,4308.3044,N,07726.2650,W,0.15,283.83,200721,,,A*7F
$GPGGA,182345.000,4308.3044,N,07726.2650,W,1,06,1.33,167.9,M,-34.4,M,,*5E
$GPRMC,182345.250,A,4308.3044,N,07726.2650,W,0.18,287.93,200721,,,A*73
$GPGGA,182345.500,4308.3044,N,07726.2650,W,1,06,1.33,167.8,M,-34.4,M,,*5A
$GPRMC,182345.750,A,4308.3044,N,07726.2651,W,0.18,293.50,200721,,,A*7D
$GPGGA,182346.000,4308.3044,N,07726.2651,W,1,06,1.33,167.7,M,-34.4,M,,*52
$GPRMC,182346.250,A,4308.3044,N,07726.2650,W,0.16,315.87,200721,,,A*71
$GPGGA,182346.500,4308.3044,N,07726.2651,W,1,06,1.33,167.6,M,-34.4,M,,*56
$GPRMC,182346.750,A,4308.3044,N,07726.2651,W,0.21,296.49,200721,,,A*79
$GPGGA,182347.000,4308.3044,N,07726.2651,W,1,06,1.33,167.5,M,-34.4,M,,*51
$GPRMC,182347.250,A,4308.3044,N,07726.2651,W,0.23,306.73,200721,,,A*7E
$GPGGA,182347.500,4308.3044,N,07726.2651,W,1,06,1.33,167.4,M,-34.4,M,,*55
$GPRMC,182347.750,A,4308.3044,N,07726.2651,W,0.25,310.07,200721,,,A*79
$GPGGA,182348.000,4308.3044,N,07726.2651,W,1,06,1.33,167.3,M,-34.4,M,,*58
$GPRMC,182348.250,A,4308.3045,N,07726.2651,W,0.26,316.09,200721,,,A*79
$GPGGA,182348.500,4308.3045,N,07726.2651,W,1,06,1.33,167.2,M,-34.4,M,,*5D
$GPRMC,182348.750,A,4308.3045,N,07726.2651,W,0.30,303.49,200721,,,A*7B
$GPGGA,182349.000,4308.3045,N,07726.2652,W,1,06,1.33,167.1,M,-34.4,M,,*59
$GPRMC,182349.250,A,4308.3045,N,07726.2652,W,0.29,299.59,200721,,,A*77
$GPGGA,182349.500,4308.3045,N,07726.2652,W,1,06,1.33,167.1,M,-34.4,M,,*5C
$GPRMC,182349.750,A,4308.3045,N,07726.2652,W,0.22,297.99,200721,,,A*7B
$GPGGA,182350.000,4308.3045,N,07726.2652,W,1,06,1.33,167.1,M,-34.4,M,,*51
$GPRMC,182350.250,A,4308.3045,N,07726.2652,W,0.19,298.34,200721,,,A*76
$GPGGA,182350.500,4308.3045,N,07726.2653,W,1,06,1.33,167.1,M,-34.4,M,,*55
$GPRMC,182350.750,A,4308.3045,N,07726.2653,W,0.15,298.04,200721,,,A*7D
$GPGGA,182351.000,4308.3045,N,07726.2653,W,1,06,1.33,167.1,M,-34.4,M,,*51
$GPRMC,182351.250,A,4308.3045,N,07726.2653,W,0.15,296.76,200721,,,A*72
$GPGGA,182351.500,4308.3045,N,07726.2653,W,1,06,1.33,167.1,M,-34.4,M,,*54
$GPRMC,182351.750,A,4308.3045,N,07726.2653,W,0.17,271.30,200721,,,A*7E
$GPGGA,182352.000,4308.3045,N,07726.2653,W,1,06,1.33,167.1,M,-34.4,M,,*52
$GPRMC,182352.250,A,4308.3045,N,07726.2653,W,0.13,281.70,200721,,,A*77
$GPGGA,182352.500,4308.3045,N,07726.2654,W,1,06,1.33,167.1,M,-34.4,M,,*50
$GPRMC,182352.750,A,4308.3045,N,07726.2654,W,0.06,320.47,200721,,,A*7F
$GPGGA,182353.000,4308.3045,N,07726.2654,W,1,06,1.33,167.1,M,-34.4,M,,*54
$GPRMC,182353.250,A,4308.3045,N,07726.2654,W,0.10,354.66,200721,,,A*7C
$GPGGA,182353.500,4308.3045,N,07726.2654,W,1,06,1.35,167.1,M,-34.4,M,,*57
$GPRMC,182353.750,A,4308.3045,N,07726.2654,W,0.20,339.04,200721,,,A*75
$GPGGA,182354.000,4308.3046,N,07726.2654,W,1,06,1.33,167.1,M,-34.4,M,,*50
$GPRMC,182354.250,A,4308.3046,N,07726.2654,W,0.19,345.17,200721,,,A*77
$GPGGA,182354.500,4308.3046,N,07726.2654,W,1,06,1.35,167.1,M,-34.4,M,,*53
$GPRMC,182354.750,A,4308.3046,N,07726.2654,W,0.07,351.53,200721,,,A*78
$GPGGA,182355.000,4308.3046,N,07726.2654,W,1,06,1.35,167.1,M,-34.4,M,,*57
$GPRMC,182355.250,A,4308.3046,N,07726.2654,W,0.09,324.93,200721,,,A*7C
$GPGGA,182355.500,4308.3046,N,07726.2654,W,1,06,1.33,167.1,M,-34.4,M,,*54
$GPRMC,182355.750,A,4308.3046,N,07726.2654,W,0.11,300.97,200721,,,A*72
$GPGGA,182356.000,4308.3046,N,07726.2654,W,1,06,1.33,167.0,M,-34.4,M,,*53
$GPRMC,182356.250,A,4308.3046,N,07726.2654,W,0.04,263.70,200721,,,A*7D
$GPGGA,182356.500,4308.3046,N,07726.2654,W,1,06,1.33,167.0,M,-34.4,M,,*56
$GPRMC,182356.750,A,4308.3046,N,07726.2654,W,0.10,155.17,200721,,,A*7A
$GPGGA,182357.000,4308.3046,N,07726.2654,W,1,06,1.33,167.0,M,-34.4,M,,*52
$GPRMC,182357.250,A,4308.3046,N,07726.2654,W,0.07,160.29,200721,,,A*73
$GPGGA,182357.500,4308.3046,N,07726.2654,W,1,06,1.33,167.0,M,-34.4,M,,*57
$GPRMC,182357.750,A,4308.3046,N,07726.2654,W,0.05,129.90,200721,,,A*7B
$GPGGA,182358.000,4308.3046,N,07726.2654,W,1,06,1.33,167.0,M,-34.4,M,,*5D
$GPRMC,182358.250,A,4308.3046,N,07726.2654,W,0.02,280.13,200721,,,A*7D
$GPGGA,182358.500,4308.3046,N,07726.2654,W,1,06,1.33,167.0,M,-34.4,M,,*58
$GPRMC,182358.750,A,4308.3046,N,07726.2654,W,0.08,46.98,200721,,,A*49
$GPGGA,182359.000,4308.3046,N,07726.2654,W,1,06,1.33,167.0,M,-34.4,M,,*5C
$GPRMC,182359.250,A,4308.3046,N,07726.2654,W,0.16,33.65,200721,,,A*42
$GPGGA,182359.500,4308.3046,N,07726.2654,W,1,06,1.33,167.0,M,-34.4,M,,*59
$GPRMC,182359.750,A,4308.3046,N,07726.2654,W,0.08,63.88,200721,,,A*4E
$GPGGA,182400.000,4308.3046,N,07726.2654,W,1,06,1.33,167.0,M,-34.4,M,,*57
$GPRMC,182400.250,A,4308.3046,N,07726.2654,W,0.03,46.05,200721,,,A*49
$GPGGA,182400.500,4308.3046,N,07726.2654,W,1,06,1.33,167.0,M,-34.4,M,,*52
$GPRMC,182400.750,A,4308.3046,N,07726.2654,W,0.01,162.35,200721,,,A*7A
$GPGGA,182401.000,4308.3046,N,07726.2654,W,1,06,1.33,167.0,M,-34.4,M,,*56
$GPRMC,182401.250,A,4308.3046,N,07726.2654,W,0.04,191.00,200721,,,A*71
$GPGGA,182401.500,4308.3046,N,07726.2654,W,1,06,1.33,167.0,M,-34.4,M,,*53
$GPRMC,182401.750,A,4308.3046,N,07726.2654,W,0.04,183.49,200721,,,A*7A
$GPGGA,182402.000,4308.3046,N,07726.2654,W,1,06,1.33,167.0,M,-34.4,M,,*55
$GPRMC,182402.250,A,4308.3046,N,07726.2654,W,0.01,182.40,200721,,,A*71
$GPGGA,182402.500,4308.3046,N,07726.2654,W,1,06,1.35,167.0,M,-34.4,M,,*56
$GPRMC,182402.750,A,4308.3046,N,07726.2653,W,0.04,163.13,200721,,,A*7F
$GPGGA,182403.000,4308.3046,N,07726.2653,W,1,06,1.35,167.0,M,-34.4,M,,*55
$GPRMC,182403.250,A,4308.3046,N,07726.2653,W,0.01,309.14,200721,,,A*77
$GPGGA,182403.500,4308.3046,N,07726.2653,W,1,06,1.35,167.0,M,-34.4,M,,*50
$GPRMC,182403.750,A,4308.3046,N,07726.2653,W,0.02,66.68,200721,,,A*40
$GPGGA,182404.000,4308.3046,N,07726.2653,W,1,06,1.35,167.0,M,-34.4,M,,*52
$GPRMC,182404.250,A,4308.3046,N,07726.2653,W,0.01,163.35,200721,,,A*7D
$GPGGA,182404.500,4308.3046,N,07726.2653,W,1,06,1.35,167.0,M,-34.4,M,,*57
$GPRMC,182404.750,A,4308.3046,N,07726.2653,W,0.01,264.14,200721,,,A*7F
$GPGGA,182405.000,4308.3046,N,07726.2653,W,1,06,1.35,167.0,M,-34.4,M,,*53
$GPRMC,182405.250,A,4308.3046,N,07726.2653,W,0.01,112.46,200721,,,A*7E
$GPGGA,182405.500,4308.3046,N,07726.2653,W,1,06,1.35,167.0,M,-34.4,M,,*56
$GPRMC,182405.750,A,4308.3046,N,07726.2653,W,0.01,315.69,200721,,,A*73
$GPGGA,182406.000,4308.3046,N,07726.2653,W,1,06,1.35,167.0,M,-34.4,M,,*50
$GPRMC,182406.250,A,4308.3046,N,07726.2653,W,0.01,128.22,200721,,,A*76
$GPGGA,182406.500,4308.3046,N,07726.2653,W,1,06,1.35,167.0,M,-34.4,M,,*55
$GPRMC,182406.750,A,4308.3046,N,07726.2653,W,0.00,0.00,200721,,,A*79
$GPGGA,182407.000,4308.3046,N,07726.2653,W,1,06,1.35,167.0,M,-34.4,M,,*51
$GPRMC,182407.250,A,4308.3046,N,07726.2653,W,0.01,241.75,200721,,,A*79
$GPGGA,182407.500,4308.3046,N,07726.2653,W,1,06,1.35,167.0,M,-34.4,M,,*54
$GPRMC,182407.750,A,4308.3046,N,07726.2653,W,0.00,218.74,200721,,,A*70
$GPGGA,182408.000,4308.3046,N,07726.2653,W,1,06,1.35,167.0,M,-34.4,M,,*5E
$GPRMC,182408.250,A,4308.3046,N,07726.2653,W,0.01,236.98,200721,,,A*75
$GPGGA,182408.500,4308.3046,N,07726.2653,W,1,06,1.35,167.0,M,-34.4,M,,*5B
$GPRMC,182408.750,A,4308.3046,N,07726.2653,W,0.00,294.45,200721,,,A*79
$GPGGA,182409.000,4308.3046,N,07726.2653,W,1,06,1.35,167.0,M,-34.4,M,,*5F
$GPRMC,182409.250,A,4308.3046,N,07726.2653,W,0.01,353.65,200721,,,A*74
$GPGGA,182409.500,4308.3046,N,07726.2653,W,1,06,1.35,167.0,M,-34.4,M,,*5A
$GPRMC,182409.750,A,4308.3046,N,07726.2653,W,0.01,343.36,200721,,,A*76
$GPGGA,182410.000,4308.3046,N,07726.2653,W,1,06,1.35,167.0,M,-34.4,M,,*57
$GPRMC,182410.250,A,4308.3046,N,07726.2653,W,0.01,210.17,200721,,,A*7F
$GPGGA,182410.500,4308.3046,N,07726.2653,W,1,06,1.35,167.0,M,-34.4,M,,*52
$GPRMC,182410.750,A,4308.3046,N,07726.2653,W,0.01,345.86,200721,,,A*73
$GPGGA,182411.000,4308.3046,N,07726.2653,W,1,06,1.35,167.0,M,-34.4,M,,*56
$GPRMC,182411.250,A,4308.3046,N,07726.2653,W,0.01,199.44,200721,,,A*7A
$GPGGA,182411.500,4308.3046,N,07726.2653,W,1,06,1.35,167.0,M,-34.4,M,,*53
$GPRMC,182411.750,A,4308.3046,N,07726.2653,W,0.00,19.74,200721,,,A*44
$GPGGA,182412.000,4308.3046,N,07726.2653,W,1,06,1.35,167.0,M,-34.4,M,,*55
$GPRMC,182412.250,A,4308.3046,N,07726.2653,W,0.00,0.00,200721,,,A*79
$GPGGA,182412.500,4308.3046,N,07726.2653,W,1,06,1.35,167.0,M,-34.4,M,,*50
$GPRMC,182412.750,A,4308.3046,N,07726.2653,W,0.00,251.25,200721,,,A*7D
$GPGGA,182413.000,4308.3046,N,07726.2653,W,1,06,1.35,167.0,M,-34.4,M,,*54
$GPRMC,182413.250,A,4308.3046,N,07726.2653,W,0.00,0.00,200721,,,A*78
$GPGGA,182413.500,4308.3046,N,07726.2653,W,1,06,1.35,167.0,M,-34.4,M,,*51
$GPRMC,182413.750,A,4308.3046,N,07726.2653,W,0.00,4.56,200721,,,A*7A
$GPGGA,182414.000,4308.3046,N,07726.2653,W,1,06,1.35,167.0,M,-34.4,M,,*53
$GPRMC,182414.250,A,4308.3046,N,07726.2653,W,0.00,12.00,200721,,,A*4C
$GPGGA,182414.500,4308.3046,N,07726.2653,W,1,06,1.35,167.0,M,-34.4,M,,*56
$GPRMC,182414.750,A,4308.3046,N,07726.2653,W,0.00,159.39,200721,,,A*7D
$GPGGA,182415.000,4308.3046,N,07726.2653,W,1,06,1.35,167.0,M,-34.4,M,,*52
$GPRMC,182415.250,A,4308.3046,N,07726.2653,W,0.00,0.00,200721,,,A*7E
$GPGGA,182415.500,4308.3046,N,07726.2653,W,1,06,1.35,167.0,M,-34.4,M,,*57
$GPRMC,182415.750,A,4308.3046,N,07726.2653,W,0.00,0.00,200721,,,A*7B
$GPGGA,182416.000,4308.3046,N,07726.2653,W,1,06,1.35,167.0,M,-34.4,M,,*51
$GPRMC,182416.250,A,4308.3046,N,07726.2653,W,0.00,143.18,200721,,,A*72
$GPGGA,182416.500,4308.3046,N,07726.2653,W,1,06,1.35,167.0,M,-34.4,M,,*54
$GPRMC,182416.750,A,4308.3046,N,07726.2653,W,0.00,76.59,200721,,,A*45
$GPGGA,182417.000,4308.3046,N,07726.2653,W,1,06,1.35,167.0,M,-34.4,M,,*50
$GPRMC,182417.250,A,4308.3046,N,07726.2653,W,0.00,54.32,200721,,,A*4C
$GPGGA,182417.500,4308.3046,N,07726.2653,W,1,06,1.35,167.0,M,-34.4,M,,*55
$GPRMC,182417.750,A,4308.3046,N,07726.2653,W,0.00,89.44,200721,,,A*48
$GPGGA,182418.000,4308.3046,N,07726.2653,W,1,06,1.35,167.0,M,-34.4,M,,*5F
$GPRMC,182418.250,A,4308.3046,N,07726.2653,W,0.00,168.14,200721,,,A*79
$GPGGA,182418.500,4308.3046,N,07726.2653,W,1,06,1.35,167.0,M,-34.4,M,,*5A
$GPRMC,182418.750,A,4308.3046,N,07726.2653,W,0.00,298.28,200721,,,A*7F
$GPGGA,182419.000,4308.3046,N,07726.2653,W,1,06,1.35,167.0,M,-34.4,M,,*5E
$GPRMC,182419.250,A,4308.3046,N,07726.2653,W,0.00,176.93,200721,,,A*78
$GPGGA,182419.500,4308.3046,N,07726.2653,W,1,06,1.35,167.0,M,-34.4,M,,*5B
$GPRMC,182419.750,A,4308.3046,N,07726.2653,W,0.00,118.97,200721,,,A*71
$GPGGA,182420.000,4308.3046,N,07726.2653,W,1,06,1.35,167.0,M,-34.4,M,,*54
$GPRMC,182420.250,A,4308.3046,N,07726.2653,W,0.00,53.84,200721,,,A*42
$GPGGA,182420.500,4308.3046,N,07726.2653,W,1,06,1.35,167.0,M,-34.4,M,,*51
$GPRMC,182420.750,A,4308.3046,N,07726.2653,W,0.00,128.77,200721,,,A*76
$GPGGA,182421.000,4308.3046,N,07726.2653,W,1,06,1.35,167.0,M,-34.4,M,,*55
$GPRMC,182421.250,A,4308.3046,N,07726.2653,W,0.00,122.28,200721,,,A*72
$GPGGA,182421.500,4308.3046,N,07726.2653,W,1,06,1.35,167.0,M,-34.4,M,,*50
$GPRMC,182421.750,A,4308.3046,N,07726.2653,W,0.01,342.73,200721,,,A*7C
$GPGGA,182422.000,4308.3046,N,07726.2653,W,1,06,1.35,167.0,M,-34.4,M,,*56
$GPRMC,182422.250,A,4308.3046,N,07726.2653,W,0.01,51.10,200721,,,A*4E
$GPGGA,182422.500,4308.3046,N,07726.2653,W,1,06,1.35,167.0,M,-34.4,M,,*53
$GPRMC,182422.750,A,4308.3046,N,07726.2653,W,0.01,88.04,200721,,,A*4A
$GPGGA,182423.000,4308.3046,N,07726.2653,W,1,06,1.35,167.0,M,-34.4,M,,*57
$GPRMC,182423.250,A,4308.3046,N,07726.2653,W,0.00,48.09,200721,,,A*4E
$GPGGA,182423.500,4308.3046,N,07726.2653,W,1,06,1.35,167.0,M,-34.4,M,,*52
$GPRMC,182423.750,A,4308.3046,N,07726.2653,W,0.01,97.55,200721,,,A*41
$GPGGA,182424.000,4308.3046,N,07726.2653,W,1,06,1.35,167.0,M,-34.4,M,,*50
$GPRMC,182424.250,A,4308.3046,N,07726.2653,W,0.01,257.86,200721,,,A*73
$GPGGA,182424.500,4308.3046,N,07726.2653,W,1,06,1.35,167.0,M,-34.4,M,,*55
$GPRMC,182424.750,A,4308.3046,N,07726.2653,W,0.01,231.72,200721,,,A*7D
$GPGGA,182425.000,4308.3046,N,07726.2653,W,1,06,1.35,167.0,M,-34.4,M,,*51
$GPRMC,182425.250,A,4308.3046,N,07726.2653,W,0.00,101.99,200721,,,A*7D
$GPGGA,182425.500,4308.3046,N,07726.2653,W,1,06,1.35,167.0,M,-34.4,M,,*54
$GPRMC,182425.750,A,4308.3046,N,07726.2653,W,0.00,241.29,200721,,,A*74
$GPGGA,182426.000,4308.3046,N,07726.2653,W,1,06,1.35,167.0,M,-34.4,M,,*52
$GPRMC,182426.250,A,4308.3046,N,07726.2653,W,0.00,0.00,200721,,,A*7E
$GPGGA,182426.500,4308.3046,N,07726.2653,W,1,06,1.35,167.0,M,-34.4,M,,*57
$GPRMC,182426.750,A,4308.3046,N,07726.2653,W,0.01,148.63,200721,,,A*72
$GPGGA,182427.000,4308.3046,N,07726.2653,W,1,06,1.35,167.0,M,-34.4,M,,*53
$GPRMC,182427.250,A,4308.3046,N,07726.2653,W,0.00,75.79,200721,,,A*43
$GPGGA,182427.500,4308.3046,N,07726.2653,W,1,06,1.35,167.0,M,-34.4,M,,*56
$GPRMC,182427.750,A,4308.3046,N,07726.2653,W,0.01,45.07,200721,,,A*4D
$GPGGA,182428.000,4308.3046,N,07726.2653,W,1,06,1.35,167.0,M,-34.4,M,,*5C
$GPRMC,182428.250,A,4308.3046,N,07726.2653,W,0.00,58.52,200721,,,A*4A
$GPGGA,182428.500,4308.3046,N,07726.2653,W,1,06,1.35,167.0,M,-34.4,M,,*59
$GPRMC,182428.750,A,4308.3046,N,07726.2653,W,0.00,0.00,200721,,,A*75
$GPGGA,182429.000,4308.3046,N,07726.2653,W,1,06,1.35,167.0,M,-34.4,M,,*5D
$GPRMC,182429.250,A,4308.3046,N,07726.2653,W,0.02,136.95,200721,,,A*7B
$GPGGA,182429.500,4308.3046,N,07726.2653,W,1,06,1.35,167.0,M,-34.4,M,,*58
$GPRMC,182429.750,A,4308.3046,N,07726.2653,W,0.04,150.51,200721,,,A*70
$GPGGA,182430.000,4308.3046,N,07726.2653,W,1,06,1.35,167.0,M,-34.4,M,,*55
$GPRMC,182430.250,A,4308.3046,N,07726.2653,W,0.02,201.35,200721,,,A*7E
$GPGGA,182430.500,4308.3046,N,07726.2653,W,1,06,1.35,167.0,M,-34.4,M,,*50
$GPRMC,182430.750,A,4308.3046,N,07726.2653,W,0.01,68.46,200721,,,A*41
$GPGGA,182431.000,4308.3046,N,07726.2653,W,1,06,1.35,167.0,M,-34.4,M,,*54
$GPRMC,182431.250,A,4308.3046,N,07726.2653,W,0.02,273.24,200721,,,A*7A
$GPGGA,182431.500,4308.3046,N,07726.2653,W,1,06,1.35,167.0,M,-34.4,M,,*51
$GPRMC,182431.750,A,4308.3046,N,07726.2653,W,0.01,341.31,200721,,,A*78
$GPGGA,182432.000,4308.3046,N,07726.2653,W,1,06,1.35,166.9,M,-34.4,M,,*5F
$GPRMC,182432.250,A,4308.3046,N,07726.2653,W,0.01,175.84,200721,,,A*75
$GPGGA,182432.500,4308.3046,N,07726.2653,W,1,06,1.35,166.9,M,-34.4,M,,*5A
$GPRMC,182432.750,A,4308.3046,N,07726.2653,W,0.01,21.38,200721,,,A*47
$GPGGA,182433.000,4308.3046,N,07726.2653,W,1,06,1.35,166.9,M,-34.4,M,,*5E
$GPRMC,182433.250,A,4308.3046,N,07726.2653,W,0.01,353.69,200721,,,A*71
$GPGGA,182433.500,4308.3046,N,07726.2653,W,1,06,1.35,166.9,M,-34.4,M,,*5B
$GPRMC,182433.750,A,4308.3046,N,07726.2653,W,0.00,154.76,200721,,,A*7E
$GPGGA,182434.000,4308.3046,N,07726.2653,W,1,06,1.35,166.9,M,-34.4,M,,*59
$GPRMC,182434.250,A,4308.3046,N,07726.2653,W,0.01,167.94,200721,,,A*71
$GPGGA,182434.500,4308.3046,N,07726.2653,W,1,06,1.35,166.9,M,-34.4,M,,*5C
$GPRMC,182434.750,A,4308.3046,N,07726.2653,W,0.01,299.73,200721,,,A*7F
$GPGGA,182435.000,4308.3046,N,07726.2653,W,1,06,1.35,166.9,M,-34.4,M,,*58
$GPRMC,182435.250,A,4308.3046,N,07726.2653,W,0.01,165.90,200721,,,A*76
$GPGGA,182435.500,4308.3046,N,07726.2653,W,1,06,1.35,166.9,M,-34.4,M,,*5D
$GPRMC,182435.750,A,4308.3046,N,07726.2653,W,0.01,176.91,200721,,,A*70
$GPGGA,182436.000,4308.3046,N,07726.2653,W,1,06,1.35,166.9,M,-34.4,M,,*5B
$GPRMC,182436.250,A,4308.3046,N,07726.2653,W,0.00,353.61,200721,,,A*7D
$GPGGA,182436.500,4308.3046,N,07726.2653,W,1,06,1.35,166.9,M,-34.4,M,,*5E
$GPRMC,182436.750,A,4308.3046,N,07726.2653,W,0.01,180.16,200721,,,A*75
$GPGGA,182437.000,4308.3046,N,07726.2653,W,1,06,1.35,166.9,M,-34.4,M,,*5A
$GPRMC,182437.250,A,4308.3046,N,07726.2653,W,0.01,4.45,200721,,,A*7A
$GPGGA,182437.500,4308.3046,N,07726.2653,W,1,06,1.35,166.9,M,-34.4,M,,*5F
$GPRMC,182437.750,A,4308.3046,N,07726.2653,W,0.01,89.61,200721,,,A*4C
$GPGGA,182438.000,4308.3046,N,07726.2653,W,1,06,1.35,166.9,M,-34.4,M,,*55
$GPRMC,182438.250,A,4308.3046,N,07726.2653,W,0.01,147.93,200721,,,A*78
$GPGGA,182438.500,4308.3046,N,07726.2653,W,1,06,1.35,166.9,M,-34.4,M,,*50
$GPRMC,182438.750,A,4308.3046,N,07726.2653,W,0.01,94.68,200721,,,A*46
$GPGGA,182439.000,4308.3046,N,07726.2653,W,1,06,1.35,166.9,M,-34.4,M,,*54
$GPRMC,182439.250,A,4308.3046,N,07726.2653,W,0.00,0.00,200721,,,A*70
$GPGGA,182439.500,4308.3046,N,07726.2653,W,1,06,1.35,166.9,M,-34.4,M,,*51
$GPRMC,182439.750,A,4308.3046,N,07726.2653,W,0.00,229.59,200721,,,A*70
$GPGGA,182440.000,4308.3046,N,07726.2653,W,1,06,1.35,166.9,M,-34.4,M,,*5A
$GPRMC,182440.250,A,4308.3046,N,07726.2653,W,0.00,222.20,200721,,,A*7E
$GPGGA,182440.500,4308.3046,N,07726.2653,W,1,06,1.35,166.9,M,-34.4,M,,*5F
$GPRMC,182440.750,A,4308.3046,N,07726.2653,W,0.00,14.53,200721,,,A*48
$GPGGA,182441.000,4308.3046,N,07726.2653,W,1,06,1.35,166.9,M,-34.4,M,,*5B
$GPRMC,182441.250,A,4308.3046,N,07726.2653,W,0.00,266.68,200721,,,A*73
$GPGGA,182441.500,4308.3046,N,07726.2653,W,1,06,1.35,166.9,M,-34.4,M,,*5E
$GPRMC,182441.750,A,4308.3046,N,07726.2653,W,0.00,275.63,200721,,,A*7F
$GPGGA,182442.000,4308.3046,N,07726.2653,W,1,06,1.35,166.9,M,-34.4,M,,*58
$GPRMC,182442.250,A,4308.3046,N,07726.2653,W,0.00,42.24,200721,,,A*4C
$GPGGA,182442.500,4308.3046,N,07726.2653,W,1,06,1.35,166.9,M,-34.4,M,,*5D
$GPRMC,182442.750,A,4308.3046,N,07726.2653,W,0.00,211.20,200721,,,A*79
$GPGGA,182443.000,4308.3046,N,07726.2653,W,1,06,1.35,166.9,M,-34.4,M,,*59
$GPRMC,182443.250,A,4308.3046,N,07726.2653,W,0.00,0.00,200721,,,A*7D
$GPGGA,182443.500,4308.3046,N,07726.2653,W,1,06,1.35,166.9,M,-34.4,M,,*5C
$GPRMC,182443.750,A,4308.3046,N,07726.2653,W,0.01,42.69,200721,,,A*40
$GPGGA,182444.000,4308.3046,N,07726.2653,W,1,06,1.35,166.9,M,-34.4,M,,*5E
$GPRMC,182444.250,A,4308.3046,N,07726.2653,W,0.00,188.59,200721,,,A*77
$GPGGA,182444.500,4308.3046,N,07726.2653,W,1,06,1.35,166.9,M,-34.4,M,,*5B
$GPRMC,182444.750,A,4308.3046,N,07726.2653,W,0.00,0.00,200721,,,A*7F
$GPGGA,182445.000,4308.3046,N,07726.2653,W,1,06,1.35,166.9,M,-34.4,M,,*5F
$GPRMC,182445.250,A,4308.3046,N,07726.2653,W,0.00,43.24,200721,,,A*4A
$GPGGA,182445.500,4308.3046,N,07726.2653,W,1,06,1.35,166.9,M,-34.4,M,,*5A
$GPRMC,182445.750,A,4308.3046,N,07726.2653,W,0.00,70.88,200721,,,A*49
$GPGGA,182446.000,4308.3046,N,07726.2653,W,1,06,1.35,166.9,M,-34.4,M,,*5C
$GPRMC,182446.250,A,4308.3046,N,07726.2653,W,0.00,0.00,200721,,,A*78
$GPGGA,182446.500,4308.3046,N,07726.2653,W,1,06,1.35,166.9,M,-34.4,M,,*59
$GPRMC,182446.750,A,4308.3046,N,07726.2653,W,0.00,312.83,200721,,,A*76
$GPGGA,182447.000,4308.3046,N,07726.2653,W,1,06,1.35,166.9,M,-34.4,M,,*5D
$GPRMC,182447.250,A,4308.3046,N,07726.2653,W,0.00,237.18,200721,,,A*76
$GPGGA,182447.500,4308.3046,N,07726.2653,W,1,06,1.35,166.9,M,-34.4,M,,*58
$GPRMC,182447.750,A,4308.3046,N,07726.2653,W,0.00,233.34,200721,,,A*79
$GPGGA,182448.000,4308.3046,N,07726.2653,W,1,06,1.35,166.9,M,-34.4,M,,*52
$GPRMC,182448.250,A,4308.3046,N,07726.2653,W,0.01,224.57,200721,,,A*71
$GPGGA,182448.500,4308.3046,N,07726.2653,W,1,06,1.35,166.9,M,-34.4,M,,*57
$GPRMC,182448.750,A,4308.3046,N,07726.2653,W,0.01,222.01,200721,,,A*71
$GPGGA,182449.000,4308.3046,N,07726.2653,W,1,06,1.35,166.9,M,-34.4,M,,*53
$GPRMC,182449.250,A,4308.3046,N,07726.2653,W,0.00,348.29,200721,,,A*73
$GPGGA,182449.500,4308.3046,N,07726.2653,W,1,06,1.35,166.9,M,-34.4,M,,*56
$GPRMC,182449.750,A,4308.3046,N,07726.2653,W,0.00,25.82,200721,,,A*4F
$GPGGA,182450.000,4308.3046,N,07726.2653,W,1,06,1.35,166.9,M,-34.4,M,,*5B
$GPRMC,182450.250,A,4308.3046,N,07726.2653,W,0.00,284.01,200721,,,A*70
$GPGGA,182450.500,4308.3046,N,07726.2653,W,1,06,1.35,166.9,M,-34.4,M,,*5E
$GPRMC,182450.750,A,4308.3046,N,07726.2653,W,0.00,229.29,200721,,,A*78
$GPGGA,182451.000,4308.3046,N,07726.2653,W,1,06,1.35,166.9,M,-34.4,M,,*5A
$GPRMC,182451.250,A,4308.3046,N,07726.2653,W,0.00,86.02,200721,,,A*42
$GPGGA,182451.500,4308.3046,N,07726.2653,W,1,06,1.35,166.9,M,-34.4,M,,*5F
$GPRMC,182451.750,A,4308.3046,N,07726.2653,W,0.00,327.58,200721,,,A*70
$GPGGA,182452.000,4308.3046,N,07726.2653,W,1,06,1.35,166.9,M,-34.4,M,,*59
$GPRMC,182452.250,A,4308.3046,N,07726.2653,W,0.00,272.15,200721,,,A*7E
$GPGGA,182452.500,4308.3046,N,07726.2653,W,1,06,1.35,166.9,M,-34.4,M,,*5C
$GPRMC,182452.750,A,4308.3046,N,07726.2653,W,0.01,230.02,200721,,,A*7A
$GPGGA,182453.000,4308.3046,N,07726.2653,W,1,06,1.35,166.9,M,-34.4,M,,*58
$GPRMC,182453.250,A,4308.3046,N,07726.2653,W,0.01,66.65,200721,,,A*4E
$GPGGA,182453.500,4308.3046,N,07726.2653,W,1,06,1.35,166.9,M,-34.4,M,,*5D
$GPRMC,182453.750,A,4308.3046,N,07726.2653,W,0.00,349.15,200721,,,A*73
$GPGGA,182454.000,4308.3046,N,07726.2653,W,1,06,1.35,166.9,M,-34.4,M,,*5F
$GPRMC,182454.250,A,4308.3046,N,07726.2653,W,0.01,238.30,200721,,,A*70
$GPGGA,182454.500,4308.3046,N,07726.2653,W,1,06,1.35,166.9,M,-34.4,M,,*5A
$GPRMC,182454.750,A,4308.3046,N,07726.2653,W,0.01,223.33,200721,,,A*7C
$GPGGA,182455.000,4308.3046,N,07726.2653,W,1,06,1.35,166.9,M,-34.4,M,,*5E
$GPRMC,182455.250,A,4308.3046,N,07726.2653,W,0.00,221.00,200721,,,A*7B
$GPGGA,182455.500,4308.3046,N,07726.2653,W,1,06,1.35,166.9,M,-34.4,M,,*5B
$GPRMC,182455.750,A,4308.3046,N,07726.2653,W,0.00,79.48,200721,,,A*4D
$GPGGA,182456.000,4308.3046,N,07726.2653,W,1,06,1.35,166.9,M,-34.4,M,,*5D
$GPRMC,182456.250,A,4308.3046,N,07726.2653,W,0.00,23.14,200721,,,A*4D
$GPGGA,182456.500,4308.3046,N,07726.2653,W,1,06,1.35,166.9,M,-34.4,M,,*58
$GPRMC,182456.750,A,4308.3046,N,07726.2653,W,0.00,286.67,200721,,,A*71
$GPGGA,182457.000,4308.3046,N,07726.2653,W,1,06,1.35,166.9,M,-34.4,M,,*5C
$GPRMC,182457.250,A,4308.3046,N,07726.2653,W,0.00,33.44,200721,,,A*48
$GPGGA,182457.500,4308.3046,N,07726.2653,W,1,06,1.35,166.9,M,-34.4,M,,*59
$GPRMC,182457.750,A,4308.3046,N,07726.2653,W,0.01,40.47,200721,,,A*4B
$GPGGA,182458.000,4308.3046,N,07726.2653,W,1,06,1.35,166.9,M,-34.4,M,,*53
$GPRMC,182458.250,A,4308.3046,N,07726.2653,W,0.01,68.42,200721,,,A*4E
$GPGGA,182458.500,4308.3046,N,07726.2653,W,1,06,1.35,166.9,M,-34.4,M,,*56
$GPRMC,182458.750,A,4308.3046,N,07726.2653,W,0.00,177.69,200721,,,A*7C
$GPGGA,182459.000,4308.3046,N,07726.2653,W,1,06,1.35,166.9,M,-34.4,M,,*52
$GPRMC,182459.250,A,4308.3046,N,07726.2653,W,0.00,232.58,200721,,,A*78
$GPGGA,182459.500,4308.3046,N,07726.2653,W,1,06,1.35,166.9,M,-34.4,M,,*57
$GPRMC,182459.750,A,4308.3046,N,07726.2653,W,0.00,272.85,200721,,,A*79
$GPGGA,182500.000,4308.3046,N,07726.2653,W,1,06,1.35,166.9,M,-34.4,M,,*5F
$GPRMC,182500.250,A,4308.3046,N,07726.2653,W,0.00,17.28,200721,,,A*47
$GPGGA,182500.500,4308.3046,N,07726.2653,W,1,06,1.35,166.9,M,-34.4,M,,*5A
$GPRMC,182500.750,A,4308.3046,N,07726.2653,W,0.01,304.03,200721,,,A*7B
$GPGGA,182501.000,4308.3046,N,07726.2653,W,1,06,1.35,166.9,M,-34.4,M,,*5E
$GPRMC,182501.250,A,4308.3046,N,07726.2653,W,0.01,53.83,200721,,,A*46
$GPGGA,182501.500,4308.3046,N,07726.2653,W,1,06,1.35,166.9,M,-34.4,M,,*5B
$GPRMC,182501.750,A,4308.3046,N,07726.2653,W,0.00,113.62,200721,,,A*78
$GPGGA,182502.000,4308.3046,N,07726.2653,W,1,06,1.35,166.9,M,-34.4,M,,*5D
$GPRMC,182502.250,A,4308.3046,N,07726.2653,W,0.01,92.13,200721,,,A*41
$GPGGA,182502.500,4308.3046,N,07726.2653,W,1,06,1.35,166.9,M,-34.4,M,,*58
$GPRMC,182502.750,A,4308.3046,N,07726.2653,W,0.00,57.45,200721,,,A*4F
$GPGGA,182503.000,4308.3046,N,07726.2653,W,1,06,1.35,166.9,M,-34.4,M,,*5C
$GPRMC,182503.250,A,4308.3046,N,07726.2653,W,0.00,48.60,200721,,,A*42
$GPGGA,182503.500,4308.3046,N,07726.2653,W,1,06,1.35,166.9,M,-34.4,M,,*59
$GPRMC,182503.750,A,4308.3046,N,07726.2653,W,0.00,74.97,200721,,,A*40
$GPGGA,182504.000,4308.3046,N,07726.2653,W,1,06,1.35,166.9,M,-34.4,M,,*5B
$GPRMC,182504.250,A,4308.3046,N,07726.2653,W,0.01,59.42,200721,,,A*44
$GPGGA,182504.500,4308.3046,N,07726.2653,W,1,06,1.35,166.9,M,-34.4,M,,*5E
$GPRMC,182504.750,A,4308.3046,N,07726.2653,W,0.01,280.30,200721,,,A*72
$GPGGA,182505.000,4308.3046,N,07726.2653,W,1,06,1.35,166.9,M,-34.4,M,,*5A
$GPRMC,182505.250,A,4308.3046,N,07726.2653,W,0.01,37.93,200721,,,A*41
$GPGGA,182505.500,4308.3046,N,07726.2653,W,1,06,1.35,166.9,M,-34.4,M,,*5F
$GPRMC,182505.750,A,4308.3046,N,07726.2653,W,0.01,18.88,200721,,,A*43
$GPGGA,182506.000,4308.3046,N,07726.2653,W,1,06,1.35,166.9,M,-34.4,M,,*59
$GPRMC,182506.250,A,4308.3046,N,07726.2653,W,0.01,76.77,200721,,,A*4D
$GPGGA,182506.500,4308.3046,N,07726.2653,W,1,06,1.35,166.9,M,-34.4,M,,*5C
$GPRMC,182506.750,A,4308.3046,N,07726.2653,W,0.00,341.39,200721,,,A*74
$GPGGA,182507.000,4308.3046,N,07726.2653,W,1,06,1.35,166.9,M,-34.4,M,,*58
$GPRMC,182507.250,A,4308.3046,N,07726.2653,W,0.01,28.03,200721,,,A*44
$GPGGA,182507.500,4308.3046,N,07726.2653,W,1,06,1.35,166.9,M,-34.4,M,,*5D
$GPRMC,182507.750,A,4308.3046,N,07726.2653,W,0.01,259.52,200721,,,A*71
$GPGGA,182508.000,4308.3046,N,07726.2653,W,1,06,1.35,166.9,M,-34.4,M,,*57
$GPRMC,182508.250,A,4308.3046,N,07726.2653,W,0.00,229.29,200721,,,A*71
$GPGGA,182508.500,4308.3046,N,07726.2653,W,1,06,1.35,166.9,M,-34.4,M,,*52
$GPRMC,182508.750,A,4308.3046,N,07726.2653,W,0.01,38.88,200721,,,A*4C
$GPGGA,182509.000,4308.3046,N,07726.2653,W,1,06,1.35,166.9,M,-34.4,M,,*56
$GPRMC,182509.250,A,4308.3046,N,07726.2653,W,0.00,357.69,200721,,,A*7C
$GPGGA,182509.500,4308.3046,N,07726.2653,W,1,06,1.35,166.9,M,-34.4,M,,*53
$GPRMC,182509.750,A,4308.3046,N,07726.2653,W,0.00,260.74,200721,,,A*70
$GPGGA,182510.000,4308.3046,N,07726.2653,W,1,06,1.35,166.9,M,-34.4,M,,*5E
$GPRMC,182510.250,A,4308.3046,N,07726.2653,W,0.00,329.73,200721,,,A*76
$GPGGA,182510.500,4308.3046,N,07726.2653,W,1,06,1.35,166.9,M,-34.4,M,,*5B
$GPRMC,182510.750,A,4308.3046,N,07726.2653,W,0.02,159.44,200721,,,A*70
$GPGGA,182511.000,4308.3046,N,07726.2653,W,1,06,1.35,166.9,M,-34.4,M,,*5F
$GPRMC,182511.250,A,4308.3046,N,07726.2653,W,0.01,118.64,200721,,,A*70
$GPGGA,182511.500,4308.3046,N,07726.2653,W,1,06,1.35,166.9,M,-34.4,M,,*5A
$GPRMC,182511.750,A,4308.3046,N,07726.2653,W,0.00,88.47,200721,,,A*4D
$GPGGA,182512.000,4308.3046,N,07726.2653,W,1,06,1.35,166.9,M,-34.4,M,,*5C
$GPRMC,182512.250,A,4308.3046,N,07726.2653,W,0.01,120.63,200721,,,A*7F
$GPGGA,182512.500,4308.3046,N,07726.2653,W,1,06,1.35,166.9,M,-34.4,M,,*59
$GPRMC,182512.750,A,4308.3046,N,07726.2653,W,0.01,251.88,200721,,,A*7A
$GPGGA,182513.000,4308.3046,N,07726.2653,W,1,06,1.35,166.9,M,-34.4,M,,*5D
$GPRMC,182513.250,A,4308.3046,N,07726.2653,W,0.02,164.75,200721,,,A*7A
$GPGGA,182513.500,4308.3046,N,07726.2653,W,1,06,1.35,166.9,M,-34.4,M,,*58
$GPRMC,182513.750,A,4308.3046,N,07726.2653,W,0.00,104.19,200721,,,A*71
$GPGGA,182514.000,4308.3046,N,07726.2653,W,1,06,1.35,166.9,M,-34.4,M,,*5A
$GPRMC,182514.250,A,4308.3046,N,07726.2653,W,0.01,149.31,200721,,,A*71
$GPGGA,182514.500,4308.3046,N,07726.2653,W,1,06,1.35,166.9,M,-34.4,M,,*5F
$GPRMC,182514.750,A,4308.3046,N,07726.2653,W,0.01,110.76,200721,,,A*7B
$GPGGA,182515.000,4308.3046,N,07726.2653,W,1,06,1.35,166.9,M,-34.4,M,,*5B
$GPRMC,182515.250,A,4308.3046,N,07726.2653,W,0.00,0.00,200721,,,A*7F
$GPGGA,182515.500,4308.3046,N,07726.2653,W,1,06,1.35,166.9,M,-34.4,M,,*5E
$GPRMC,182515.750,A,4308.3046,N,07726.2653,W,0.01,332.30,200721,,,A*7A
$GPGGA,182516.000,4308.3046,N,07726.2653,W,1,06,1.35,166.9,M,-34.4,M,,*58
$GPRMC,182516.250,A,4308.3046,N,07726.2653,W,0.01,6.79,200721,,,A*75
$GPGGA,182516.500,4308.3046,N,07726.2653,W,1,06,1.35,166.9,M,-34.4,M,,*5D
$GPRMC,182516.750,A,4308.3046,N,07726.2653,W,0.01,245.97,200721,,,A*75
$GPGGA,182517.000,4308.3046,N,07726.2653,W,1,06,1.35,166.9,M,-34.4,M,,*59
$GPRMC,182517.250,A,4308.3046,N,07726.2653,W,0.01,50.17,200721,,,A*4F
$GPGGA,182517.500,4308.3046,N,07726.2653,W,1,06,1.35,166.9,M,-34.4,M,,*5C
$GPRMC,182517.750,A,4308.3046,N,07726.2653,W,0.01,248.57,200721,,,A*75
$GPGGA,182518.000,4308.3046,N,07726.2653,W,1,06,1.35,166.9,M,-34.4,M,,*56
$GPRMC,182518.250,A,4308.3046,N,07726.2653,W,0.01,74.13,200721,,,A*42
$GPGGA,182518.500,4308.3046,N,07726.2653,W,1,06,1.35,166.9,M,-34.4,M,,*53
$GPRMC,182518.750,A,4308.3046,N,07726.2653,W,0.02,6.55,200721,,,A*73
$GPGGA,182519.000,4308.3046,N,07726.2653,W,1,06,1.35,166.9,M,-34.4,M,,*57
$GPRMC,182519.250,A,4308.3046,N,07726.2653,W,0.01,176.93,200721,,,A*78
$GPGGA,182519.500,4308.3046,N,07726.2653,W,1,06,1.35,166.9,M,-34.4,M,,*52
$GPRMC,182519.750,A,4308.3046,N,07726.2653,W,0.00,11.62,200721,,,A*42
$GPGGA,182520.000,4308.3046,N,07726.2653,W,1,06,1.35,166.9,M,-34.4,M,,*5D
$GPRMC,182520.250,A,4308.3046,N,07726.2653,W,0.01,334.55,200721,,,A*7C
$GPGGA,182520.500,4308.3046,N,07726.2653,W,1,06,1.35,166.8,M,-34.4,M,,*59
$GPRMC,182520.750,A,4308.3046,N,07726.2653,W,0.01,156.87,200721,,,A*70
$GPGGA,182521.000,4308.3046,N,07726.2653,W,1,06,1.35,166.8,M,-34.4,M,,*5D
$GPRMC,182521.250,A,4308.3046,N,07726.2653,W,0.01,53.71,200721,,,A*49
$GPGGA,182521.500,4308.3046,N,07726.2653,W,1,06,1.35,166.8,M,-34.4,M,,*58
$GPRMC,182521.750,A,4308.3046,N,07726.2653,W,0.01,251.94,200721,,,A*77
$GPGGA,182522.000,4308.3046,N,07726.2653,W,1,06,1.35,166.8,M,-34.4,M,,*5E
$GPRMC,182522.250,A,4308.3046,N,07726.2653,W,0.01,236.73,200721,,,A*79
$GPGGA,182522.500,4308.3046,N,07726.2653,W,1,06,1.35,166.8,M,-34.4,M,,*5B
$GPRMC,182522.750,A,4308.3046,N,07726.2653,W,0.01,27.92,200721,,,A*41
$GPGGA,182523.000,4308.3046,N,07726.2653,W,1,06,1.35,166.8,M,-34.4,M,,*5F
$GPRMC,182523.250,A,4308.3046,N,07726.2653,W,0.00,0.00,200721,,,A*7A
$GPGGA,182523.500,4308.3046,N,07726.2653,W,1,06,1.35,166.8,M,-34.4,M,,*5A
$GPRMC,182523.750,A,4308.3046,N,07726.2653,W,0.01,335.14,200721,,,A*7E
$GPGGA,182524.000,4308.3046,N,07726.2653,W,1,06,1.35,166.8,M,-34.4,M,,*58
$GPRMC,182524.250,A,4308.3046,N,07726.2653,W,0.00,118.29,200721,,,A*7E
$GPGGA,182524.500,4308.3046,N,07726.2653,W,1,06,1.35,166.8,M,-34.4,M,,*5D
$GPRMC,182524.750,A,4308.3046,N,07726.2653,W,0.01,2.78,200721,,,A*74
$GPGGA,182525.000,4308.3046,N,07726.2653,W,1,06,1.35,166.8,M,-34.4,M,,*59
$GPRMC,182525.250,A,4308.3046,N,07726.2653,W,0.00,96.18,200721,,,A*4A
$GPGGA,182525.500,4308.3046,N,07726.2653,W,1,06,1.35,166.8,M,-34.4,M,,*5C
$GPRMC,182525.750,A,4308.3046,N,07726.2653,W,0.01,61.55,200721,,,A*4F
$GPGGA,182526.000,4308.3046,N,07726.2653,W,1,06,1.35,166.8,M,-34.4,M,,*5A
$GPRMC,182526.250,A,4308.3046,N,07726.2653,W,0.01,34.12,200721,,,A*4A
$GPGGA,182526.500,4308.3046,N,07726.2653,W,1,06,1.35,166.8,M,-34.4,M,,*5F
$GPRMC,182526.750,A,4308.3046,N,07726.2653,W,0.00,0.00,200721,,,A*7A
$GPGGA,182527.000,4308.3046,N,07726.2653,W,1,06,1.35,166.8,M,-34.4,M,,*5B
$GPRMC,182527.250,A,4308.3046,N,07726.2653,W,0.00,18.35,200721,,,A*41
$GPGGA,182527.500,4308.3046,N,07726.2653,W,1,06,1.35,166.8,M,-34.4,M,,*5E
$GPRMC,182527.750,A,4308.3046,N,07726.2653,W,0.01,23.69,200721,,,A*44
$GPGGA,182528.000,4308.3046,N,07726.2653,W,1,06,1.35,166.8,M,-34.4,M,,*54
$GPRMC,182528.250,A,4308.3046,N,07726.2653,W,0.00,7.56,200721,,,A*75
$GPGGA,182528.500,4308.3046,N,07726.2653,W,1,06,1.35,166.8,M,-34.4,M,,*51
$GPRMC,182528.750,A,4308.3046,N,07726.2653,W,0.01,65.93,200721,,,A*4C
$GPGGA,182529.000,4308.3046,N,07726.2653,W,1,06,1.35,166.8,M,-34.4,M,,*55
$GPRMC,182529.250,A,4308.3046,N,07726.2653,W,0.00,259.39,200721,,,A*74
$GPGGA,182529.500,4308.3046,N,07726.2653,W,1,06,1.35,166.8,M,-34.4,M,,*50
$GPRMC,182529.750,A,4308.3046,N,07726.2653,W,0.01,24.09,200721,,,A*4B
$GPGGA,182530.000,4308.3046,N,07726.2653,W,1,06,1.35,166.8,M,-34.4,M,,*5D
$GPRMC,182530.250,A,4308.3046,N,07726.2653,W,0.01,30.93,200721,,,A*40
$GPGGA,182530.500,4308.3046,N,07726.2653,W,1,06,1.35,166.8,M,-34.4,M,,*58
$GPRMC,182530.750,A,4308.3046,N,07726.2653,W,0.01,100.87,200721,,,A*72
$GPGGA,182531.000,4308.3046,N,07726.2653,W,1,06,1.35,166.8,M,-34.4,M,,*5C
$GPRMC,182531.250,A,4308.3046,N,07726.2653,W,0.00,128.08,200721,,,A*7A
$GPGGA,182531.500,4308.3046,N,07726.2653,W,1,06,1.35,166.8,M,-34.4,M,,*59
$GPRMC,182531.750,A,4308.3046,N,07726.2653,W,0.01,263.32,200721,,,A*7B
$GPGGA,182532.000,4308.3046,N,07726.2653,W,1,06,1.35,166.8,M,-34.4,M,,*5F
$GPRMC,182532.250,A,4308.3046,N,07726.2653,W,0.01,91.57,200721,,,A*41
$GPGGA,182532.500,4308.3046,N,07726.2653,W,1,06,1.35,166.8,M,-34.4,M,,*5A
$GPRMC,182532.750,A,4308.3046,N,07726.2653,W,0.01,89.68,200721,,,A*41
$GPGGA,182533.000,4308.3046,N,07726.2653,W,1,06,1.35,166.8,M,-34.4,M,,*5E
$GPRMC,182533.250,A,4308.3046,N,07726.2653,W,0.01,14.87,200721,,,A*40
$GPGGA,182533.500,4308.3046,N,07726.2653,W,1,06,1.35,166.8,M,-34.4,M,,*5B
$GPRMC,182533.750,A,4308.3046,N,07726.2653,W,0.00,95.99,200721,,,A*42
$GPGGA,182534.000,4308.3046,N,07726.2653,W,1,06,1.35,166.8,M,-34.4,M,,*59
$GPRMC,182534.250,A,4308.3046,N,07726.2653,W,0.00,258.02,200721,,,A*71
$GPGGA,182534.500,4308.3046,N,07726.2653,W,1,06,1.35,166.8,M,-34.4,M,,*5C
$GPRMC,182534.750,A,4308.3046,N,07726.2653,W,0.01,103.78,200721,,,A*75
$GPGGA,182535.000,4308.3046,N,07726.2653,W,1,06,1.35,166.8,M,-34.4,M,,*58
$GPRMC,182535.250,A,4308.3046,N,07726.2653,W,0.01,26.18,200721,,,A*41
$GPGGA,182535.500,4308.3046,N,07726.2653,W,1,06,1.35,166.8,M,-34.4,M,,*5D
$GPRMC,182535.750,A,4308.3046,N,07726.2653,W,0.01,316.75,200721,,,A*7F
$GPGGA,182536.000,4308.3046,N,07726.2653,W,1,06,1.35,166.8,M,-34.4,M,,*5B
$GPRMC,182536.250,A,4308.3046,N,07726.2653,W,0.00,41.40,200721,,,A*4F
$GPGGA,182536.500,4308.3046,N,07726.2653,W,1,06,1.35,166.8,M,-34.4,M,,*5E
$GPRMC,182536.750,A,4308.3046,N,07726.2653,W,0.01,198.35,200721,,,A*7C
$GPGGA,182537.000,4308.3046,N,07726.2653,W,1,06,1.35,166.8,M,-34.4,M,,*5A
$GPRMC,182537.250,A,4308.3046,N,07726.2653,W,0.00,222.07,200721,,,A*7A
$GPGGA,182537.500,4308.3046,N,07726.2653,W,1,06,1.35,166.8,M,-34.4,M,,*5F
$GPRMC,182537.750,A,4308.3046,N,07726.2653,W,0.01,78.52,200721,,,A*43
$GPGGA,182538.000,4308.3046,N,07726.2653,W,1,06,1.35,166.8,M,-34.4,M,,*55
$GPRMC,182538.250,A,4308.3046,N,07726.2653,W,0.01,190.14,200721,,,A*7C
$GPGGA,182538.500,4308.3046,N,07726.2653,W,1,06,1.35,166.8,M,-34.4,M,,*50
$GPRMC,182538.750,A,4308.3046,N,07726.2653,W,0.01,145.79,200721,,,A*7A
$GPGGA,182539.000,4308.3046,N,07726.2653,W,1,06,1.35,166.8,M,-34.4,M,,*54
$GPRMC,182539.250,A,4308.3046,N,07726.2653,W,0.00,311.43,200721,,,A*75
$GPGGA,182539.500,4308.3046,N,07726.2653,W,1,06,1.35,166.8,M,-34.4,M,,*51
$GPRMC,182539.750,A,4308.3046,N,07726.2653,W,0.00,174.07,200721,,,A*71
$GPGGA,182540.000,4308.3046,N,07726.2653,W,1,06,1.34,166.8,M,-34.4,M,,*5B
$GPRMC,182540.250,A,4308.3046,N,07726.2653,W,0.00,0.00,200721,,,A*7F
$GPGGA,182540.500,4308.3046,N,07726.2653,W,1,06,1.35,166.8,M,-34.4,M,,*5F
$GPRMC,182540.750,A,4308.3046,N,07726.2653,W,0.00,238.57,200721,,,A*71
$GPGGA,182541.000,4308.3046,N,07726.2653,W,1,06,1.35,166.8,M,-34.4,M,,*5B
$GPRMC,182541.250,A,4308.3046,N,07726.2653,W,0.00,0.00,200721,,,A*7E
$GPGGA,182541.500,4308.3046,N,07726.2653,W,1,06,1.35,166.8,M,-34.4,M,,*5E
$GPRMC,182541.750,A,4308.3046,N,07726.2653,W,0.00,353.27,200721,,,A*7B
$GPGGA,182542.000,4308.3046,N,07726.2653,W,1,06,1.35,166.8,M,-34.4,M,,*58
$GPRMC,182542.250,A,4308.3046,N,07726.2653,W,0.00,65.38,200721,,,A*45
$GPGGA,182542.500,4308.3046,N,07726.2653,W,1,06,1.35,166.8,M,-34.4,M,,*5D
$GPRMC,182542.750,A,4308.3046,N,07726.2653,W,0.00,159.68,200721,,,A*7B
$GPGGA,182543.000,4308.3046,N,07726.2653,W,1,06,1.35,166.8,M,-34.4,M,,*59
$GPRMC,182543.250,A,4308.3046,N,07726.2653,W,0.00,14.04,200721,,,A*4D
$GPGGA,182543.500,4308.3046,N,07726.2653,W,1,06,1.35,166.8,M,-34.4,M,,*5C
$GPRMC,182543.750,A,4308.3046,N,07726.2653,W,0.00,239.94,200721,,,A*7C
$GPGGA,182544.000,4308.3046,N,07726.2653,W,1,06,1.35,166.8,M,-34.4,M,,*5E
$GPRMC,182544.250,A,4308.3046,N,07726.2653,W,0.00,0.00,200721,,,A*7B
$GPGGA,182544.500,4308.3046,N,07726.2653,W,1,06,1.35,166.8,M,-34.4,M,,*5B
$GPRMC,182544.750,A,4308.3046,N,07726.2653,W,0.00,85.54,200721,,,A*42
$GPGGA,182545.000,4308.3046,N,07726.2653,W,1,06,1.35,166.8,M,-34.4,M,,*5F
$GPRMC,182545.250,A,4308.3046,N,07726.2653,W,0.00,282.51,200721,,,A*76
$GPGGA,182545.500,4308.3046,N,07726.2653,W,1,06,1.35,166.8,M,-34.4,M,,*5A
$GPRMC,182545.750,A,4308.3046,N,07726.2653,W,0.00,338.81,200721,,,A*7E
$GPGGA,182546.000,4308.3046,N,07726.2653,W,1,06,1.35,166.8,M,-34.4,M,,*5C
$GPRMC,182546.250,A,4308.3046,N,07726.2653,W,0.00,94.60,200721,,,A*42
$GPGGA,182546.500,4308.3046,N,07726.2653,W,1,06,1.35,166.8,M,-34.4,M,,*59
$GPRMC,182546.750,A,4308.3046,N,07726.2653,W,0.00,310.19,200721,,,A*76
$GPGGA,182547.000,4308.3046,N,07726.2653,W,1,06,1.35,166.8,M,-34.4,M,,*5D
$GPRMC,182547.250,A,4308.3046,N,07726.2653,W,0.00,0.00,200721,,,A*78
$GPGGA,182547.500,4308.3046,N,07726.2653,W,1,06,1.34,166.8,M,-34.4,M,,*59
$GPRMC,182547.750,A,4308.3046,N,07726.2653,W,0.01,52.68,200721,,,A*45
$GPGGA,182548.000,4308.3046,N,07726.2653,W,1,06,1.34,166.8,M,-34.4,M,,*53
$GPRMC,182548.250,A,4308.3046,N,07726.2653,W,0.00,26.84,200721,,,A*4F
$GPGGA,182548.500,4308.3046,N,07726.2653,W,1,06,1.34,166.8,M,-34.4,M,,*56
$GPRMC,182548.750,A,4308.3046,N,07726.2653,W,0.00,321.95,200721,,,A*7E
$GPGGA,182549.000,4308.3046,N,07726.2653,W,1,06,1.35,166.8,M,-34.4,M,,*53
$GPRMC,182549.250,A,4308.3046,N,07726.2653,W,0.00,245.67,200721,,,A*74
$GPGGA,182549.500,4308.3046,N,07726.2653,W,1,06,1.34,166.8,M,-34.4,M,,*57
$GPRMC,182549.750,A,4308.3046,N,07726.2653,W,0.01,253.32,200721,,,A*77
$GPGGA,182550.000,4308.3046,N,07726.2653,W,1,06,1.35,166.8,M,-34.4,M,,*5B
$GPRMC,182550.250,A,4308.3046,N,07726.2653,W,0.00,276.53,200721,,,A*7B
$GPGGA,182550.500,4308.3046,N,07726.2653,W,1,06,1.35,166.8,M,-34.4,M,,*5E
$GPRMC,182550.750,A,4308.3046,N,07726.2653,W,0.01,282.27,200721,,,A*77
$GPGGA,182551.000,4308.3046,N,07726.2653,W,1,06,1.35,166.8,M,-34.4,M,,*5A
$GPRMC,182551.250,A,4308.3046,N,07726.2653,W,0.00,315.05,200721,,,A*7D
$GPGGA,182551.500,4308.3046,N,07726.2653,W,1,06,1.35,166.8,M,-34.4,M,,*5F
$GPRMC,182551.750,A,4308.3046,N,07726.2653,W,0.00,322.16,200721,,,A*7E
$GPGGA,182552.000,4308.3046,N,07726.2653,W,1,06,1.35,166.8,M,-34.4,M,,*59
$GPRMC,182552.250,A,4308.3046,N,07726.2653,W,0.00,317.68,200721,,,A*77
$GPGGA,182552.500,4308.3046,N,07726.2653,W,1,06,1.34,166.8,M,-34.4,M,,*5D
$GPRMC,182552.750,A,4308.3046,N,07726.2653,W,0.01,9.96,200721,,,A*7E
$GPGGA,182553.000,4308.3046,N,07726.2653,W,1,06,1.34,166.8,M,-34.4,M,,*59
$GPRMC,182553.250,A,4308.3046,N,07726.2653,W,0.01,339.64,200721,,,A*77
$GPGGA,182553.500,4308.3046,N,07726.2653,W,1,06,1.34,166.8,M,-34.4,M,,*5C
$GPRMC,182553.750,A,4308.3046,N,07726.2653,W,0.01,166.71,200721,,,A*7E
$GPGGA,182554.000,4308.3046,N,07726.2653,W,1,06,1.34,166.8,M,-34.4,M,,*5E
$GPRMC,182554.250,A,4308.3046,N,07726.2653,W,0.02,125.58,200721,,,A*73
$GPGGA,182554.500,4308.3046,N,07726.2653,W,1,06,1.35,166.8,M,-34.4,M,,*5A
$GPRMC,182554.750,A,4308.3046,N,07726.2653,W,0.01,181.96,200721,,,A*79
$GPGGA,182555.000,4308.3046,N,07726.2653,W,1,06,1.35,166.8,M,-34.4,M,,*5E
$GPRMC,182555.250,A,4308.3046,N,07726.2653,W,0.01,39.99,200721,,,A*40
$GPGGA,182555.500,4308.3046,N,07726.2653,W,1,06,1.34,166.8,M,-34.4,M,,*5A
$GPRMC,182555.750,A,4308.3046,N,07726.2653,W,0.01,25.48,200721,,,A*44
$GPGGA,182556.000,4308.3046,N,07726.2653,W,1,06,1.35,166.8,M,-34.4,M,,*5D
$GPRMC,182556.250,A,4308.3046,N,07726.2653,W,0.02,157.24,200721,,,A*7F
$GPGGA,182556.500,4308.3046,N,07726.2653,W,1,06,1.35,166.8,M,-34.4,M,,*58
$GPRMC,182556.750,A,4308.3046,N,07726.2653,W,0.00,184.49,200721,,,A*7D
$GPGGA,182557.000,4308.3046,N,07726.2653,W,1,06,1.35,166.8,M,-34.4,M,,*5C
$GPRMC,182557.250,A,4308.3046,N,07726.2653,W,0.00,0.00,200721,,,A*79
$GPGGA,182557.500,4308.3046,N,07726.2653,W,1,06,1.35,166.8,M,-34.4,M,,*59
$GPRMC,182557.750,A,4308.3046,N,07726.2653,W,0.01,92.56,200721,,,A*45
$GPGGA,182558.000,4308.3046,N,07726.2653,W,1,06,1.35,166.8,M,-34.4,M,,*53
$GPRMC,182558.250,A,4308.3046,N,07726.2653,W,0.01,97.84,200721,,,A*45
$GPGGA,182558.500,4308.3046,N,07726.2653,W,1,06,1.35,166.8,M,-34.4,M,,*56
$GPRMC,182558.750,A,4308.3046,N,07726.2653,W,0.00,62.62,200721,,,A*43
$GPGGA,182559.000,4308.3046,N,07726.2653,W,1,06,1.35,166.8,M,-34.4,M,,*52
$GPRMC,182559.250,A,4308.3046,N,07726.2653,W,0.01,148.37,200721,,,A*7F
$GPGGA,182559.500,4308.3046,N,07726.2653,W,1,06,1.34,166.8,M,-34.4,M,,*56
$GPRMC,182559.750,A,4308.3046,N,07726.2653,W,0.01,130.28,200721,,,A*7B
$GPGGA,182600.000,4308.3046,N,07726.2653,W,1,06,1.34,166.8,M,-34.4,M,,*5C
$GPRMC,182600.250,A,4308.3046,N,07726.2653,W,0.01,143.98,200721,,,A*7E
$GPGGA,182600.500,4308.3046,N,07726.2653,W,1,07,1.30,166.8,M,-34.4,M,,*5C
$GPRMC,182600.750,A,4308.3046,N,07726.2653,W,0.01,257.37,200721,,,A*78
$GPGGA,182601.000,4308.3046,N,07726.2653,W,1,07,1.30,166.8,M,-34.4,M,,*58
$GPRMC,182601.250,A,4308.3046,N,07726.2653,W,0.00,3.41,200721,,,A*7F
$GPGGA,182601.500,4308.3046,N,07726.2653,W,1,07,1.30,166.8,M,-34.4,M,,*5D
$GPRMC,182601.750,A,4308.3046,N,07726.2653,W,0.00,16.03,200721,,,A*48
$GPGGA,182602.000,4308.3046,N,07726.2653,W,1,07,1.30,166.8,M,-34.4,M,,*5B
$GPRMC,182602.250,A,4308.3046,N,07726.2653,W,0.01,215.58,200721,,,A*70
$GPGGA,182602.500,4308.3046,N,07726.2653,W,1,07,1.30,166.8,M,-34.4,M,,*5E
$GPRMC,182602.750,A,4308.3046,N,07726.2653,W,0.01,12.68,200721,,,A*43
$GPGGA,182603.000,4308.3046,N,07726.2653,W,1,07,1.30,166.8,M,-34.4,M,,*5A
$GPRMC,182603.250,A,4308.3046,N,07726.2653,W,0.00,111.91,200721,,,A*72
$GPGGA,182603.500,4308.3046,N,07726.2653,W,1,07,1.30,166.8,M,-34.4,M,,*5F
$GPRMC,182603.750,A,4308.3046,N,07726.2653,W,0.00,205.13,200721,,,A*7B
$GPGGA,182604.000,4308.3046,N,07726.2653,W,1,07,1.30,166.8,M,-34.4,M,,*5D
$GPRMC,182604.250,A,4308.3046,N,07726.2653,W,0.00,343.73,200721,,,A*7C
$GPGGA,182604.500,4308.3046,N,07726.2653,W,1,07,1.30,166.8,M,-34.4,M,,*58
$GPRMC,182604.750,A,4308.3046,N,07726.2653,W,0.01,21.10,200721,,,A*4A
$GPGGA,182605.000,4308.3046,N,07726.2653,W,1,07,1.30,166.8,M,-34.4,M,,*5C
$GPRMC,182605.250,A,4308.3046,N,07726.2653,W,0.00,309.68,200721,,,A*79
$GPGGA,182605.500,4308.3046,N,07726.2653,W,1,07,1.30,166.8,M,-34.4,M,,*59
$GPRMC,182605.750,A,4308.3046,N,07726.2653,W,0.01,287.20,200721,,,A*76
$GPGGA,182606.000,4308.3046,N,07726.2653,W,1,07,1.30,166.8,M,-34.4,M,,*5F
$GPRMC,182606.250,A,4308.3046,N,07726.2653,W,0.01,201.96,200721,,,A*73
$GPGGA,182606.500,4308.3046,N,07726.2653,W,1,07,1.30,166.8,M,-34.4,M,,*5A
$GPRMC,182606.750,A,4308.3046,N,07726.2653,W,0.01,46.86,200721,,,A*46
$GPGGA,182607.000,4308.3046,N,07726.2653,W,1,07,1.30,166.8,M,-34.4,M,,*5E
$GPRMC,182607.250,A,4308.3046,N,07726.2653,W,0.02,347.33,200721,,,A*7D
$GPGGA,182607.500,4308.3046,N,07726.2653,W,1,07,1.30,166.8,M,-34.4,M,,*5B
$GPRMC,182607.750,A,4308.3046,N,07726.2653,W,0.00,0.00,200721,,,A*7A
$GPGGA,182608.000,4308.3046,N,07726.2653,W,1,07,1.30,166.8,M,-34.4,M,,*51
$GPRMC,182608.250,A,4308.3046,N,07726.2653,W,0.01,159.81,200721,,,A*75
$GPGGA,182608.500,4308.3046,N,07726.2653,W,1,07,1.30,166.8,M,-34.4,M,,*54
$GPRMC,182608.750,A,4308.3046,N,07726.2653,W,0.00,198.22,200721,,,A*75
$GPGGA,182609.000,4308.3046,N,07726.2653,W,1,07,1.30,166.8,M,-34.4,M,,*50
$GPRMC,182609.250,A,4308.3046,N,07726.2653,W,0.01,276.76,200721,,,A*72
$GPGGA,182609.500,4308.3046,N,07726.2653,W,1,07,1.30,166.8,M,-34.4,M,,*55
$GPRMC,182609.750,A,4308.3046,N,07726.2653,W,0.01,49.36,200721,,,A*4D
$GPGGA,182610.000,4308.3046,N,07726.2653,W,1,07,1.30,166.8,M,-34.4,M,,*58
$GPRMC,182610.250,A,4308.3046,N,07726.2653,W,0.01,120.58,200721,,,A*76
$GPGGA,182610.500,4308.3046,N,07726.2653,W,1,07,1.30,166.8,M,-34.4,M,,*5D
$GPRMC,182610.750,A,4308.3046,N,07726.2653,W,0.00,56.25,200721,,,A*48
$GPGGA,182611.000,4308.3046,N,07726.2653,W,1,07,1.30,166.8,M,-34.4,M,,*59
$GPRMC,182611.250,A,4308.3046,N,07726.2653,W,0.01,78.28,200721,,,A*4C
$GPGGA,182611.500,4308.3046,N,07726.2653,W,1,07,1.30,166.8,M,-34.4,M,,*5C
$GPRMC,182611.750,A,4308.3046,N,07726.2653,W,0.01,230.29,200721,,,A*76
$GPGGA,182612.000,4308.3046,N,07726.2653,W,1,07,1.30,166.8,M,-34.4,M,,*5A
$GPRMC,182612.250,A,4308.3046,N,07726.2653,W,0.00,0.00,200721,,,A*7B
$GPGGA,182612.500,4308.3046,N,07726.2653,W,1,07,1.30,166.7,M,-34.4,M,,*50
$GPRMC,182612.750,A,4308.3046,N,07726.2653,W,0.01,107.01,200721,,,A*78
$GPGGA,182613.000,4308.3046,N,07726.2653,W,1,07,1.30,166.7,M,-34.4,M,,*54
$GPRMC,182613.250,A,4308.3046,N,07726.2653,W,0.00,176.85,200721,,,A*77
$GPGGA,182613.500,4308.3046,N,07726.2653,W,1,07,1.30,166.7,M,-34.4,M,,*51
$GPRMC,182613.750,A,4308.3046,N,07726.2653,W,0.01,92.46,200721,,,A*47
$GPGGA,182614.000,4308.3046,N,07726.2653,W,1,07,1.30,166.7,M,-34.4,M,,*53
$GPRMC,182614.250,A,4308.3046,N,07726.2653,W,0.00,215.95,200721,,,A*77
$GPGGA,182614.500,4308.3046,N,07726.2653,W,1,07,1.30,166.7,M,-34.4,M,,*56
$GPRMC,182614.750,A,4308.3046,N,07726.2653,W,0.00,347.99,200721,,,A*78
$GPGGA,182615.000,4308.3046,N,07726.2653,W,1,07,1.30,166.7,M,-34.4,M,,*52
$GPRMC,182615.250,A,4308.3046,N,07726.2653,W,0.00,295.79,200721,,,A*7C
$GPGGA,182615.500,4308.3046,N,07726.2653,W,1,07,1.30,166.7,M,-34.4,M,,*57
$GPRMC,182615.750,A,4308.3046,N,07726.2653,W,0.01,193.58,200721,,,A*7E
$GPGGA,182616.000,4308.3046,N,07726.2653,W,1,07,1.30,166.7,M,-34.4,M,,*51
$GPRMC,182616.250,A,4308.3046,N,07726.2653,W,0.00,327.31,200721,,,A*7B
$GPGGA,182616.500,4308.3046,N,07726.2653,W,1,07,1.30,166.7,M,-34.4,M,,*54
$GPRMC,182616.750,A,4308.3046,N,07726.2653,W,0.01,181.68,200721,,,A*7D
$GPGGA,182617.000,4308.3046,N,07726.2653,W,1,07,1.30,166.7,M,-34.4,M,,*50
$GPRMC,182617.250,A,4308.3046,N,07726.2653,W,0.01,258.27,200721,,,A*75
$GPGGA,182617.500,4308.3046,N,07726.2653,W,1,07,1.30,166.7,M,-34.4,M,,*55
$GPRMC,182617.750,A,4308.3046,N,07726.2653,W,0.01,173.80,200721,,,A*77
$GPGGA,182618.000,4308.3046,N,07726.2653,W,1,07,1.30,166.7,M,-34.4,M,,*5F
$GPRMC,182618.250,A,4308.3046,N,07726.2653,W,0.00,256.94,200721,,,A*7D
$GPGGA,182618.500,4308.3046,N,07726.2653,W,1,07,1.30,166.7,M,-34.4,M,,*5A
$GPRMC,182618.750,A,4308.3046,N,07726.2653,W,0.01,54.97,200721,,,A*4A
$GPGGA,182619.000,4308.3046,N,07726.2653,W,1,07,1.30,166.7,M,-34.4,M,,*5E
$GPRMC,182619.250,A,4308.3046,N,07726.2653,W,0.01,257.19,200721,,,A*79
$GPGGA,182619.500,4308.3046,N,07726.2653,W,1,07,1.30,166.7,M,-34.4,M,,*5B
$GPRMC,182619.750,A,4308.3046,N,07726.2653,W,0.01,211.37,200721,,,A*72
$GPGGA,182620.000,4308.3046,N,07726.2653,W,1,07,1.30,166.7,M,-34.4,M,,*54
$GPRMC,182620.250,A,4308.3046,N,07726.2653,W,0.01,271.12,200721,,,A*7C
$GPGGA,182620.500,4308.3046,N,07726.2653,W,1,07,1.30,166.7,M,-34.4,M,,*51
$GPRMC,182620.750,A,4308.3046,N,07726.2653,W,0.01,346.36,200721,,,A*7A
$GPGGA,182621.000,4308.3046,N,07726.2653,W,1,07,1.30,166.7,M,-34.4,M,,*55
$GPRMC,182621.250,A,4308.3046,N,07726.2653,W,0.01,55.61,200721,,,A*4D
$GPGGA,182621.500,4308.3046,N,07726.2653,W,1,07,1.30,166.7,M,-34.4,M,,*50
$GPRMC,182621.750,A,4308.3046,N,07726.2653,W,0.00,61.69,200721,,,A*46
$GPGGA,182622.000,4308.3046,N,07726.2653,W,1,07,1.30,166.7,M,-34.4,M,,*56
$GPRMC,182622.250,A,4308.3046,N,07726.2653,W,0.00,97.34,200721,,,A*41
$GPGGA,182622.500,4308.3046,N,07726.2653,W,1,07,1.30,166.7,M,-34.4,M,,*53
$GPRMC,182622.750,A,4308.3046,N,07726.2653,W,0.00,255.09,200721,,,A*76
$GPGGA,182623.000,4308.3046,N,07726.2653,W,1,07,1.30,166.7,M,-34.4,M,,*57
$GPRMC,182623.250,A,4308.3046,N,07726.2653,W,0.01,31.49,200721,,,A*47
$GPGGA,182623.500,4308.3046,N,07726.2653,W,1,07,1.30,166.7,M,-34.4,M,,*52
$GPRMC,182623.750,A,4308.3046,N,07726.2653,W,0.01,180.70,200721,,,A*73
$GPGGA,182624.000,4308.3046,N,07726.2653,W,1,07,1.30,166.7,M,-34.4,M,,*50
$GPRMC,182624.250,A,4308.3046,N,07726.2653,W,0.01,354.79,200721,,,A*73
$GPGGA,182624.500,4308.3046,N,07726.2653,W,1,07,1.30,166.7,M,-34.4,M,,*55
$GPRMC,182624.750,A,4308.3046,N,07726.2653,W,0.01,269.88,200721,,,A*77
$GPGGA,182625.000,4308.3046,N,07726.2653,W,1,07,1.30,166.7,M,-34.4,M,,*51
$GPRMC,182625.250,A,4308.3046,N,07726.2653,W,0.01,200.49,200721,,,A*71
$GPGGA,182625.500,4308.3046,N,07726.2653,W,1,07,1.30,166.7,M,-34.4,M,,*54
$GPRMC,182625.750,A,4308.3046,N,07726.2653,W,0.01,26.11,200721,,,A*4F
$GPGGA,182626.000,4308.3046,N,07726.2653,W,1,07,1.30,166.7,M,-34.4,M,,*52
$GPRMC,182626.250,A,4308.3046,N,07726.2653,W,0.01,56.27,200721,,,A*4B
$GPGGA,182626.500,4308.3046,N,07726.2653,W,1,07,1.30,166.7,M,-34.4,M,,*57
