Vers 81
USE_SERIAL_FEEDBACK=true
DEVELOPMENT_MODE=false
USE_RMC_ONLY=false

$GPGGA,194104.000,4308.3180,N,07726.2630,W,1,03,4.46,184.4,M,-34.4,M,,*53
$GPRMC,194104.000,A,4308.3180,N,07726.2630,W,0.10,105.80,160721,,,A*7D
$GPGGA,194104.250,4308.3181,N,07726.2630,W,1,03,4.46,184.4,M,-34.4,M,,*55
$GPRMC,194104.250,A,4308.3181,N,07726.2630,W,0.10,123.19,160721,,,A*7F
$GPGGA,194104.500,4308.3181,N,07726.2629,W,1,03,4.46,184.4,M,-34.4,M,,*5F
$GPRMC,194104.500,A,4308.3181,N,07726.2629,W,0.09,133.28,160721,,,A*7E
$GPGGA,194104.750,4308.3183,N,07726.2628,W,1,03,4.47,184.4,M,-34.4,M,,*5A
$GPRMC,194104.750,A,4308.3183,N,07726.2628,W,0.04,83.17,160721,$GPGGA,194105.000,4308.3185,N,07726.2628,W,1,03,4.46,184.4,M,-34.4,M,,*5E
$GPRMC,194105.250,A,4308.3186,N,07726.2628,W,0.12,10.64,160721,,,A*49
$GPGGA,194105.500,4308.3186,N,07726.2629,W,1,03,45.73,184.4,M,-34.4,M,,*6A
$GPRMC,194105.750,A,4308.3187,N,07726.2630,W,0.21,218.65,160721,,,A*7F
$GPGGA,194106.000,4308.3188,N,07726.2631,W,1,03,4.47,184.4,M,-34.4,M,,*59
$GPRMC,194106.250,A,4308.3189,N,07726.2631,W,0.07,258.93,160721,,,A*7F
$GPGGA,194106.500,4308.3190,N,07726.2632,W,1,03,4.47,184.4,M,-34.4,M,,*56
$GPRMC,194106.750,A,4308.3190,N,07726.2633,W,0.12,311.66,160721,,,A*72
$GPGGA,194107.000,4308.3190,N,07726.2633,W,1,03,4.47,184.4,M,-34.4,M,,*53
$GPRMC,194107.250,A,4308.3191,N,07726.2633,W,0.08,304.84,160721,,,A*74
$GPGGA,194107.500,4308.3190,N,07726.2634,W,1,03,4.47,184.4,M,-34.4,M,,*51
$GPRMC,194107.750,A,4308.3189,N,07726.2634,W,0.20,193.02,160721,,,A*77
$GPGGA,194108.000,4308.3188,N,07726.2635,W,1,03,4.47,184.4,M,-34.4,M,,*53
$GPGGA,194108.500,4308.3190,N,07726.2636,W,1,03,4.47,184.4,M,-34.4,M,,*5C
$GPRMC,194108.500,A,4308.3190,N,07726.2636,W,0.21,354.40,160721,,,A*7B
$GPGGA,194108.750,4308.3189,N,07726.2636,W,1,03,45.79,184.4,M,-34.4,M,,*6B
$GPRMC,194108.750,A,4308.3189,N,07726.2636,W,0.23,7.67,160721,,A*76
$GPGGA,194109.000,4308.3188,N,07726.2637,W,1,03,45.80,184.4,M,-34.4,M,,*6E
$GPRMC,194109.000,A,4308.3188,N,07726.2637,W,0.10,22.88,160721,,A*43
$GPGGA,194109.250,4308.3187,N,07726.2638,W,1,03,4.47,184.4,M,-34.4,M,,*57
$GPRMC,194109.250,A,4308.3187,N,07726.2638,W,0.02,78.17,160721,$GPGGA,194109.500,4308.3187,N,07726.2638,W,1,03,4.47,184.4,M,-34.4,M,,*55
$GPRMC,194109.750,A,4308.3187,N,07726.2638,W,0.09,342.94,160721,,,A*71
$GPGGA,194110.000,4308.3185,N,07726.2638,W,1,03,4.48,184.4,M,-34.4,M,,*55
$GPRMC,194110.250,A,4308.3183,N,07726.2638,W,0.20,182.30,160721,,,A*73
$GPGGA,194110.500,4308.3180,N,07726.2638,W,1,03,4.47,184.4,M,-34.4,M,,*5A
$GPRMC,194110.750,A,4308.3179,N,07726.2638,W,0.37,168.14,160721,,,A*77
$GPGGA,194111.000,4308.3179,N,07726.2639,W,1,03,4.48,184.4,M,-34.4,M,,*56
$GPRMC,194111.250,A,4308.3178,N,07726.2639,W,0.18,178.84,160721,,,A*76
$GPGGA,194111.500,4308.3177,N,07726.2640,W,1,03,4.48,184.4,M,-34.4,M,,*53
$GPRMC,194111.750,A,4308.3174,N,07726.2640,W,0.30,182.81,160721,,,A*7B
$GPGGA,194112.000,4308.3172,N,07726.2641,W,1,03,4.48,184.4,M,-34.4,M,,*51
$GPRMC,194112.250,A,4308.3171,N,07726.2641,W,0.34,179.22,160721,,,A*70
$GPGGA,194112.500,4308.3170,N,07726.2642,W,1,03,4.48,184.4,M,-34.4,M,,*55
$GPRMC,194112.750,A,4308.3169,N,07726.2643,W,0.20,199.94,160721,,,A*78
$GPGGA,194113.000,4308.3169,N,07726.2644,W,1,03,4.48,184.4,M,-34.4,M,,*5F
$GPRMC,194113.250,A,4308.3168,N,07726.2644,W,0.13,272.43,160721,,,A*76
$GPGGA,194113.500,4308.3167,N,07726.2645,W,1,03,4.48,184.4,M,-34.4,M,,*55
$GPRMC,194113.750,A,4308.3164,N,07726.2645,W,0.15,189.82,160721,,,A*72
$GPGGA,194114.000,4308.3161,N,07726.2645,W,1,03,4.49,184.4,M,-34.4,M,,*50
$GPGGA,194114.500,4308.3158,N,07726.2646,W,1,03,4.48,184.4,M,-34.4,M,,*5D
$GPRMC,194114.500,A,4308.3158,N,07726.2646,W,0.25,192.60,160721$GPGGA,194114.750,4308.3158,N,07726.2646,W,1,03,4.49,184.4,M,-34.4,M,,*5B
$GPRMC,194115.000,A,4308.3159,N,07726.2647,W,0.12,346.24,160721,,,A*70
$GPGGA,194115.250,4308.3158,N,07726.2647,W,1,03,45.91,184.4,M,-34.4,M,,*6E
$GPRMC,194115.500,A,4308.3158,N,07726.2648,W,0.26,336.28,160721,,,A*77
$GPGGA,194115.750,4308.3158,N,07726.2648,W,1,03,4.49,184.4,M,-34.4,M,,*54
$GPRMC,194116.000,A,4308.3158,N,07726.2649,W,0.49,353.87,160721,,,A*7F
$GPGGA,194116.250,4308.3156,N,07726.2650,W,1,03,45.93,184.4,M,-34.4,M,,*67
$GPRMC,194116.500,A,4308.3156,N,07726.2650,W,0.53,356.65,160721,,,A*7E
$GPGGA,194116.750,4308.3154,N,07726.2651,W,1,03,45.94,184.4,M,-34.4,M,,*66
$GPRMC,194117.000,A,4308.3151,N,07726.2651,W,0.40,11.02,160721,,,A*4F
$GPGGA,194117.250,4308.3149,N,07726.2652,W,1,03,45.95,184.4,M,-34.4,M,,*6C
$GPRMC,194117.500,A,4308.3146,N,07726.2653,W,0.25,16.87,160721,,,A*47
$GPGGA,194117.750,4308.3145,N,07726.2653,W,1,03,4.49,184.4,M,-34.4,M,,*50
$GPRMC,194118.000,A,4308.3142,N,07726.2654,W,0.17,43.99,160721,,,A*40
$GPGGA,194118.250,4308.3140,N,07726.2655,W,1,03,4.49,184.4,M,-34.4,M,,*59
$GPRMC,194118.500,A,4308.3139,N,07726.2656,W,0.12,21.85,160721,,,A*47
$GPGGA,194118.750,4308.3137,N,07726.2657,W,1,03,4.49,184.4,M,-34.4,M,,*5E
$GPRMC,194119.000,A,4308.3136,N,07726.2658,W,0.15,342.44,160721,,,A*7E
$GPGGA,194119.250,4308.3134,N,07726.2659,W,1,03,4.49,184.3,M,-34.4,M,,*50
$GPRMC,194119.500,A,4308.3131,N,07726.2660,W,0.06,263.24,160721,,,A*71
$GPGGA,194119.750,4308.3128,N,07726.2661,W,1,03,4.50,184.4,M,-34.4,M,,*5C
$GPRMC,194120.000,A,4308.3127,N,07726.2662,W,0.11,238.00,160721,,,A*75
$GPGGA,194120.094,4308.3121,N,07726.2661,W,1,04,3.51,183.9,M,-34,M,,*5B
$GPRMC,194120.500,A,4308.3114,N,07726.2659,W,0.17,189.90,160721,,,A*7E
$GPGGA,194120.750,4308.3108,N,07726.2658,W,1,04,3.51,182.9,M,-34.4,M,,*54
$GPRMC,194121.000,A,4308.3103,N,07726.2657,W,0.37,185.35,160721,,,A*73
$GPGGA,194121.250,4308.3098,N,07726.2656,W,1,04,3.51,182.1,M,-34.4,M,,*5E
$GPRMC,194121.500,A,4308.3095,N,07726.2655,W,0.46,187.45,160721,,,A*79
$GPGGA,194121.750,4308.3092,N,07726.2654,W,1,04,3.51,181.5,M,-34.4,M,,*54
$GPRMC,194122.000,A,4308.3089,N,07726.2652,W,0.41,169.13,160721,,,A*71
$GPGGA,194122.250,4308.3087,N,07726.2651,W,1,04,3.50,180.8,M,-34.4,M,,*5E
$GPRMC,194122.500,A,4308.3084,N,07726.2651,W,0.37,180.17,160721,,,A*78
$GPGGA,194122.750,4308.3082,N,07726.2651,W,1,04,3.50,180.3,M,-34.4,M,,*55
$GPRMC,194123.000,A,4308.3079,N,07726.2651,W,0.39,203.41,160721,,,A*7B
$GPGGA,194123.250,4308.3077,N,07726.2651,W,1,04,3.51,179.7,M,-34.4,M,,*58
$GPRMC,194123.500,A,4308.3074,N,07726.2651,W,0.43,203.95,160721,,,A*77
$GPGGA,194123.750,4308.3072,N,07726.2651,W,1,04,3.51,179.3,M,-34.4,M,,*5C
$GPRMC,194124.000,A,4308.3070,N,07726.2651,W,0.38,205.22,160721,,,A*77
$GPGGA,194124.250,4308.3069,N,07726.2651,W,1,04,3.50,178.8,M,-34.4,M,,*5F
$GPRMC,194124.500,A,4308.3067,N,07726.2651,W,0.39,215.40,160721,,,A*70
$GPGGA,194124.750,4308.3065,N,07726.2651,W,1,04,3.51,178.4,M,-34.4,M,,*5B
$GPRMC,194125.000,A,4308.3062,N,07726.2652,W,0.49,215.50,160721,,,A*74
$GPGGA,194125.250,4308.3061,N,07726.2652,W,1,04,3.51,178.0,M,-34.4,M,,*5C
$GPRMC,194125.500,A,4308.3058,N,07726.2652,W,0.51,201.71,160721,,,A*77
$GPGGA,194125.750,4308.3056,N,07726.2652,W,1,04,3.51,177.6,M,-34.4,M,,*54
$GPRMC,194126.000,A,4308.3054,N,07726.2652,W,0.60,192.74,160721,,,A*73
$GPGGA,194126.250,4308.3052,N,07726.2653,W,1,04,3.51,177.2,M,-34.4,M,,*53
$GPRMC,194126.500,A,4308.3050,N,07726.2653,W,0.63,196.02,160721,,,A*75
$GPGGA,194126.750,4308.3049,N,07726.2653,W,1,04,3.51,176.8,M,-34.4,M,,*57
$GPRMC,194127.000,A,4308.3049,N,07726.2653,W,0.55,199.66,160721,,,A*71
$GPGGA,194127.250,4308.3047,N,07726.2654,W,1,04,3.51,176.5,M,-34.4,M,,*57
$GPRMC,194127.500,A,4308.3044,N,07726.2654,W,0.67,189.43,160721,,,A*79
$GPGGA,194127.750,4308.3042,N,07726.2654,W,1,04,3.50,176.1,M,-34.4,M,,*52
$GPRMC,194128.000,A,4308.3042,N,07726.2654,W,0.63,193.07,160721,,,A*7A
$GPGGA,194128.250,4308.3040,N,07726.2655,W,1,04,3.51,175.7,M,-34.4,M,,*5F
$GPRMC,194128.500,A,4308.3038,N,07726.2656,W,0.66,202.69,160721,,,A*76
$GPGGA,194128.750,4308.3037,N,07726.2656,W,1,04,3.51,175.3,M,-34.4,M,,*5D
$GPRMC,194129.000,A,4308.3037,N,07726.2657,W,0.61,213.32,160721,,,A*75
$GPGGA,194129.250,4308.3036,N,07726.2657,W,1,04,3.51,174.9,M,-34.4,M,,*52
$GPRMC,194129.500,A,4308.3036,N,07726.2656,W,0.51,205.16,160721,,,A*72
$GPGGA,194129.750,4308.3037,N,07726.2656,W,1,04,3.51,174.5,M,-34.4,M,,*5B
$GPRMC,194130.000,A,4308.3036,N,07726.2656,W,0.44,210.39,160721,,,A*72
$GPGGA,194130.250,4308.3035,N,07726.2656,W,1,04,3.51,174.1,M,-34.4,M,,*50
$GPRMC,194130.500,A,4308.3035,N,07726.2656,W,0.40,209.69,160721,,,A*7D
$GPGGA,194130.750,4308.3034,N,07726.2656,W,1,04,3.51,173.6,M,-34.4,M,,*54
$GPRMC,194131.000,A,4308.3032,N,07726.2657,W,0.50,209.76,160721,,,A*70
$GPGGA,194131.250,4308.3031,N,07726.2657,W,1,04,3.50,173.2,M,-34.4,M,,*51
$GPRMC,194131.500,A,4308.3031,N,07726.2656,W,0.42,194.62,160721,,,A*76
$GPGGA,194131.750,4308.3031,N,07726.2655,W,1,04,3.50,172.8,M,-34.4,M,,*5D
$GPRMC,194132.000,A,4308.3029,N,07726.2654,W,0.46,175.45,160721,,,A*75
$GPGGA,194132.250,4308.3028,N,07726.2654,W,1,04,3.51,172.3,M,-34.4,M,,*58
$GPRMC,194132.500,A,4308.3027,N,07726.2654,W,0.48,177.22,160721,,,A*73
$GPGGA,194132.750,4308.3027,N,07726.2653,W,1,04,3.51,171.8,M,-34.4,M,,*5D
$GPRMC,194133.000,A,4308.3027,N,07726.2653,W,0.39,174.73,160721,,,A*71
$GPGGA,194133.250,4308.3026,N,07726.2652,W,1,04,3.51,171.3,M,-34.4,M,,*52
$GPRMC,194133.500,A,4308.3026,N,07726.2652,W,0.39,174.14,160721,,,A*75
$GPGGA,194133.750,4308.3025,N,07726.2652,W,1,04,3.51,170.9,M,-34.4,M,,*5F
$GPRMC,194134.000,A,4308.3025,N,07726.2652,W,0.40,179.26,160721,,,A*76
$GPGGA,194134.250,4308.3024,N,07726.2652,W,1,04,3.51,170.6,M,-34.4,M,,*53
$GPRMC,194134.500,A,4308.3021,N,07726.2652,W,0.51,185.86,160721,,,A*7E
$GPGGA,194134.750,4308.3021,N,07726.2652,W,1,04,3.51,170.1,M,-34.4,M,,*54
$GPRMC,194135.000,A,4308.3020,N,07726.2652,W,0.47,185.75,160721,,,A*70
$GPGGA,194135.250,4308.3020,N,07726.2651,W,1,04,3.51,169.7,M,-34.4,M,,*5C
$GPRMC,194135.500,A,4308.3020,N,07726.2651,W,0.38,180.82,160721,,,A*73
$GPGGA,194135.750,4308.3019,N,07726.2651,W,1,04,3.51,169.5,M,-34.4,M,,*51
$GPRMC,194136.000,A,4308.3019,N,07726.2651,W,0.36,189.23,160721,,,A*73
$GPGGA,194136.250,4308.3019,N,07726.2651,W,1,04,3.51,169.5,M,-34.4,M,,*57
$GPRMC,194136.500,A,4308.3019,N,07726.2651,W,0.35,190.37,160721,,,A*78
$GPGGA,194136.750,4308.3018,N,07726.2651,W,1,04,3.51,169.5,M,-34.4,M,,*53
$GPRMC,194137.000,A,4308.3018,N,07726.2651,W,0.32,185.09,160721,,,A*73
$GPGGA,194137.250,4308.3018,N,07726.2651,W,1,04,3.51,169.5,M,-34.4,M,,*57
$GPRMC,194137.500,A,4308.3018,N,07726.2651,W,0.24,186.90,160721,,,A*72
$GPGGA,194137.750,4308.3018,N,07726.2651,W,1,04,3.51,169.5,M,-34.4,M,,*52
$GPRMC,194138.000,A,4308.3017,N,07726.2651,W,0.30,194.35,160721,,,A*7E
$GPGGA,194138.250,4308.3017,N,07726.2651,W,1,04,3.51,169.5,M,-34.4,M,,*57
$GPRMC,194138.500,A,4308.3017,N,07726.2651,W,0.29,188.12,160721,,,A*7B
$GPGGA,194138.750,4308.3017,N,07726.2651,W,1,04,3.51,169.5,M,-34.4,M,,*52
$GPRMC,194139.000,A,4308.3017,N,07726.2651,W,0.25,179.13,160721,,,A*7C
$GPGGA,194139.250,4308.3016,N,07726.2651,W,1,04,3.51,169.5,M,-34.4,M,,*57
$GPRMC,194139.500,A,4308.3016,N,07726.2651,W,0.29,163.44,160721,,,A*7D
$GPGGA,194139.750,4308.3016,N,07726.2651,W,1,04,3.51,169.4,M,-34.4,M,,*53
$GPRMC,194140.000,A,4308.3016,N,07726.2651,W,0.26,164.67,160721,,,A*7F
$GPGGA,194140.250,4308.3016,N,07726.2651,W,1,04,3.51,169.4,M,-34.4,M,,*58
$GPRMC,194140.500,A,4308.3015,N,07726.2651,W,0.27,179.62,160721,,,A*71
$GPGGA,194140.750,4308.3015,N,07726.2651,W,1,04,3.51,169.4,M,-34.4,M,,*5E
$GPRMC,194141.000,A,4308.3015,N,07726.2651,W,0.32,181.42,160721,,,A*74
$GPGGA,194141.250,4308.3015,N,07726.2651,W,1,04,3.51,169.4,M,-34.4,M,,*5A
$GPRMC,194141.500,A,4308.3014,N,07726.2651,W,0.28,174.68,160721,,,A*79
$GPGGA,194141.750,4308.3014,N,07726.2651,W,1,04,3.51,169.4,M,-34.4,M,,*5E
$GPRMC,194142.000,A,4308.3014,N,07726.2651,W,0.36,176.33,160721,,,A*7C
$GPGGA,194142.250,4308.3014,N,07726.2651,W,1,04,3.51,169.4,M,-34.4,M,,*58
$GPRMC,194142.500,A,4308.3014,N,07726.2651,W,0.33,176.21,160721,,,A*7F
$GPGGA,194142.750,4308.3013,N,07726.2651,W,1,04,3.51,169.4,M,-34.4,M,,*5A
$GPRMC,194143.000,A,4308.3013,N,07726.2651,W,0.27,163.87,160721,,,A*71
$GPGGA,194143.250,4308.3013,N,07726.2651,W,1,04,3.51,169.4,M,-34.4,M,,*5E
$GPRMC,194143.500,A,4308.3013,N,07726.2651,W,0.24,169.32,160721,,,A*73
$GPGGA,194143.750,4308.3013,N,07726.2651,W,1,04,3.51,169.4,M,-34.4,M,,*5B
$GPRMC,194144.000,A,4308.3013,N,07726.2650,W,0.20,175.76,160721,,,A*79
$GPGGA,194144.250,4308.3012,N,07726.2650,W,1,04,3.51,169.4,M,-34.4,M,,*59
$GPRMC,194144.500,A,4308.3012,N,07726.2650,W,0.13,178.04,160721,,,A*75
$GPGGA,194144.750,4308.3012,N,07726.2650,W,1,04,3.51,169.4,M,-34.4,M,,*5C
$GPRMC,194145.000,A,4308.3012,N,07726.2650,W,0.13,128.31,160721,,,A*72
$GPGGA,194145.250,4308.3012,N,07726.2650,W,1,04,3.51,169.4,M,-34.4,M,,*58
$GPRMC,194145.500,A,4308.3012,N,07726.2650,W,0.13,116.70,160721,,,A*7F
$GPGGA,194145.750,4308.3012,N,07726.2650,W,1,04,3.51,169.4,M,-34.4,M,,*5D
$GPRMC,194146.000,A,4308.3012,N,07726.2650,W,0.19,135.78,160721,,,A*7A
$GPGGA,194146.250,4308.3012,N,07726.2650,W,1,04,3.51,169.4,M,-34.4,M,,*5B
$GPRMC,194146.500,A,4308.3012,N,07726.2650,W,0.18,144.76,160721,,,A*76
$GPGGA,194146.750,4308.3012,N,07726.2650,W,1,04,3.51,169.4,M,-34.4,M,,*5E
$GPRMC,194147.000,A,4308.3011,N,07726.2650,W,0.19,168.41,160721,,,A*7A
$GPGGA,194147.250,4308.3011,N,07726.2649,W,1,04,3.51,169.4,M,-34.4,M,,*51
$GPRMC,194147.500,A,4308.3011,N,07726.2650,W,0.22,183.73,160721,,,A*73
$GPGGA,194147.750,4308.3011,N,07726.2650,W,1,04,3.51,169.3,M,-34.4,M,,*5B
$GPRMC,194148.000,A,4308.3011,N,07726.2650,W,0.31,179.52,160721,,,A*7D
$GPGGA,194148.250,4308.3011,N,07726.2650,W,1,04,3.51,169.3,M,-34.4,M,,*51
$GPRMC,194148.500,A,4308.3010,N,07726.2650,W,0.22,183.55,160721,,,A*79
$GPGGA,194148.750,4308.3010,N,07726.2650,W,1,04,3.51,169.3,M,-34.4,M,,*55
$GPRMC,194149.000,A,4308.3010,N,07726.2650,W,0.29,179.06,160721,,,A*75
$GPGGA,194149.250,4308.3010,N,07726.2650,W,1,04,3.51,169.3,M,-34.4,M,,*51
$GPRMC,194149.500,A,4308.3010,N,07726.2650,W,0.34,187.37,160721,,,A*7F
$GPGGA,194149.750,4308.3009,N,07726.2650,W,1,04,3.51,169.3,M,-34.4,M,,*5C
$GPRMC,194150.000,A,4308.3009,N,07726.2650,W,0.23,195.10,160721,,,A*7A
$GPGGA,194150.250,4308.3009,N,07726.2650,W,1,04,3.51,169.3,M,-34.4,M,,*51
$GPRMC,194150.500,A,4308.3009,N,07726.2650,W,0.15,219.53,160721,,,A*7A
$GPGGA,194150.750,4308.3009,N,07726.2650,W,1,04,3.51,169.3,M,-34.4,M,,*54
$GPRMC,194151.000,A,4308.3009,N,07726.2650,W,0.21,209.58,160721,,,A*73
$GPGGA,194151.250,4308.3009,N,07726.2650,W,1,04,3.51,169.3,M,-34.4,M,,*50
$GPRMC,194151.500,A,4308.3009,N,07726.2650,W,0.21,173.55,160721,,,A*75
$GPGGA,194151.750,4308.3008,N,07726.2650,W,1,04,3.51,169.3,M,-34.4,M,,*54
$GPRMC,194152.000,A,4308.3008,N,07726.2650,W,0.27,177.83,160721,,,A*7B
$GPGGA,194152.250,4308.3008,N,07726.2650,W,1,04,3.51,169.3,M,-34.4,M,,*52
$GPRMC,194152.500,A,4308.3008,N,07726.2650,W,0.29,187.28,160721,,,A*7E
$GPGGA,194152.750,4308.3008,N,07726.2650,W,1,04,3.52,169.3,M,-34.4,M,,*54
$GPRMC,194153.000,A,4308.3007,N,07726.2650,W,0.42,184.78,160721,,,A*7E
$GPGGA,194153.250,4308.3007,N,07726.2650,W,1,04,3.51,169.3,M,-34.4,M,,*5C
$GPRMC,194153.500,A,4308.3007,N,07726.2650,W,0.41,190.02,160721,,,A*70
$GPGGA,194153.750,4308.3007,N,07726.2650,W,1,04,3.51,169.3,M,-34.4,M,,*59
$GPRMC,194154.000,A,4308.3006,N,07726.2650,W,0.21,198.13,160721,,,A*7D
$GPGGA,194154.250,4308.3006,N,07726.2650,W,1,04,3.51,169.3,M,-34.4,M,,*5A
$GPRMC,194154.500,A,4308.3006,N,07726.2651,W,0.15,226.18,160721,,,A*73
$GPGGA,194154.750,4308.3006,N,07726.2651,W,1,04,3.51,169.3,M,-34.4,M,,*5E
$GPRMC,194155.000,A,4308.3006,N,07726.2651,W,0.26,206.33,160721,,,A*7C
$GPGGA,194155.250,4308.3006,N,07726.2651,W,1,04,3.51,169.3,M,-34.4,M,,*5A
$GPRMC,194155.500,A,4308.3006,N,07726.2651,W,0.33,212.77,160721,,,A*78
$GPGGA,194155.750,4308.3005,N,07726.2651,W,1,04,3.51,169.3,M,-34.4,M,,*5C
$GPRMC,194156.000,A,4308.3005,N,07726.2651,W,0.31,205.45,160721,,,A*78
$GPGGA,194156.250,4308.3005,N,07726.2652,W,1,04,3.51,169.3,M,-34.4,M,,*59
$GPRMC,194156.500,A,4308.3005,N,07726.2652,W,0.26,221.25,160721,,,A*78
$GPGGA,194156.750,4308.3005,N,07726.2652,W,1,04,3.51,169.3,M,-34.4,M,,*5C
$GPRMC,194157.000,A,4308.3005,N,07726.2652,W,0.36,244.91,160721,,,A*71
$GPGGA,194157.250,4308.3004,N,07726.2652,W,1,04,3.51,169.3,M,-34.4,M,,*59
$GPRMC,194157.500,A,4308.3004,N,07726.2653,W,0.38,236.95,160721,,,A*7B
$GPGGA,194157.750,4308.3004,N,07726.2653,W,1,04,3.51,169.2,M,-34.4,M,,*5C
$GPRMC,194158.000,A,4308.3004,N,07726.2653,W,0.38,214.19,160721,,,A*75
$GPGGA,194158.250,4308.3004,N,07726.2654,W,1,04,3.51,169.2,M,-34.4,M,,*51
$GPRMC,194158.500,A,4308.3004,N,07726.2654,W,0.43,206.90,160721,,,A*79
$GPGGA,194158.750,4308.3003,N,07726.2654,W,1,04,3.51,169.2,M,-34.4,M,,*53
$GPRMC,194159.000,A,4308.3003,N,07726.2654,W,0.46,214.35,160721,,,A*73
$GPGGA,194159.250,4308.3003,N,07726.2654,W,1,04,3.52,169.2,M,-34.4,M,,*54
$GPRMC,194159.500,A,4308.3002,N,07726.2655,W,0.50,217.87,160721,,,A*7B
$GPGGA,194159.750,4308.3002,N,07726.2655,W,1,04,3.51,169.2,M,-34.4,M,,*52
$GPRMC,194200.000,A,4308.3002,N,07726.2655,W,0.60,212.19,160721,,,A*70
$GPGGA,194200.250,4308.3001,N,07726.2657,W,1,04,3.51,169.2,M,-34.4,M,,*59
$GPRMC,194200.500,A,4308.3001,N,07726.2657,W,0.61,218.60,160721,,,A*71
$GPGGA,194200.750,4308.3001,N,07726.2657,W,1,04,3.51,169.0,M,-34.4,M,,*5E
$GPRMC,194201.000,A,4308.3001,N,07726.2657,W,0.48,211.41,160721,,,A*74
$GPGGA,194201.250,4308.3001,N,07726.2658,W,1,04,3.51,168.9,M,-34.4,M,,*5D
$GPRMC,194201.500,A,4308.3001,N,07726.2659,W,0.49,213.18,160721,,,A*70
$GPGGA,194201.750,4308.3000,N,07726.2659,W,1,04,3.51,168.7,M,-34.4,M,,*56
$GPRMC,194202.000,A,4308.2999,N,07726.2660,W,0.53,208.20,160721,,,A*7F
$GPGGA,194202.250,4308.2999,N,07726.2660,W,1,04,3.51,168.6,M,-34.4,M,,*53
$GPRMC,194202.500,A,4308.3001,N,07726.2660,W,0.39,218.40,160721,,,A*78
$GPGGA,194202.750,4308.3002,N,07726.2661,W,1,04,3.51,168.5,M,-34.4,M,,*5E
$GPRMC,194203.000,A,4308.3001,N,07726.2662,W,0.40,232.22,160721,,,A*7C
$GPGGA,194203.250,4308.3001,N,07726.2663,W,1,04,3.52,168.3,M,-34.4,M,,*5E
$GPRMC,194203.500,A,4308.3001,N,07726.2664,W,0.42,230.54,160721,,,A*7E
$GPGGA,194203.750,4308.3000,N,07726.2664,W,1,04,3.51,168.2,M,-34.4,M,,*5F
$GPRMC,194204.000,A,4308.2999,N,07726.2664,W,0.44,211.01,160721,,,A*70
$GPGGA,194204.250,4308.2999,N,07726.2664,W,1,04,3.52,168.1,M,-34.4,M,,*55
$GPRMC,194204.500,A,4308.2999,N,07726.2665,W,0.39,231.11,160721,,,A*7D
$GPGGA,194204.750,4308.2998,N,07726.2665,W,1,04,3.51,168.1,M,-34.4,M,,*53
$GPRMC,194205.000,A,4308.2998,N,07726.2665,W,0.39,244.18,160721,,,A*73
$GPGGA,194205.250,4308.2998,N,07726.2666,W,1,04,3.52,168.1,M,-34.4,M,,*57
$GPRMC,194205.500,A,4308.2998,N,07726.2666,W,0.38,238.27,160721,,,A*73
$GPGGA,194205.750,4308.2998,N,07726.2666,W,1,04,3.51,168.1,M,-34.4,M,,*51
$GPRMC,194206.000,A,4308.2998,N,07726.2667,W,0.40,228.64,160721,,,A*7D
$GPGGA,194206.250,4308.2998,N,07726.2667,W,1,04,3.52,168.1,M,-34.4,M,,*55
$GPRMC,194206.500,A,4308.2997,N,07726.2667,W,0.40,228.93,160721,,,A*7F
$GPGGA,194206.750,4308.2997,N,07726.2668,W,1,04,3.51,168.1,M,-34.4,M,,*53
$GPRMC,194207.000,A,4308.2997,N,07726.2668,W,0.41,232.07,160721,,,A*73
$GPGGA,194207.250,4308.2997,N,07726.2668,W,1,04,3.52,168.1,M,-34.4,M,,*54
$GPRMC,194207.500,A,4308.2997,N,07726.2668,W,0.33,236.82,160721,,,A*7A
$GPGGA,194207.750,4308.2997,N,07726.2669,W,1,04,3.52,168.1,M,-34.4,M,,*50
$GPRMC,194208.000,A,4308.2997,N,07726.2669,W,0.24,235.93,160721,,,A*74
$GPGGA,194208.250,4308.2996,N,07726.2669,W,1,04,3.51,168.1,M,-34.4,M,,*58
$GPRMC,194208.500,A,4308.2996,N,07726.2669,W,0.27,243.27,160721,,,A*7D
$GPGGA,194208.750,4308.2996,N,07726.2670,W,1,04,3.52,168.1,M,-34.4,M,,*56
$GPRMC,194209.000,A,4308.2996,N,07726.2670,W,0.27,268.54,160721,,,A*7C
$GPGGA,194209.250,4308.2996,N,07726.2670,W,1,04,3.52,168.1,M,-34.4,M,,*52
$GPRMC,194209.500,A,4308.2996,N,07726.2670,W,0.25,285.20,160721,,,A*7B
$GPGGA,194209.750,4308.2996,N,07726.2671,W,1,04,3.52,168.1,M,-34.4,M,,*56
$GPRMC,194210.000,A,4308.2996,N,07726.2671,W,0.27,311.78,160721,,,A*74
$GPGGA,194210.250,4308.2997,N,07726.2671,W,1,04,3.51,168.1,M,-34.4,M,,*59
$GPRMC,194210.500,A,4308.2997,N,07726.2671,W,0.29,316.79,160721,,,A*78
$GPGGA,194210.750,4308.2997,N,07726.2671,W,1,04,3.51,168.1,M,-34.4,M,,*5C
$GPRMC,194211.000,A,4308.2997,N,07726.2672,W,0.37,316.77,160721,,,A*7E
$GPGGA,194211.250,4308.2997,N,07726.2672,W,1,04,3.51,168.1,M,-34.4,M,,*5B
$GPRMC,194211.500,A,4308.2997,N,07726.2672,W,0.43,323.96,160721,,,A*71
$GPGGA,194211.750,4308.2998,N,07726.2672,W,1,04,3.51,168.1,M,-34.4,M,,*51
$GPRMC,194212.000,A,4308.2998,N,07726.2672,W,0.55,328.28,160721,,,A*71
$GPGGA,194212.250,4308.2998,N,07726.2673,W,1,04,3.51,168.1,M,-34.4,M,,*56
$GPRMC,194212.500,A,4308.2999,N,07726.2673,W,0.60,329.77,160721,,,A*79
$GPGGA,194212.750,4308.3000,N,07726.2673,W,1,04,3.51,168.0,M,-34.4,M,,*5B
$GPRMC,194213.000,A,4308.3002,N,07726.2674,W,0.82,329.42,160721,,,A*7A
$GPGGA,194213.250,4308.3002,N,07726.2674,W,1,03,6.86,167.9,M,-34.4,M,,*54
$GPRMC,194213.500,A,4308.3004,N,07726.2673,W,0.94,334.55,160721,,,A*73
$GPGGA,194213.750,4308.3006,N,07726.2672,W,1,03,6.87,167.6,M,-34.4,M,,*5D
$GPRMC,194214.000,A,4308.3007,N,07726.2673,W,1.12,333.33,160721,,,A*7A
$GPGGA,194214.250,4308.3007,N,07726.2674,W,1,04,3.52,167.4,M,-34.4,M,,*50
$GPRMC,194214.500,A,4308.3009,N,07726.2674,W,1.31,331.12,160721,,,A*76
$GPGGA,194214.750,4308.3011,N,07726.2674,W,1,04,3.52,167.2,M,-34.4,M,,*54
$GPRMC,194215.000,A,4308.3014,N,07726.2674,W,1.54,333.53,160721,,,A*7A
$GPGGA,194215.250,4308.3015,N,07726.2675,W,1,04,3.52,166.9,M,-34.4,M,,*5F
$GPRMC,194215.500,A,4308.3018,N,07726.2674,W,1.73,336.11,160721,,,A*75
$GPGGA,194215.750,4308.3021,N,07726.2674,W,1,04,3.52,166.7,M,-34.4,M,,*52
$GPRMC,194216.000,A,4308.3023,N,07726.2673,W,1.92,338.31,160721,,,A*7F
$GPGGA,194216.250,4308.3024,N,07726.2673,W,1,04,3.52,166.4,M,-34.4,M,,*55
$GPRMC,194216.500,A,4308.3025,N,07726.2673,W,1.87,341.06,160721,,,A*72
$GPGGA,194216.750,4308.3025,N,07726.2673,W,1,04,3.52,166.2,M,-34.4,M,,*57
$GPRMC,194217.000,A,4308.3028,N,07726.2672,W,1.87,343.48,160721,,,A*72
$GPGGA,194217.250,4308.3029,N,07726.2672,W,1,04,3.52,166.0,M,-34.4,M,,*5C
$GPRMC,194217.500,A,4308.3030,N,07726.2671,W,1.81,347.46,160721,,,A*71
$GPGGA,194217.750,4308.3031,N,07726.2670,W,6,03,85.32,165.8,M,-34.4,M,,*61
$GPRMC,194217.750,V,,,,,1.78,348.70,160721,,,E*49
$GPGGA,194218.000,4308.3032,N,07726.2670,W,6,03,85.33,165.7,M,-34.4,M,,*61
$GPRMC,194218.000,V,,,,,1.73,350.49,160721,,,E*4C
$GPGGA,194218.250,4308.3034,N,07726.2669,W,6,03,85.35,165.7,M,-34.4,M,,*6E
$GPRMC,194218.250,V,,,,,1.72,351.37,160721,,,E*42
$GPGGA,194218.500,4308.3034,N,07726.2669,W,1,04,3.55,165.6,M,-34.4,M,,*55
$GPRMC,194218.750,A,4308.3035,N,07726.2670,W,1.65,351.62,160721,,,A*76
$GPGGA,194219.000,4308.3037,N,07726.2670,W,1,04,3.55,165.5,M,-34.4,M,,*59
$GPRMC,194219.250,A,4308.3040,N,07726.2670,W,1.74,351.70,160721,,,A*73
$GPGGA,194219.500,4308.3042,N,07726.2669,W,1,04,3.55,165.4,M,-34.4,M,,*57
$GPRMC,194219.750,A,4308.3044,N,07726.2669,W,1.81,353.62,160721,,,A*71
$GPGGA,194220.000,4308.3046,N,07726.2669,W,1,04,3.55,165.3,M,-34.4,M,,*5B
$GPRMC,194220.250,A,4308.3050,N,07726.2668,W,1.91,356.22,160721,,,A*7A
$GPGGA,194220.500,4308.3055,N,07726.2666,W,1,05,2.23,165.4,M,-34.4,M,,*55
$GPRMC,194220.750,A,4308.3059,N,07726.2664,W,2.11,3.32,160721,,,A*73
$GPGGA,194221.000,4308.3064,N,07726.2660,W,1,05,2.23,165.4,M,-34.4,M,,*55
$GPRMC,194221.250,A,4308.3067,N,07726.2658,W,2.13,18.73,160721,,,A*48
$GPGGA,194221.500,4308.3071,N,07726.2655,W,1,05,1.76,165.6,M,-34.4,M,,*53
$GPRMC,194221.750,A,4308.3076,N,07726.2651,W,3.12,43.71,160721,,,A*48
$GPGGA,194222.000,4308.3077,N,07726.2649,W,1,05,1.76,165.5,M,-34.4,M,,*5D
$GPRMC,194222.250,A,4308.3081,N,07726.2646,W,3.23,43.90,160721,,,A*4D
$GPGGA,194222.500,4308.3083,N,07726.2643,W,1,05,1.76,165.5,M,-34.4,M,,*59
$GPRMC,194222.750,A,4308.3086,N,07726.2641,W,2.93,42.50,160721,,,A*4F
$GPGGA,194223.000,4308.3088,N,07726.2638,W,1,05,1.76,165.5,M,-34.4,M,,*5A
$GPRMC,194223.250,A,4308.3090,N,07726.2635,W,3.02,51.00,160721,,,A*41
$GPGGA,194223.500,4308.3091,N,07726.2633,W,1,05,1.76,165.5,M,-34.4,M,,*5C
$GPRMC,194223.750,A,4308.3093,N,07726.2630,W,2.02,63.55,160721,,,A*42
$GPGGA,194224.000,4308.3094,N,07726.2628,W,1,05,1.76,165.5,M,-34.4,M,,*51
$GPRMC,194224.250,A,4308.3094,N,07726.2626,W,1.28,86.90,160721,,,A*49
$GPGGA,194224.500,4308.3095,N,07726.2625,W,1,05,1.76,165.5,M,-34.4,M,,*58
$GPRMC,194224.750,A,4308.3096,N,07726.2624,W,0.65,83.98,160721,,,A*49
$GPGGA,194225.000,4308.3096,N,07726.2624,W,1,05,1.76,165.5,M,-34.4,M,,*5E
$GPRMC,194225.250,A,4308.3097,N,07726.2624,W,0.18,75.82,160721,,,A*44
$GPGGA,194225.500,4308.3098,N,07726.2625,W,1,05,1.76,165.4,M,-34.4,M,,*55
$GPRMC,194225.750,A,4308.3098,N,07726.2626,W,0.46,251.91,160721,,,A*71
$GPGGA,194226.000,4308.3098,N,07726.2628,W,1,05,1.76,165.5,M,-34.4,M,,*5F
$GPRMC,194226.250,A,4308.3099,N,07726.2630,W,1.03,256.16,160721,,,A*79
$GPGGA,194226.500,4308.3100,N,07726.2633,W,1,05,1.76,165.5,M,-34.4,M,,*50
$GPRMC,194226.750,A,4308.3101,N,07726.2636,W,1.74,262.48,160721,,,A*76
$GPGGA,194227.000,4308.3102,N,07726.2640,W,1,05,1.76,165.5,M,-34.4,M,,*52
$GPRMC,194227.250,A,4308.3103,N,07726.2643,W,2.56,269.18,160721,,,A*7F
$GPGGA,194227.500,4308.3103,N,07726.2647,W,1,05,1.76,165.5,M,-34.4,M,,*51
$GPRMC,194227.750,A,4308.3103,N,07726.2652,W,4.68,279.69,160721,,,A*76
$GPGGA,194228.000,4308.3105,N,07726.2657,W,1,05,2.24,165.4,M,-34.4,M,,*59
$GPRMC,194228.250,A,4308.3106,N,07726.2661,W,5.52,287.70,160721,,,A*78
$GPGGA,194228.500,4308.3108,N,07726.2666,W,1,05,2.24,165.3,M,-34.4,M,,*54
$GPRMC,194228.750,A,4308.3110,N,07726.2671,W,6.70,290.82,160721,,,A*73
$GPGGA,194229.000,4308.3111,N,07726.2677,W,1,05,2.24,165.2,M,-34.4,M,,*59
$GPRMC,194229.250,A,4308.3113,N,07726.2684,W,7.18,286.99,160721,,,A*7C
$GPGGA,194229.500,4308.3114,N,07726.2690,W,1,05,2.24,165.2,M,-34.4,M,,*50
$GPRMC,194229.750,A,4308.3115,N,07726.2697,W,7.66,283.90,160721,,,A*78
$GPGGA,194230.000,4308.3116,N,07726.2705,W,1,05,2.24,165.1,M,-34.4,M,,*51
$GPRMC,194230.250,A,4308.3117,N,07726.2713,W,8.33,283.01,160721,,,A*7D
$GPGGA,194230.500,4308.3118,N,07726.2721,W,1,05,2.24,165.0,M,-34.4,M,,*5D
$GPRMC,194230.750,A,4308.3119,N,07726.2729,W,9.01,282.63,160721,,,A*7A
$GPGGA,194231.000,4308.3121,N,07726.2737,W,1,05,2.24,165.0,M,-34.4,M,,*54
$GPRMC,194231.250,A,4308.3122,N,07726.2746,W,9.43,283.87,160721,,,A*72
$GPGGA,194231.500,4308.3125,N,07726.2754,W,1,05,1.76,164.9,M,-34.4,M,,*5C
$GPRMC,194231.750,A,4308.3128,N,07726.2762,W,9.86,288.61,160721,,,A*71
$GPGGA,194232.000,4308.3130,N,07726.2771,W,1,05,1.76,164.9,M,-34.4,M,,*59
$GPRMC,194232.250,A,4308.3133,N,07726.2780,W,10.68,288.69,160721,,,A*41
$GPGGA,194232.500,4308.3135,N,07726.2790,W,1,05,1.76,164.8,M,-34.4,M,,*57
$GPRMC,194232.750,A,4308.3138,N,07726.2801,W,11.62,288.91,160721,,,A*45
$GPGGA,194233.000,4308.3141,N,07726.2811,W,1,05,1.76,164.8,M,-34.4,M,,*56
$GPRMC,194233.250,A,4308.3143,N,07726.2822,W,12.17,289.04,160721,,,A*40
$GPGGA,194233.500,4308.3146,N,07726.2834,W,1,05,1.76,164.8,M,-34.4,M,,*53
$GPRMC,194233.750,A,4308.3148,N,07726.2846,W,12.84,287.13,160721,,,A*4E
$GPGGA,194234.000,4308.3149,N,07726.2857,W,1,05,1.76,164.8,M,-34.4,M,,*5B
$GPRMC,194234.250,A,4308.3152,N,07726.2869,W,13.22,286.17,160721,,,A*42
$GPGGA,194234.500,4308.3155,N,07726.2881,W,1,05,1.76,164.7,M,-34.4,M,,*57
$GPRMC,194234.750,A,4308.3158,N,07726.2893,W,13.66,287.24,160721,,,A*49
$GPGGA,194235.000,4308.3162,N,07726.2905,W,1,05,1.76,164.7,M,-34.4,M,,*5A
$GPRMC,194235.250,A,4308.3166,N,07726.2918,W,14.39,288.33,160721,,,A*46
$GPGGA,194235.500,4308.3170,N,07726.2931,W,1,05,1.76,164.7,M,-34.4,M,,*5B
$GPRMC,194235.750,A,4308.3174,N,07726.2943,W,14.48,289.60,160721,,,A*4F
$GPGGA,194236.000,4308.3179,N,07726.2957,W,1,05,1.76,164.7,M,-34.4,M,,*54
$GPRMC,194236.250,A,4308.3184,N,07726.2970,W,14.93,291.53,160721,,,A*49
$GPGGA,194236.500,4308.3188,N,07726.2984,W,1,05,1.76,164.8,M,-34.4,M,,*5E
$GPRMC,194236.750,A,4308.3193,N,07726.2997,W,15.42,292.44,160721,,,A*4B
$GPGGA,194237.000,4308.3198,N,07726.3011,W,1,05,1.76,164.8,M,-34.4,M,,*5F
$GPRMC,194237.250,A,4308.3203,N,07726.3026,W,15.86,293.26,160721,,,A*4A
$GPGGA,194237.500,4308.3209,N,07726.3040,W,1,05,1.76,164.8,M,-34.4,M,,*55
$GPRMC,194237.750,A,4308.3215,N,07726.3055,W,16.61,294.42,160721,,,A*43
$GPGGA,194238.000,4308.3221,N,07726.3069,W,1,05,1.76,164.8,M,-34.4,M,,*5E
$GPRMC,194238.250,A,4308.3227,N,07726.3084,W,16.94,296.01,160721,,,A*4B
$GPGGA,194238.500,4308.3234,N,07726.3098,W,1,05,1.76,164.8,M,-34.4,M,,*51
$GPRMC,194238.750,A,4308.3240,N,07726.3112,W,17.24,297.15,160721,,,A*4F
$GPGGA,194239.000,4308.3247,N,07726.3126,W,1,05,1.76,164.8,M,-34.4,M,,*55
$GPRMC,194239.250,A,4308.3253,N,07726.3140,W,17.50,297.97,160721,,,A*47
$GPGGA,194239.500,4308.3260,N,07726.3155,W,1,05,1.76,164.8,M,-34.4,M,,*51
$GPRMC,194239.750,A,4308.3268,N,07726.3169,W,18.00,298.87,160721,,,A*45
$GPGGA,194240.000,4308.3275,N,07726.3184,W,1,05,1.76,164.9,M,-34.4,M,,*53
$GPRMC,194240.250,A,4308.3283,N,07726.3199,W,18.47,299.71,160721,,,A*4F
$GPGGA,194240.500,4308.3291,N,07726.3214,W,1,05,1.76,164.9,M,-34.4,M,,*56
$GPRMC,194240.750,A,4308.3300,N,07726.3229,W,18.97,301.03,160721,,,A*40
$GPGGA,194241.000,4308.3309,N,07726.3243,W,1,05,1.76,164.9,M,-34.4,M,,*50
$GPRMC,194241.250,A,4308.3317,N,07726.3258,W,19.24,302.09,160721,,,A*44
$GPGGA,194241.500,4308.3327,N,07726.3272,W,1,05,1.76,164.9,M,-34.4,M,,*5B
$GPRMC,194241.750,A,4308.3336,N,07726.3287,W,19.50,303.37,160721,,,A*4F
$GPGGA,194242.000,4308.3346,N,07726.3302,W,1,05,1.76,165.0,M,-34.4,M,,*54
$GPRMC,194242.250,A,4308.3356,N,07726.3317,W,19.89,305.01,160721,,,A*40
$GPGGA,194242.500,4308.3365,N,07726.3333,W,1,05,1.76,165.0,M,-34.4,M,,*52
$GPRMC,194242.750,A,4308.3375,N,07726.3347,W,20.01,306.02,160721,,,A*4B
$GPGGA,194243.000,4308.3385,N,07726.3362,W,1,05,1.76,165.0,M,-34.4,M,,*5C
$GPRMC,194243.250,A,4308.3395,N,07726.3377,W,20.15,306.89,160721,,,A*44
$GPGGA,194243.500,4308.3403,N,07726.3392,W,1,05,1.76,165.0,M,-34.4,M,,*5F
$GPRMC,194243.750,A,4308.3412,N,07726.3407,W,20.16,307.36,160721,,,A*4F
$GPGGA,194244.000,4308.3421,N,07726.3421,W,1,05,1.76,165.1,M,-34.4,M,,*53
$GPRMC,194244.250,A,4308.3429,N,07726.3436,W,19.59,306.94,160721,,,A*4F
$GPGGA,194244.500,4308.3437,N,07726.3450,W,1,05,1.76,165.1,M,-34.4,M,,*57
$GPRMC,194244.750,A,4308.3445,N,07726.3464,W,18.95,306.53,160721,,,A*4D
$GPGGA,194245.000,4308.3454,N,07726.3478,W,1,05,1.76,165.1,M,-34.4,M,,*5C
$GPRMC,194245.250,A,4308.3462,N,07726.3492,W,18.46,306.96,160721,,,A*42
$GPGGA,194245.500,4308.3470,N,07726.3505,W,1,05,1.76,165.2,M,-34.4,M,,*57
$GPRMC,194245.750,A,4308.3477,N,07726.3517,W,17.74,307.85,160721,,,A*42
$GPGGA,194246.000,4308.3485,N,07726.3529,W,1,05,1.76,165.2,M,-34.4,M,,*55
$GPRMC,194246.250,A,4308.3492,N,07726.3541,W,17.09,308.09,160721,,,A*4D
$GPGGA,194246.500,4308.3499,N,07726.3552,W,1,05,1.76,165.2,M,-34.4,M,,*51
$GPRMC,194246.750,A,4308.3507,N,07726.3563,W,16.13,309.28,160721,,,A*4D
$GPGGA,194247.000,4308.3515,N,07726.3574,W,1,05,1.76,165.2,M,-34.4,M,,*54
$GPRMC,194247.250,A,4308.3523,N,07726.3585,W,15.89,309.82,160721,,,A*47
$GPGGA,194247.500,4308.3531,N,07726.3595,W,1,05,1.76,165.2,M,-34.4,M,,*58
$GPRMC,194247.750,A,4308.3539,N,07726.3604,W,15.52,312.31,160721,,,A*47
$GPGGA,194248.000,4308.3549,N,07726.3613,W,1,05,1.76,165.3,M,-34.4,M,,*51
$GPRMC,194248.250,A,4308.3558,N,07726.3622,W,15.75,316.27,160721,,,A*48
$GPGGA,194248.500,4308.3568,N,07726.3630,W,1,05,1.76,165.3,M,-34.4,M,,*56
$GPRMC,194248.750,A,4308.3578,N,07726.3637,W,16.15,321.03,160721,,,A*4C
$GPGGA,194249.000,4308.3588,N,07726.3646,W,1,05,1.76,165.3,M,-34.4,M,,*5D
$GPRMC,194249.250,A,4308.3598,N,07726.3654,W,16.64,323.65,160721,,,A*47
$GPGGA,194249.500,4308.3608,N,07726.3663,W,1,05,1.76,165.3,M,-34.4,M,,*54
$GPRMC,194249.750,A,4308.3619,N,07726.3671,W,16.86,326.00,160721,,,A*45
$GPGGA,194250.000,4308.3629,N,07726.3679,W,1,05,1.76,165.3,M,-34.4,M,,*51
$GPRMC,194250.250,A,4308.3640,N,07726.3687,W,16.86,328.40,160721,,,A*47
$GPGGA,194250.500,4308.3651,N,07726.3695,W,1,05,1.76,165.4,M,-34.4,M,,*5E
$GPRMC,194250.750,A,4308.3662,N,07726.3702,W,17.10,332.43,160721,,,A*48
$GPGGA,194251.000,4308.3674,N,07726.3708,W,1,05,1.76,165.4,M,-34.4,M,,*58
$GPRMC,194251.250,A,4308.3686,N,07726.3714,W,17.55,335.39,160721,,,A*4A
$GPGGA,194251.500,4308.3698,N,07726.3720,W,1,05,1.76,165.4,M,-34.4,M,,*55
$GPRMC,194251.750,A,4308.3710,N,07726.3725,W,17.66,339.51,160721,,,A*41
$GPGGA,194252.000,4308.3722,N,07726.3730,W,1,05,1.76,165.4,M,-34.4,M,,*52
$GPRMC,194252.250,A,4308.3734,N,07726.3735,W,17.67,342.00,160721,,,A*49
$GPGGA,194252.500,4308.3746,N,07726.3740,W,1,05,1.76,165.5,M,-34.4,M,,*53
$GPRMC,194252.750,A,4308.3757,N,07726.3745,W,17.83,342.78,160721,,,A*4B
$GPGGA,194253.000,4308.3770,N,07726.3748,W,1,05,1.76,165.6,M,-34.4,M,,*59
$GPRMC,194253.250,A,4308.3782,N,07726.3751,W,17.60,348.73,160721,,,A*4E
$GPGGA,194253.500,4308.3793,N,07726.3753,W,1,05,2.24,165.7,M,-34.4,M,,*5E
$GPRMC,194253.750,A,4308.3805,N,07726.3754,W,17.51,352.19,160721,,,A*4B
$GPGGA,194254.000,4308.3817,N,07726.3755,W,1,05,2.24,165.7,M,-34.4,M,,*59
$GPRMC,194254.250,A,4308.3828,N,07726.3755,W,16.84,354.00,160721,,,A*40
$GPGGA,194254.500,4308.3839,N,07726.3755,W,1,05,2.24,165.7,M,-34.4,M,,*50
$GPRMC,194254.750,A,4308.3849,N,07726.3755,W,16.09,355.92,160721,,,A*4D
$GPGGA,194255.000,4308.3860,N,07726.3755,W,1,05,2.24,165.7,M,-34.4,M,,*58
$GPRMC,194255.250,A,4308.3871,N,07726.3754,W,15.71,358.17,160721,,,A*4F
$GPGGA,194255.500,4308.3882,N,07726.3753,W,1,05,2.24,165.7,M,-34.4,M,,*57
$GPRMC,194255.750,A,4308.3893,N,07726.3751,W,15.68,359.73,160721,,,A*48
$GPGGA,194256.000,4308.3904,N,07726.3750,W,1,05,2.24,165.7,M,-34.4,M,,*5D
$GPRMC,194256.250,A,4308.3915,N,07726.3748,W,15.76,1.10,160721,,,A*4D
$GPGGA,194256.500,4308.3926,N,07726.3746,W,1,05,2.24,165.6,M,-34.4,M,,*5E
$GPRMC,194256.750,A,4308.3937,N,07726.3744,W,15.72,2.17,160721,,,A*44
$GPGGA,194257.000,4308.3948,N,07726.3742,W,1,05,2.24,165.6,M,-34.4,M,,*56
$GPRMC,194257.250,A,4308.3960,N,07726.3740,W,15.95,3.11,160721,,,A*48
$GPGGA,194257.500,4308.3971,N,07726.3737,W,1,05,2.24,165.6,M,-34.4,M,,*5B
$GPRMC,194257.750,A,4308.3983,N,07726.3735,W,16.57,4.13,160721,,,A*4A
$GPGGA,194258.000,4308.3995,N,07726.3733,W,1,05,2.24,165.5,M,-34.4,M,,*5C
$GPRMC,194258.250,A,4308.4007,N,07726.3731,W,16.84,4.09,160721,,,A*43
$GPGGA,194258.500,4308.4019,N,07726.3729,W,1,05,2.24,165.5,M,-34.4,M,,*58
$GPRMC,194258.750,A,4308.4031,N,07726.3727,W,17.31,4.36,160721,,,A*47
$GPGGA,194259.000,4308.4043,N,07726.3725,W,1,05,2.24,165.5,M,-34.4,M,,*5F
$GPRMC,194259.250,A,4308.4055,N,07726.3723,W,17.42,4.23,160721,,,A*45
$GPGGA,194259.500,4308.4068,N,07726.3722,W,1,05,2.24,165.5,M,-34.4,M,,*54
$GPRMC,194259.750,A,4308.4080,N,07726.3719,W,17.85,4.71,160721,,,A*4D
$GPGGA,194300.000,4308.4093,N,07726.3717,W,1,05,2.24,165.5,M,-34.4,M,,*5E
$GPRMC,194300.250,A,4308.4105,N,07726.3715,W,17.93,5.17,160721,,,A*43
$GPGGA,194300.500,4308.4118,N,07726.3713,W,1,05,2.24,165.5,M,-34.4,M,,*5D
$GPRMC,194300.750,A,4308.4130,N,07726.3710,W,17.94,5.73,160721,,,A*40
$GPGGA,194301.000,4308.4142,N,07726.3708,W,1,05,2.24,165.5,M,-34.4,M,,*5C
$GPRMC,194301.250,A,4308.4154,N,07726.3705,W,17.64,6.27,160721,,,A*4F
$GPGGA,194301.500,4308.4166,N,07726.3703,W,1,05,2.24,165.5,M,-34.4,M,,*54
$GPRMC,194301.750,A,4308.4178,N,07726.3700,W,17.28,7.00,160721,,,A*4D
$GPGGA,194302.000,4308.4190,N,07726.3697,W,1,05,2.24,165.5,M,-34.4,M,,*57
$GPRMC,194302.250,A,4308.4201,N,07726.3694,W,17.00,7.44,160721,,,A*40
$GPGGA,194302.500,4308.4212,N,07726.3692,W,1,05,2.24,165.4,M,-34.4,M,,*5F
$GPRMC,194302.750,A,4308.4223,N,07726.3689,W,16.34,7.39,160721,,,A*45
$GPGGA,194303.000,4308.4234,N,07726.3687,W,1,05,2.24,165.4,M,-34.4,M,,*5B
$GPRMC,194303.250,A,4308.4245,N,07726.3685,W,15.69,7.55,160721,,,A*4C
$GPGGA,194303.500,4308.4255,N,07726.3684,W,1,05,2.24,165.4,M,-34.4,M,,*5A
$GPRMC,194303.750,A,4308.4265,N,07726.3682,W,15.05,7.74,160721,,,A*45
$GPGGA,194304.000,4308.4275,N,07726.3680,W,1,05,2.24,165.4,M,-34.4,M,,*5E
$GPRMC,194304.250,A,4308.4285,N,07726.3678,W,14.63,7.85,160721,,,A*43
$GPGGA,194304.500,4308.4294,N,07726.3676,W,1,05,2.24,165.4,M,-34.4,M,,*5D
$GPRMC,194304.750,A,4308.4303,N,07726.3674,W,13.89,8.04,160721,,,A*40
$GPGGA,194305.000,4308.4312,N,07726.3672,W,1,05,2.24,165.3,M,-34.4,M,,*55
$GPRMC,194305.250,A,4308.4321,N,07726.3671,W,13.57,7.77,160721,,,A*49
$GPGGA,194305.500,4308.4330,N,07726.3669,W,1,05,2.24,165.3,M,-34.4,M,,*5A
$GPRMC,194305.750,A,4308.4338,N,07726.3667,W,12.97,7.42,160721,,,A*48
$GPGGA,194306.000,4308.4346,N,07726.3665,W,1,05,2.24,165.2,M,-34.4,M,,*50
$GPRMC,194306.250,A,4308.4355,N,07726.3663,W,12.57,7.92,160721,,,A*40
$GPGGA,194306.500,4308.4363,N,07726.3662,W,1,05,2.24,165.1,M,-34.4,M,,*56
$GPRMC,194306.750,A,4308.4370,N,07726.3659,W,11.63,9.48,160721,,,A*46
$GPGGA,194307.000,4308.4377,N,07726.3657,W,1,05,2.24,165.0,M,-34.4,M,,*50
$GPRMC,194307.250,A,4308.4384,N,07726.3655,W,10.70,9.04,160721,,,A*4E
$GPGGA,194307.500,4308.4390,N,07726.3653,W,1,05,2.24,164.9,M,-34.4,M,,*50
$GPRMC,194307.750,A,4308.4396,N,07726.3651,W,9.67,8.90,160721,,,A*7E
$GPGGA,194308.000,4308.4401,N,07726.3650,W,1,05,2.24,164.8,M,-34.4,M,,*57
$GPRMC,194308.250,A,4308.4408,N,07726.3648,W,9.12,7.93,160721,,,A*72
$GPGGA,194308.500,4308.4414,N,07726.3647,W,1,05,2.24,164.7,M,-34.4,M,,*5F
$GPRMC,194308.750,A,4308.4419,N,07726.3646,W,8.70,6.09,160721,,,A*7E
$GPGGA,194309.000,4308.4425,N,07726.3645,W,1,05,2.24,164.7,M,-34.4,M,,*5B
$GPRMC,194309.250,A,4308.4431,N,07726.3644,W,8.47,4.09,160721,,,A*74
$GPGGA,194309.500,4308.4436,N,07726.3643,W,1,05,2.24,164.6,M,-34.4,M,,*5B
$GPRMC,194309.750,A,4308.4441,N,07726.3641,W,8.12,4.70,160721,,,A*7D
$GPGGA,194310.000,4308.4446,N,07726.3640,W,1,05,2.24,164.5,M,-34.4,M,,*51
$GPRMC,194310.250,A,4308.4451,N,07726.3639,W,7.53,4.95,160721,,,A*7F
$GPGGA,194310.500,4308.4455,N,07726.3638,W,1,05,2.24,164.4,M,-34.4,M,,*58
$GPRMC,194310.750,A,4308.4459,N,07726.3636,W,6.83,7.61,160721,,,A*79
$GPGGA,194311.000,4308.4462,N,07726.3634,W,1,05,2.24,164.3,M,-34.4,M,,*53
$GPRMC,194311.250,A,4308.4466,N,07726.3632,W,6.33,9.34,160721,,,A*70
$GPGGA,194311.500,4308.4469,N,07726.3630,W,1,05,2.24,164.2,M,-34.4,M,,*58
$GPRMC,194311.750,A,4308.4472,N,07726.3627,W,5.67,11.49,160721,,,A*45
$GPGGA,194312.000,4308.4475,N,07726.3626,W,1,05,2.24,164.1,M,-34.4,M,,*57
$GPRMC,194312.250,A,4308.4478,N,07726.3624,W,5.27,12.36,160721,,,A*45
$GPGGA,194312.500,4308.4481,N,07726.3623,W,1,05,2.24,163.9,M,-34.4,M,,*53
$GPRMC,194312.750,A,4308.4484,N,07726.3621,W,4.64,14.70,160721,,,A*44
$GPGGA,194313.000,4308.4486,N,07726.3619,W,1,05,2.25,163.8,M,-34.4,M,,*59
$GPRMC,194313.250,A,4308.4488,N,07726.3617,W,4.23,16.30,160721,,,A*4C
$GPGGA,194313.500,4308.4490,N,07726.3615,W,1,05,1.77,163.7,M,-34.4,M,,*5C
$GPRMC,194313.750,A,4308.4492,N,07726.3613,W,3.94,15.55,160721,,,A*4D
$GPGGA,194314.000,4308.4494,N,07726.3612,W,1,05,1.77,163.6,M,-34.4,M,,*5C
$GPRMC,194314.250,A,4308.4496,N,07726.3610,W,3.75,15.99,160721,,,A*47
$GPGGA,194314.500,4308.4499,N,07726.3609,W,1,05,1.77,163.5,M,-34.4,M,,*5D
$GPRMC,194314.750,A,4308.4501,N,07726.3607,W,3.56,19.25,160721,,,A*41
$GPGGA,194315.000,4308.4503,N,07726.3606,W,1,05,1.77,163.4,M,-34.4,M,,*55
$GPRMC,194315.250,A,4308.4505,N,07726.3605,W,3.51,20.18,160721,,,A*40
$GPGGA,194315.500,4308.4507,N,07726.3603,W,1,05,1.77,163.4,M,-34.4,M,,*51
$GPRMC,194315.750,A,4308.4509,N,07726.3602,W,3.18,21.77,160721,,,A*4B
$GPGGA,194316.000,4308.4510,N,07726.3602,W,1,05,1.77,163.4,M,-34.4,M,,*50
$GPRMC,194316.250,A,4308.4512,N,07726.3601,W,2.85,21.77,160721,,,A*41
$GPGGA,194316.500,4308.4513,N,07726.3600,W,1,05,1.77,163.3,M,-34.4,M,,*53
$GPRMC,194316.750,A,4308.4515,N,07726.3599,W,2.85,21.77,160721,,,A*41
$GPGGA,194317.000,4308.4516,N,07726.3598,W,1,05,1.77,163.3,M,-34.4,M,,*50
$GPRMC,194317.250,A,4308.4518,N,07726.3597,W,2.86,21.77,160721,,,A*45
$GPGGA,194317.500,4308.4520,N,07726.3596,W,1,05,2.25,163.1,M,-34.4,M,,*58
$GPRMC,194317.750,A,4308.4521,N,07726.3595,W,2.82,21.77,160721,,,A*4C
$GPGGA,194318.000,4308.4523,N,07726.3595,W,1,05,2.25,163.0,M,-34.4,M,,*53
$GPRMC,194318.250,A,4308.4525,N,07726.3594,W,2.78,21.77,160721,,,A*46
$GPGGA,194318.500,4308.4527,N,07726.3593,W,1,05,2.25,162.9,M,-34.4,M,,*5C
$GPRMC,194318.750,A,4308.4528,N,07726.3592,W,2.54,21.77,160721,,,A*46
$GPGGA,194319.000,4308.4529,N,07726.3592,W,1,05,2.25,162.9,M,-34.4,M,,*57
$GPRMC,194319.250,A,4308.4531,N,07726.3591,W,2.30,21.77,160721,,,A*4B
$GPGGA,194319.500,4308.4532,N,07726.3591,W,1,05,2.25,162.8,M,-34.4,M,,*5A
$GPRMC,194319.750,A,4308.4533,N,07726.3591,W,2.10,21.77,160721,,,A*4E
$GPGGA,194320.000,4308.4534,N,07726.3591,W,1,05,2.25,162.7,M,-34.4,M,,*5C
$GPRMC,194320.250,A,4308.4535,N,07726.3590,W,1.92,21.77,160721,,,A*4F
$GPGGA,194320.500,4308.4536,N,07726.3590,W,1,05,2.25,162.6,M,-34.4,M,,*5B
$GPRMC,194320.750,A,4308.4537,N,07726.3589,W,1.69,21.77,160721,,,A*44
$GPGGA,194321.000,4308.4538,N,07726.3589,W,1,05,1.77,162.5,M,-34.4,M,,*5E
$GPRMC,194321.250,A,4308.4540,N,07726.3588,W,1.68,21.77,160721,,,A*40
$GPGGA,194321.500,4308.4540,N,07726.3588,W,1,05,2.25,162.4,M,-34.4,M,,*50
$GPRMC,194321.750,A,4308.4541,N,07726.3588,W,1.48,21.77,160721,,,A*46
$GPGGA,194322.000,4308.4542,N,07726.3587,W,1,05,2.25,162.2,M,-34.4,M,,*5D
$GPRMC,194322.250,A,4308.4543,N,07726.3587,W,1.61,21.77,160721,,,A*46
$GPGGA,194322.500,4308.4544,N,07726.3587,W,1,05,2.25,162.1,M,-34.4,M,,*5D
$GPRMC,194322.750,A,4308.4546,N,07726.3586,W,1.59,21.77,160721,,,A*4C
$GPGGA,194323.000,4308.4546,N,07726.3586,W,1,05,2.25,161.9,M,-34.4,M,,*51
$GPRMC,194323.250,A,4308.4547,N,07726.3586,W,1.36,21.77,160721,,,A*40
$GPGGA,194323.500,4308.4548,N,07726.3585,W,1,05,2.25,161.8,M,-34.4,M,,*58
$GPRMC,194323.750,A,4308.4549,N,07726.3585,W,0.00,21.77,160721,,,A*4C
$GPGGA,194324.000,4308.4549,N,07726.3585,W,1,05,2.25,161.8,M,-34.4,M,,*5B
$GPRMC,194324.250,A,4308.4549,N,07726.3585,W,0.00,21.77,160721,,,A*4E
$GPGGA,194324.500,4308.4549,N,07726.3585,W,1,05,2.25,161.8,M,-34.4,M,,*5E
$GPRMC,194324.750,A,4308.4549,N,07726.3585,W,0.00,21.77,160721,,,A*4B
$GPGGA,194325.000,4308.4549,N,07726.3585,W,1,05,2.25,161.8,M,-34.4,M,,*5A
$GPRMC,194325.250,A,4308.4549,N,07726.3585,W,0.00,21.77,160721,,,A*4F
$GPGGA,194325.500,4308.4549,N,07726.3585,W,1,05,2.25,161.8,M,-34.4,M,,*5F
$GPRMC,194325.750,A,4308.4549,N,07726.3585,W,0.00,21.77,160721,,,A*4A
$GPGGA,194326.000,4308.4549,N,07726.3585,W,1,05,2.25,161.8,M,-34.4,M,,*59
$GPRMC,194326.250,A,4308.4549,N,07726.3585,W,0.00,21.77,160721,,,A*4C
$GPGGA,194326.500,4308.4549,N,07726.3585,W,1,06,2.18,161.8,M,-34.4,M,,*51
$GPRMC,194326.750,A,4308.4549,N,07726.3585,W,0.00,21.77,160721,,,A*49
$GPGGA,194327.000,4308.4549,N,07726.3585,W,1,06,2.18,161.8,M,-34.4,M,,*55
$GPRMC,194327.250,A,4308.4549,N,07726.3585,W,0.00,21.77,160721,,,A*4D
$GPGGA,194327.500,4308.4549,N,07726.3585,W,1,06,2.18,161.8,M,-34.4,M,,*50
$GPRMC,194327.750,A,4308.4549,N,07726.3585,W,0.00,21.77,160721,,,A*48
$GPGGA,194328.000,4308.4549,N,07726.3585,W,1,06,2.18,161.8,M,-34.4,M,,*5A
$GPRMC,194328.250,A,4308.4549,N,07726.3585,W,0.00,21.77,160721,,,A*42
$GPGGA,194328.500,4308.4549,N,07726.3585,W,1,06,2.18,161.8,M,-34.4,M,,*5F
$GPRMC,194328.750,A,4308.4549,N,07726.3585,W,0.10,21.77,160721,,,A*46
$GPGGA,194329.000,4308.4550,N,07726.3585,W,1,06,1.39,161.8,M,-34.4,M,,*53
$GPRMC,194329.250,A,4308.4551,N,07726.3584,W,0.16,21.77,160721,,,A*4C
$GPGGA,194329.500,4308.4552,N,07726.3584,W,1,06,1.39,161.8,M,-34.4,M,,*55
$GPRMC,194329.750,A,4308.4554,N,07726.3579,W,0.30,21.77,160721,,,A*4A
$GPGGA,194330.000,4308.4557,N,07726.3576,W,1,06,1.39,162.1,M,-34.4,M,,*5A
$GPRMC,194330.250,A,4308.4560,N,07726.3573,W,3.72,39.58,160721,,,A*4B
$GPGGA,194330.500,4308.4562,N,07726.3569,W,1,06,1.39,162.2,M,-34.4,M,,*54
$GPRMC,194330.750,A,4308.4565,N,07726.3566,W,4.07,46.70,160721,,,A*48
$GPGGA,194331.000,4308.4567,N,07726.3563,W,1,06,2.18,162.2,M,-34.4,M,,*5F
$GPRMC,194331.250,A,4308.4569,N,07726.3560,W,4.19,50.89,160721,,,A*48
$GPGGA,194331.500,4308.4571,N,07726.3556,W,1,06,2.18,162.3,M,-34.4,M,,*5A
$GPRMC,194331.750,A,4308.4574,N,07726.3552,W,4.58,55.29,160721,,,A*4A
$GPGGA,194332.000,4308.4576,N,07726.3548,W,1,06,2.18,162.3,M,-34.4,M,,*54
$GPRMC,194332.250,A,4308.4577,N,07726.3544,W,4.79,58.00,160721,,,A*4D
$GPGGA,194332.500,4308.4580,N,07726.3538,W,1,06,1.39,162.4,M,-34.4,M,,*58
$GPRMC,194332.750,A,4308.4581,N,07726.3533,W,5.30,62.59,160721,,,A*48
$GPGGA,194333.000,4308.4583,N,07726.3527,W,1,06,1.39,162.4,M,-34.4,M,,*51
$GPRMC,194333.250,A,4308.4584,N,07726.3521,W,5.81,67.48,160721,,,A*45
$GPGGA,194333.500,4308.4586,N,07726.3515,W,1,06,1.39,162.5,M,-34.4,M,,*51
$GPRMC,194333.750,A,4308.4587,N,07726.3508,W,6.44,70.43,160721,,,A*4F
$GPGGA,194334.000,4308.4588,N,07726.3498,W,1,06,1.39,162.5,M,-34.4,M,,*59
$GPRMC,194334.250,A,4308.4589,N,07726.3489,W,7.74,79.64,160721,,,A*45
$GPGGA,194334.500,4308.4589,N,07726.3480,W,1,06,1.39,162.6,M,-34.4,M,,*57
$GPRMC,194334.750,A,4308.4590,N,07726.3470,W,8.99,87.45,160721,,,A*40
$GPGGA,194335.000,4308.4589,N,07726.3461,W,1,06,2.18,162.6,M,-34.4,M,,*5C
$GPRMC,194335.250,A,4308.4589,N,07726.3452,W,9.63,90.52,160721,,,A*48
$GPGGA,194335.500,4308.4588,N,07726.3442,W,1,06,1.39,162.7,M,-34.4,M,,*58
$GPRMC,194335.750,A,4308.4587,N,07726.3432,W,10.45,94.48,160721,,,A*76
$GPGGA,194336.000,4308.4586,N,07726.3421,W,1,06,1.39,162.8,M,-34.4,M,,*5A
$GPRMC,194336.250,A,4308.4585,N,07726.3410,W,11.32,97.00,160721,,,A*7C
$GPGGA,194336.500,4308.4584,N,07726.3399,W,1,06,1.39,162.8,M,-34.4,M,,*59
$GPRMC,194336.750,A,4308.4583,N,07726.3387,W,12.01,98.60,160721,,,A*7C
$GPGGA,194337.000,4308.4581,N,07726.3375,W,1,06,1.39,162.8,M,-34.4,M,,*5A
$GPRMC,194337.250,A,4308.4579,N,07726.3363,W,12.75,100.48,160721,,,A*4E
$GPGGA,194337.500,4308.4577,N,07726.3350,W,1,06,1.39,162.9,M,-34.4,M,,*50
$GPRMC,194337.750,A,4308.4575,N,07726.3337,W,13.46,100.75,160721,,,A*49
$GPGGA,194338.000,4308.4573,N,07726.3324,W,1,06,1.39,163.0,M,-34.4,M,,*55
$GPRMC,194336.250,A,4308.4571,N,07726.3310,W,14.16,101.65,160721,,,A*4E
$GPGGA,194336.500,4308.4568,N,07726.3296,W,1,06,1.39,163.1,M,-34.4,M,,*5D
$GPRMC,194336.750,A,4308.4566,N,07726.3284,W,15.22,101.92,160721,,,A*4F
$GPGGA,194337.000,4308.4563,N,07726.3270,W,1,06,1.39,163.2,M,-34.4,M,,*59
$GPRMC,194337.250,A,4308.4561,N,07726.3256,W,15.99,102.20,160721,,,A*49
$GPGGA,194337.500,4308.4558,N,07726.3242,W,1,06,1.39,163.4,M,-34.4,M,,*53
$GPRMC,194337.750,A,4308.4554,N,07726.3227,W,16.56,102.27,160721,,,A*4B
$GPGGA,194338.000,4308.4551,N,07726.3211,W,1,06,1.39,163.5,M,-34.4,M,,*57
$GPRMC,194338.250,A,4308.4548,N,07726.3194,W,17.26,101.15,160721,,,A*43
$GPGGA,194338.500,4308.4544,N,07726.3177,W,1,06,1.39,163.6,M,-34.4,M,,*56
$GPRMC,194338.750,A,4308.4540,N,07726.3158,W,18.20,101.24,160721,,,A*45
$GPGGA,194339.000,4308.4537,N,07726.3140,W,1,06,1.39,163.6,M,-34.4,M,,*52
$GPRMC,194339.250,A,4308.4534,N,07726.3121,W,18.97,100.84,160721,,,A*4B
$GPGGA,194339.500,4308.4530,N,07726.3100,W,1,06,1.39,163.7,M,-34.4,M,,*55
$GPRMC,194339.750,A,4308.4526,N,07726.3080,W,19.74,100.52,160721,,,A*40
$GPGGA,194340.000,4308.4524,N,07726.3059,W,1,06,1.39,163.8,M,-34.4,M,,*59
$GPRMC,194340.250,A,4308.4521,N,07726.3038,W,20.66,99.64,160721,,,A*72
$GPGGA,194340.500,4308.4518,N,07726.3017,W,1,06,1.39,163.8,M,-34.4,M,,*59
$GPRMC,194340.750,A,4308.4516,N,07726.2996,W,21.26,99.25,160721,,,A*7F
$GPGGA,194341.000,4308.4513,N,07726.2975,W,1,06,1.39,163.8,M,-34.4,M,,*5A
$GPRMC,194341.250,A,4308.4511,N,07726.2954,W,21.80,99.42,160721,,,A*7F
$GPGGA,194341.500,4308.4508,N,07726.2933,W,1,06,1.39,163.8,M,-34.4,M,,*57
$GPRMC,194341.750,A,4308.4505,N,07726.2911,W,22.35,99.57,160721,,,A*77
$GPGGA,194342.000,4308.4503,N,07726.2888,W,1,06,1.39,163.9,M,-34.4,M,,*5A
$GPRMC,194342.250,A,4308.4502,N,07726.2863,W,23.28,97.87,160721,,,A*7C
$GPGGA,194342.500,4308.4501,N,07726.2839,W,1,06,1.39,163.9,M,-34.4,M,,*57
$GPRMC,194342.750,A,4308.4499,N,07726.2815,W,23.86,97.19,160721,,,A*78
$GPGGA,194343.000,4308.4496,N,07726.2791,W,1,06,1.39,164.0,M,-34.4,M,,*5F
$GPRMC,194343.250,A,4308.4493,N,07726.2768,W,24.07,97.20,160721,,,A*77
$GPGGA,194343.500,4308.4491,N,07726.2746,W,1,06,1.39,164.0,M,-34.4,M,,*57
$GPRMC,194343.750,A,4308.4489,N,07726.2722,W,24.13,96.89,160721,,,A*70
$GPGGA,194344.000,4308.4487,N,07726.2700,W,1,06,1.39,164.1,M,-34.4,M,,*51
$GPRMC,194344.250,A,4308.4484,N,07726.2678,W,24.17,96.77,160721,,,A*74
$GPGGA,194344.500,4308.4481,N,07726.2656,W,1,06,1.39,164.0,M,-34.4,M,,*51
$GPRMC,194344.750,A,4308.4478,N,07726.2635,W,23.86,97.27,160721,,,A*70
$GPGGA,194345.000,4308.4475,N,07726.2614,W,1,06,1.39,164.1,M,-34.4,M,,*59
$GPRMC,194345.250,A,4308.4474,N,07726.2592,W,23.73,97.38,160721,,,A*72
$GPGGA,194345.500,4308.4472,N,07726.2569,W,1,06,1.39,164.1,M,-34.4,M,,*52
$GPRMC,194345.750,A,4308.4470,N,07726.2547,W,23.34,96.89,160721,,,A*73
$GPGGA,194346.000,4308.4469,N,07726.2526,W,1,06,1.39,164.1,M,-34.4,M,,*55
$GPRMC,194346.250,A,4308.4468,N,07726.2505,W,22.60,95.83,160721,,,A*73
$GPGGA,194346.500,4308.4466,N,07726.2484,W,1,06,1.39,164.1,M,-34.4,M,,*56
$GPRMC,194346.750,A,4308.4466,N,07726.2465,W,21.36,94.76,160721,,,A*74
$GPGGA,194347.000,4308.4465,N,07726.2447,W,1,06,1.39,164.1,M,-34.4,M,,*5E
$GPRMC,194347.250,A,4308.4464,N,07726.2431,W,19.78,92.98,160721,,,A*74
$GPGGA,194347.500,4308.4463,N,07726.2416,W,1,06,1.39,164.2,M,-34.4,M,,*5A
$GPRMC,194347.750,A,4308.4461,N,07726.2404,W,17.42,92.79,160721,,,A*7A
$GPGGA,194348.000,4308.4460,N,07726.2392,W,1,06,1.39,164.2,M,-34.4,M,,*58
$GPRMC,194348.250,A,4308.4460,N,07726.2382,W,15.49,91.25,160721,,,A*7B
$GPGGA,194348.500,4308.4459,N,07726.2373,W,1,06,1.39,164.2,M,-34.4,M,,*58
$GPRMC,194348.750,A,4308.4458,N,07726.2365,W,13.37,91.26,160721,,,A*70
$GPGGA,194349.000,4308.4457,N,07726.2356,W,1,06,1.39,164.3,M,-34.4,M,,*54
$GPRMC,194349.250,A,4308.4456,N,07726.2348,W,11.81,92.95,160721,,,A*71
$GPGGA,194349.500,4308.4454,N,07726.2340,W,1,06,1.39,164.4,M,-34.4,M,,*52
$GPRMC,194349.750,A,4308.4452,N,07726.2333,W,10.44,93.44,160721,,,A*79
$GPGGA,194350.000,4308.4451,N,07726.2325,W,1,06,1.39,164.4,M,-34.4,M,,*59
$GPRMC,194350.250,A,4308.4450,N,07726.2318,W,9.68,93.57,160721,,,A*4B
$GPGGA,194350.500,4308.4449,N,07726.2310,W,1,06,1.39,164.3,M,-34.4,M,,*54
$GPRMC,194350.750,A,4308.4448,N,07726.2304,W,9.04,93.84,160721,,,A*4E
$GPGGA,194351.000,4308.4448,N,07726.2296,W,1,06,1.39,164.2,M,-34.4,M,,*5F
$GPRMC,194351.250,A,4308.4448,N,07726.2288,W,8.66,94.11,160721,,,A*41
$GPGGA,194351.500,4308.4447,N,07726.2280,W,1,06,1.39,164.2,M,-34.4,M,,*52
$GPRMC,194351.750,A,4308.4446,N,07726.2273,W,8.28,95.48,160721,,,A*49
$GPGGA,194352.000,4308.4445,N,07726.2266,W,1,06,2.18,164.2,M,-34.4,M,,*5E
$GPRMC,194352.250,A,4308.4444,N,07726.2259,W,7.88,95.91,160721,,,A*44
$GPGGA,194352.500,4308.4443,N,07726.2253,W,1,06,1.39,164.1,M,-34.4,M,,*58
$GPRMC,194352.750,A,4308.4442,N,07726.2248,W,7.35,94.93,160721,,,A*42
$GPGGA,194353.000,4308.4441,N,07726.2243,W,1,06,1.39,164.1,M,-34.4,M,,*5F
$GPRMC,194353.250,A,4308.4440,N,07726.2238,W,6.79,94.72,160721,,,A*45
$GPGGA,194353.500,4308.4440,N,07726.2234,W,1,06,1.39,164.1,M,-34.4,M,,*5B
$GPRMC,194353.750,A,4308.4439,N,07726.2229,W,6.05,94.14,160721,,,A*45
$GPGGA,194354.000,4308.4439,N,07726.2224,W,1,06,1.39,164.1,M,-34.4,M,,*56
$GPRMC,194354.250,A,4308.4439,N,07726.2220,W,5.42,92.01,160721,,,A*4C
$GPGGA,194354.500,4308.4438,N,07726.2217,W,1,06,1.39,164.2,M,-34.4,M,,*51
$GPRMC,194354.750,A,4308.4438,N,07726.2213,W,4.79,89.63,160721,,,A*4F
$GPGGA,194355.000,4308.4438,N,07726.2210,W,1,06,1.39,164.2,M,-34.4,M,,*52
$GPRMC,194355.250,A,4308.4437,N,07726.2206,W,4.42,90.31,160721,,,A*47
$GPGGA,194355.500,4308.4437,N,07726.2203,W,1,06,1.39,164.1,M,-34.4,M,,*59
$GPRMC,194355.750,A,4308.4437,N,07726.2200,W,3.74,89.61,160721,,,A*4B
$GPGGA,194356.000,4308.4436,N,07726.2197,W,1,06,1.39,164.1,M,-34.4,M,,*50
$GPRMC,194356.250,A,4308.4436,N,07726.2195,W,2.97,92.78,160721,,,A*4D
$GPGGA,194356.500,4308.4435,N,07726.2193,W,1,06,1.39,163.9,M,-34.4,M,,*5D
$GPRMC,194356.750,A,4308.4435,N,07726.2191,W,2.21,92.78,160721,,,A*42
$GPGGA,194357.000,4308.4436,N,07726.2191,W,1,06,1.39,163.8,M,-34.4,M,,*59
$GPRMC,194357.250,A,4308.4436,N,07726.2191,W,1.54,92.78,160721,,,A*44
$GPGGA,194357.500,4308.4436,N,07726.2191,W,1,06,1.39,163.7,M,-34.4,M,,*53
$GPRMC,194357.750,A,4308.4436,N,07726.2192,W,1.10,92.78,160721,,,A*42
$GPGGA,194358.000,4308.4435,N,07726.2192,W,1,06,1.39,163.6,M,-34.4,M,,*58
$GPRMC,194358.250,A,4308.4435,N,07726.2192,W,1.05,92.78,160721,,,A*4F
$GPGGA,194358.500,4308.4434,N,07726.2191,W,1,06,1.39,163.6,M,-34.4,M,,*5F
$GPRMC,194358.750,A,4308.4434,N,07726.2190,W,1.09,92.78,160721,,,A*45
$GPGGA,194359.000,4308.4434,N,07726.2188,W,1,06,1.39,163.5,M,-34.4,M,,*50
$GPRMC,194359.250,A,4308.4434,N,07726.2186,W,1.38,92.78,160721,,,A*44
$GPGGA,194359.500,4308.4434,N,07726.2185,W,1,06,1.39,163.5,M,-34.4,M,,*58
$GPRMC,194359.750,A,4308.4434,N,07726.2184,W,1.49,92.78,160721,,,A*45
$GPGGA,194400.000,4308.4434,N,07726.2182,W,1,06,1.39,163.5,M,-34.4,M,,*51
$GPRMC,194400.250,A,4308.4435,N,07726.2180,W,1.76,92.78,160721,,,A*42
$GPGGA,194400.500,4308.4435,N,07726.2178,W,1,06,1.39,163.5,M,-34.4,M,,*50
$GPRMC,194400.750,A,4308.4435,N,07726.2176,W,2.09,92.78,160721,,,A*45
$GPGGA,194401.000,4308.4436,N,07726.2173,W,1,06,1.39,163.4,M,-34.4,M,,*5D
$GPRMC,194401.250,A,4308.4439,N,07726.2167,W,3.00,60.97,160721,,,A*49
$GPGGA,194401.500,4308.4442,N,07726.2162,W,1,06,1.39,163.4,M,-34.4,M,,*5B
$GPRMC,194401.750,A,4308.4447,N,07726.2156,W,5.67,41.77,160721,,,A*4D
$GPGGA,194402.000,4308.4450,N,07726.2152,W,1,06,1.39,163.4,M,-34.4,M,,*5D
$GPRMC,194402.250,A,4308.4454,N,07726.2149,W,7.04,34.48,160721,,,A*4E
$GPGGA,194402.500,4308.4459,N,07726.2145,W,1,06,1.39,163.3,M,-34.4,M,,*50
$GPRMC,194402.750,A,4308.4465,N,07726.2142,W,8.75,24.72,160721,,,A*43
$GPGGA,194403.000,4308.4471,N,07726.2139,W,1,06,2.18,163.2,M,-34.4,M,,*54
$GPRMC,194403.250,A,4308.4478,N,07726.2136,W,9.91,18.45,160721,,,A*48
$GPGGA,194403.500,4308.4486,N,07726.2132,W,1,06,2.18,163.2,M,-34.4,M,,*52
$GPRMC,194403.750,A,4308.4496,N,07726.2128,W,11.43,11.46,160721,,,A*7E
$GPGGA,194404.000,4308.4504,N,07726.2124,W,1,06,2.18,163.0,M,-34.4,M,,*5E
$GPRMC,194404.250,A,4308.4514,N,07726.2121,W,12.23,6.61,160721,,,A*48
$GPGGA,194404.500,4308.4524,N,07726.2119,W,1,06,2.18,162.8,M,-34.4,M,,*5E
$GPRMC,194404.750,A,4308.4534,N,07726.2116,W,13.52,3.02,160721,,,A*4C
$GPGGA,194405.000,4308.4544,N,07726.2114,W,1,06,2.18,162.6,M,-34.4,M,,*5F
$GPRMC,194405.250,A,4308.4554,N,07726.2112,W,14.14,2.39,160721,,,A*46
$GPGGA,194405.500,4308.4565,N,07726.2109,W,1,06,2.18,162.5,M,-34.4,M,,*56
$GPRMC,194405.750,A,4308.4576,N,07726.2106,W,14.99,2.84,160721,,,A*45
$GPGGA,194406.000,4308.4588,N,07726.2103,W,1,06,2.18,162.3,M,-34.4,M,,*5F
$GPRMC,194406.250,A,4308.4600,N,07726.2101,W,15.82,4.00,160721,,,A*47
$GPGGA,194406.500,4308.4612,N,07726.2098,W,1,06,2.18,162.2,M,-34.4,M,,*58
$GPRMC,194406.750,A,4308.4624,N,07726.2096,W,16.58,5.05,160721,,,A*4B
$GPGGA,194407.000,4308.4637,N,07726.2092,W,1,06,2.18,162.0,M,-34.4,M,,*53
$GPRMC,194407.250,A,4308.4649,N,07726.2090,W,16.82,5.71,160721,,,A*46
$GPGGA,194407.500,4308.4661,N,07726.2088,W,1,06,2.18,161.9,M,-34.4,M,,*54
$GPRMC,194407.750,A,4308.4673,N,07726.2085,W,16.85,5.47,160721,,,A*4C
$GPGGA,194408.000,4308.4685,N,07726.2083,W,1,06,2.18,161.7,M,-34.4,M,,*51
$GPRMC,194408.250,A,4308.4697,N,07726.2080,W,16.77,5.99,160721,,,A*47
$GPGGA,194408.500,4308.4709,N,07726.2078,W,1,06,2.18,161.5,M,-34.4,M,,*57
$GPRMC,194408.750,A,4308.4721,N,07726.2074,W,16.57,7.05,160721,,,A*40
$GPGGA,194409.000,4308.4732,N,07726.2071,W,1,06,2.18,161.2,M,-34.4,M,,*55
$GPRMC,194409.250,A,4308.4744,N,07726.2068,W,16.53,7.75,160721,,,A*49
$GPGGA,194409.500,4308.4755,N,07726.2066,W,1,06,2.18,161.1,M,-34.4,M,,*54
$GPRMC,194409.750,A,4308.4766,N,07726.2063,W,16.01,8.55,160721,,,A*4D
$GPGGA,194410.000,4308.4776,N,07726.2060,W,1,06,2.18,160.8,M,-34.4,M,,*56
$GPRMC,194410.250,A,4308.4786,N,07726.2057,W,15.06,9.42,160721,,,A*4A
$GPGGA,194410.500,4308.4796,N,07726.2054,W,1,06,2.18,160.6,M,-34.4,M,,*54
$GPRMC,194410.750,A,4308.4805,N,07726.2051,W,13.95,9.50,160721,,,A*42
$GPGGA,194411.000,4308.4815,N,07726.2048,W,1,06,2.18,160.3,M,-34.4,M,,*5C
$GPRMC,194411.250,A,4308.4824,N,07726.2043,W,13.24,10.97,160721,,,A*7F
$GPGGA,194411.500,4308.4833,N,07726.2033,W,1,06,2.18,160.1,M,-34.4,M,,*53
$GPRMC,194411.750,A,4308.4840,N,07726.2025,W,12.18,11.73,160721,,,A*7D
$GPGGA,194412.000,4308.4848,N,07726.2017,W,1,06,2.18,159.8,M,-34.4,M,,*5C
$GPRMC,194412.250,A,4308.4855,N,07726.2012,W,10.89,12.59,160721,,,A*7A
$GPGGA,194412.500,4308.4862,N,07726.2007,W,1,06,2.18,159.6,M,-34.4,M,,*5E
$GPRMC,194412.750,A,4308.4868,N,07726.2003,W,9.74,13.34,160721,,,A*41
$GPGGA,194413.000,4308.4874,N,07726.1999,W,1,06,2.18,159.4,M,-34.4,M,,*52
$GPRMC,194413.250,A,4308.4880,N,07726.1996,W,8.84,13.17,160721,,,A*4A
$GPGGA,194413.500,4308.4885,N,07726.1995,W,1,06,2.18,159.3,M,-34.4,M,,*52
$GPRMC,194413.750,A,4308.4890,N,07726.1992,W,7.62,8.85,160721,,,A*7C
$GPGGA,194414.000,4308.4894,N,07726.1991,W,1,06,2.18,159.0,M,-34.4,M,,*57
$GPRMC,194414.250,A,4308.4899,N,07726.1989,W,7.21,5.15,160721,,,A*7E
$GPGGA,194414.500,4308.4903,N,07726.1989,W,1,06,2.18,158.9,M,-34.4,M,,*5C
$GPRMC,194414.750,A,4308.4907,N,07726.1990,W,6.62,354.42,160721,,,A*76
$GPGGA,194415.000,4308.4911,N,07726.1991,W,1,06,2.18,158.7,M,-34.4,M,,*5C
$GPRMC,194415.250,A,4308.4915,N,07726.1993,W,6.50,344.61,160721,,,A*73
$GPGGA,194415.500,4308.4918,N,07726.1997,W,1,06,1.39,158.5,M,-34.4,M,,*54
$GPRMC,194415.750,A,4308.4921,N,07726.2001,W,6.75,330.24,160721,,,A*75
$GPGGA,194416.000,4308.4924,N,07726.2005,W,1,06,1.39,158.4,M,-34.4,M,,*5D
$GPRMC,194416.250,A,4308.4928,N,07726.2010,W,7.16,321.83,160721,,,A*73
$GPGGA,194416.500,4308.4931,N,07726.2016,W,1,06,1.39,158.3,M,-34.4,M,,*59
$GPRMC,194416.750,A,4308.4934,N,07726.2023,W,8.42,313.12,160721,,,A*7C
$GPGGA,194417.000,4308.4937,N,07726.2030,W,1,06,1.39,158.2,M,-34.4,M,,*5E
$GPRMC,194417.250,A,4308.4940,N,07726.2037,W,8.91,307.77,160721,,,A*76
$GPGGA,194417.500,4308.4942,N,07726.2045,W,1,06,1.39,158.1,M,-34.4,M,,*58
$GPRMC,194417.750,A,4308.4943,N,07726.2054,W,9.08,296.45,160721,,,A*7C
$GPGGA,194418.000,4308.4943,N,07726.2063,W,1,06,2.18,157.9,M,-34.4,M,,*50
$GPRMC,194418.250,A,4308.4944,N,07726.2072,W,9.04,288.14,160721,,,A*72
$GPGGA,194418.500,4308.4944,N,07726.2082,W,1,06,1.39,157.7,M,-34.4,M,,*53
$GPRMC,194418.750,A,4308.4944,N,07726.2092,W,9.03,280.31,160721,,,A*71
$GPGGA,194419.000,4308.4945,N,07726.2101,W,1,06,1.39,157.5,M,-34.4,M,,*5E
$GPRMC,194419.250,A,4308.4942,N,07726.2112,W,8.97,277.11,160721,,,A*7C
$GPGGA,194419.500,4308.4940,N,07726.2123,W,1,06,1.39,157.3,M,-34.4,M,,*58
$GPRMC,194419.750,A,4308.4939,N,07726.2131,W,8.48,276.54,160721,,,A*76
$GPGGA,194420.000,4308.4939,N,07726.2140,W,1,06,2.19,157.1,M,-34.4,M,,*5F
$GPRMC,194420.250,A,4308.4939,N,07726.2149,W,8.19,275.80,160721,,,A*78
$GPGGA,194420.500,4308.4939,N,07726.2156,W,1,06,1.39,157.0,M,-34.4,M,,*5D
$GPRMC,194420.750,A,4308.4940,N,07726.2164,W,7.92,277.30,160721,,,A*79
$GPGGA,194421.000,4308.4940,N,07726.2173,W,1,06,1.39,156.9,M,-34.4,M,,*58
$GPRMC,194421.250,A,4308.4942,N,07726.2180,W,7.92,277.28,160721,,,A*7C
$GPGGA,194421.500,4308.4944,N,07726.2188,W,1,06,1.39,156.7,M,-34.4,M,,*53
$GPRMC,194421.750,A,4308.4946,N,07726.2196,W,8.19,279.78,160721,,,A*7D
$GPGGA,194422.000,4308.4948,N,07726.2205,W,1,06,1.39,156.5,M,-34.4,M,,*5D
$GPRMC,194422.250,A,4308.4950,N,07726.2213,W,8.57,282.95,160721,,,A*7F
$GPGGA,194422.500,4308.4953,N,07726.2222,W,1,06,1.39,156.4,M,-34.4,M,,*56
$GPRMC,194422.750,A,4308.4955,N,07726.2231,W,9.36,284.53,160721,,,A*75
$GPGGA,194423.000,4308.4958,N,07726.2240,W,1,06,1.39,156.2,M,-34.4,M,,*5B
$GPRMC,194423.250,A,4308.4960,N,07726.2249,W,9.98,286.23,160721,,,A*79
$GPGGA,194423.500,4308.4963,N,07726.2259,W,1,06,1.39,156.1,M,-34.4,M,,*5D
$GPRMC,194423.750,A,4308.4965,N,07726.2270,W,11.14,287.38,160721,,,A*45
$GPGGA,194424.000,4308.4968,N,07726.2281,W,1,06,1.39,156.0,M,-34.4,M,,*50
$GPRMC,194424.250,A,4308.4970,N,07726.2291,W,11.64,287.36,160721,,,A*45
$GPGGA,194424.500,4308.4973,N,07726.2303,W,1,06,1.39,155.9,M,-34.4,M,,*5E
$GPRMC,194424.750,A,4308.4975,N,07726.2315,W,12.64,285.35,160721,,,A*4A
$GPGGA,194425.000,4308.4978,N,07726.2327,W,1,06,1.39,155.8,M,-34.4,M,,*56
$GPRMC,194425.250,A,4308.4980,N,07726.2339,W,12.99,284.36,160721,,,A*4A
$GPGGA,194425.500,4308.4982,N,07726.2350,W,1,06,1.39,155.7,M,-34.4,M,,*59
$GPRMC,194425.750,A,4308.4985,N,07726.2362,W,12.93,285.08,160721,,,A*42
$GPGGA,194426.000,4308.4987,N,07726.2373,W,1,06,1.39,155.6,M,-34.4,M,,*5A
$GPRMC,194426.250,A,4308.4990,N,07726.2385,W,12.56,286.97,160721,,,A*45
