Vers 81
USE_SERIAL_FEEDBACK=true
DEVELOPMENT_MODE=false
USE_RMC_ONLY=false

$GPRMC,143234.250,A,3554.7745,N,08403.5697,W,0.25,316.57,280721,,,A*73
$GPGGA,143234.500,3554.7743,N,08403.5698,W,1,03,4.63,182.1,M,-32.1,M,,*50
$GPRMC,143234.750,A,3554.7739,N,08403.5699,W,0.14,229.56,280721,,,A*7D
$GPGGA,143235.000,3554.7734,N,08403.5698,W,1,03,4.63,182.1,M,-32.1,M,,*54
$GPRMC,143235.250,A,3554.7731,N,08403.5698,W,0.18,213.31,280721,,,A*74
$GPGGA,143235.500,3554.7730,N,08403.5699,W,1,03,4.63,182.1,M,-32.1,M,,*54
$GPRMC,143235.750,A,3554.7728,N,08403.5700,W,0.28,256.82,280721,,,A*73
$GPGGA,143236.000,3554.7727,N,08403.5700,W,1,03,4.63,182.1,M,-32.1,M,,*55
$GPRMC,143236.250,A,3554.7725,N,08403.5699,W,0.34,273.27,280721,,,A*7C
$GPGGA,143236.500,3554.7723,N,08403.5699,W,1,03,4.63,182.1,M,-32.1,M,,*55
$GPRMC,143236.750,A,3554.7722,N,08403.5699,W,0.54,284.41,280721,,,A*70
$GPGGA,143237.000,3554.7720,N,08403.5699,W,1,03,4.63,182.1,M,-32.1,M,,*52
$GPRMC,143237.250,A,3554.7719,N,08403.5698,W,0.54,287.04,280721,,,A*7F
$GPGGA,143237.500,3554.7717,N,08403.5697,W,1,03,4.64,182.1,M,-32.1,M,,*5A
$GPRMC,143237.750,A,3554.7716,N,08403.5697,W,0.49,279.18,280721,,,A*7A
$GPGGA,143238.000,3554.7716,N,08403.5698,W,1,03,4.64,182.1,M,-32.1,M,,*5E
$GPGGA,143238.500,3554.7716,N,08403.5699,W,6,02,99.99,182.1,M,-32.1,M,,*6A
$GPRMC,143238.500,V,,,,,0.48,279.41,280721,,,E*47
$GPGGA,143238.750,3554.7716,N,08403.5700,W,6,02,99.99,182.1,M,-32.1,M,,*6C
$GPRMC,143238.750,V,,,,,0.48,277.74,280721,,,E*48
$GPGGA,143239.000,3554.7716,N,08403.5700,W,1,03,4.63,182.1,M,-32.1,M,,*58
$GPRMC,143239.000,A,3554.7716,N,08403.5700,W,0.49,278.05,280721$GPGGA,143239.250,3554.7716,N,08403.5700,W,1,03,4.64,182.1,M,-32.1,M,,*58
$GPRMC,143239.500,A,3554.7716,N,08403.5700,W,0.52,282.02,280721,,,A*79
$GPGGA,143239.750,3554.7714,N,08403.5699,W,1,03,4.64,182.1,M,-32.1,M,,*5E
$GPRMC,143240.000,A,3554.7713,N,08403.5699,W,0.43,273.81,280721,,,A*73
$GPGGA,143240.250,3554.7713,N,08403.5699,W,1,03,4.64,182.1,M,-32.1,M,,*52
$GPRMC,143240.500,A,3554.7713,N,08403.5699,W,0.41,273.02,280721,,,A*7F
$GPGGA,143240.750,3554.7712,N,08403.5699,W,1,03,4.64,182.1,M,-32.1,M,,*56
$GPRMC,143241.000,A,3554.7712,N,08403.5699,W,0.39,271.95,280721,,,A*79
$GPGGA,143241.250,3554.7712,N,08403.5699,W,1,03,4.64,182.1,M,-32.1,M,,*52
$GPRMC,143241.500,A,3554.7711,N,08403.5699,W,0.37,271.94,280721,,,A*70
$GPGGA,143241.750,3554.7711,N,08403.5698,W,1,03,4.64,182.1,M,-32.1,M,,*55
$GPRMC,143242.000,A,3554.7710,N,08403.5698,W,0.41,283.03,280721,,,A*74
$GPGGA,143242.250,3554.7709,N,08403.5697,W,1,03,4.64,182.1,M,-32.1,M,,*55
$GPRMC,143242.500,A,3554.7708,N,08403.5696,W,0.41,280.34,280721,,,A*71
$GPGGA,143242.750,3554.7708,N,08403.5696,W,1,03,4.64,182.1,M,-32.1,M,,*50
$GPRMC,143243.000,A,3554.7707,N,08403.5695,W,0.36,277.07,280721,,,A*71
$GPGGA,143243.250,3554.7704,N,08403.5691,W,1,03,4.64,182.1,M,-32.1,M,,*5F
$GPRMC,143243.500,A,3554.7702,N,08403.5687,W,0.14,251.32,280721,,,A*70
$GPGGA,143243.750,3554.7700,N,08403.5683,W,1,03,4.64,182.1,M,-32.1,M,,*5D
$GPRMC,143244.000,A,3554.7698,N,08403.5681,W,0.13,167.84,280721,,,A*7A
$GPGGA,143244.087,3554.7696,N,08403.5678,W,1,03,4.64,182.1,M,-31,M,,*5D
$GPGGA,143244.500,3554.7692,N,08403.5673,W,1,03,4.64,182.1,M,-32.1,M,,*58
$GPRMC,143244.500,A,3554.7692,N,08403.5673,W,0.18,141.89,280721,,A*7A
$GPGGA,143244.750,3554.7690,N,08403.5671,W,1,03,4.64,182.1,M,-32.1,M,,*5F
$GPRMC,143244.750,A,3554.7690,N,08403.5671,W,0.20,132.73,280721,,,A*77
$GPGGA,143245.000,3554.7688,N,08403.5668,W,1,03,4.64,182.1,M,-32.1,M,,*5D
$GPRMC,143245.000,A,3554.7688,N,08403.5668,W,0.23,125.30,2807217
$GPGGA,143245.250,3554.7687,N,08403.5666,W,1,03,4.64,182.1,M,-32.1,M,,*5B
$GPRMC,143245.250,A,3554.7687,N,08403.5666,W,0.21,111.40,280721$GPGGA,143245.500,3554.7687,N,08403.5664,W,1,03,4.64,182.1,M,-32.1,M,,*5B
$GPRMC,143245.750,A,3554.7686,N,08403.5663,W,0.18,83.23,280721,,,A*47
$GPGGA,143246.000,3554.7686,N,08403.5661,W,1,03,4.64,182.1,M,-32.1,M,,*59
$GPRMC,143246.250,A,3554.7684,N,08403.5658,W,0.25,81.85,280721,,,A*4B
$GPGGA,143246.500,3554.7684,N,08403.5657,W,1,03,4.64,182.1,M,-32.1,M,,*5B
$GPRMC,143246.750,A,3554.7683,N,08403.5656,W,0.22,70.93,280721,,,A*49
$GPGGA,143247.000,3554.7682,N,08403.5654,W,1,03,4.64,182.1,M,-32.1,M,,*5A
$GPRMC,143247.250,A,3554.7680,N,08403.5653,W,0.20,75.06,280721,,,A*40
$GPGGA,143247.500,3554.7680,N,08403.5652,W,1,03,4.64,182.1,M,-32.1,M,,*5B
$GPRMC,143247.750,A,3554.7680,N,08403.5650,W,0.20,64.15,280721,,,A*44
$GPGGA,143248.000,3554.7679,N,08403.5649,W,1,03,4.64,182.1,M,-32.1,M,,*5D
$GPRMC,143248.250,A,3554.7679,N,08403.5649,W,0.14,27.86,280721,,,A*4A
$GPGGA,143248.500,3554.7678,N,08403.5649,W,1,03,4.64,182.1,M,-32.1,M,,*59
$GPRMC,143248.750,A,3554.7678,N,08403.5648,W,0.17,355.76,280721,,,A*75
$GPGGA,143249.000,3554.7677,N,08403.5647,W,1,03,30.68,182.1,M,-32.1,M,,*67
$GPRMC,143249.250,A,3554.7677,N,08403.5647,W,0.23,345.88,280721,,,A*76
$GPGGA,143249.500,3554.7676,N,08403.5646,W,1,03,30.68,182.1,M,-32.1,M,,*62
$GPRMC,143249.750,A,3554.7676,N,08403.5645,W,0.22,358.29,280721,,,A*76
$GPGGA,143250.000,3554.7675,N,08403.5644,W,1,03,30.69,182.0,M,-32.1,M,,*6E
$GPGGA,143250.500,3554.7674,N,08403.5644,W,1,03,4.64,182.0,M,-32.1,M,,*50
$GPRMC,143250.500,A,3554.7674,N,08403.5644,W,0.18,333.08,280721$GPGGA,143250.750,3554.7674,N,08403.5643,W,1,03,4.64,182.0,M,-32.1,M,,*50
$GPRMC,143251.000,A,3554.7674,N,08403.5642,W,0.16,353.86,280721,,,A*71
$GPGGA,143251.250,3554.7673,N,08403.5643,W,1,03,30.70,182.0,M,-32.1,M,,*61
$GPRMC,143251.500,A,3554.7673,N,08403.5642,W,0.20,325.24,280721,,,A*7F
$GPGGA,143251.750,3554.7673,N,08403.5642,W,1,03,4.64,182.0,M,-32.1,M,,*57
$GPRMC,143252.000,A,3554.7672,N,08403.5641,W,0.17,331.84,280721,,,A*70
$GPGGA,143252.250,3554.7672,N,08403.5641,W,1,03,4.64,182.0,M,-32.1,M,,*53
$GPRMC,143252.500,A,3554.7672,N,08403.5641,W,0.17,317.84,280721,,,A*71
$GPGGA,143252.750,3554.7672,N,08403.5641,W,1,03,4.65,182.0,M,-32.1,M,,*57
$GPRMC,143253.000,A,3554.7672,N,08403.5641,W,0.12,344.63,280721,,,A*7F
$GPGGA,143253.250,3554.7671,N,08403.5640,W,1,03,4.65,182.0,M,-32.1,M,,*51
$GPRMC,143253.500,A,3554.7671,N,08403.5639,W,0.12,27.19,280721,,,A*4D
$GPGGA,143253.750,3554.7671,N,08403.5640,W,1,03,4.64,182.0,M,-32.1,M,,*55
$GPRMC,143254.000,A,3554.7670,N,08403.5640,W,0.12,3.09,280721,,,A*77
$GPGGA,143254.250,3554.7668,N,08403.5640,W,1,03,30.73,182.0,M,-32.1,M,,*6E
$GPRMC,143254.500,A,3554.7666,N,08403.5640,W,0.07,155.39,280721,,,A*70
$GPGGA,143254.750,3554.7666,N,08403.5639,W,1,03,4.65,182.0,M,-32.1,M,,*5B
$GPRMC,143255.000,A,3554.7666,N,08403.5639,W,0.14,113.89,280721,,,A*71
$GPGGA,143255.250,3554.7667,N,08403.5640,W,1,03,4.65,182.0,M,-32.1,M,,*50
$GPRMC,143255.500,A,3554.7667,N,08403.5640,W,0.12,81.39,280721,,,A*4C
$GPGGA,143255.750,3554.7667,N,08403.5640,W,1,03,4.65,182.0,M,-32.1,M,,*55
$GPRMC,143256.000,A,3554.7666,N,08403.5640,W,0.17,99.79,280721,,,A*43
$GPGGA,143256.080,3554.7666,N,08403.5641,W,1,03,4.65,182.0,M,-31,M,,*5C
$GPGGA,143256.500,3554.7658,N,08403.5642,W,1,04,1.96,181.0,M,-32.1,M,,*52
$GPRMC,143256.500,A,3554.7658,N,08403.5642,W,0.08,77.95,280721,,A*45
$GPGGA,143256.750,3554.7654,N,08403.5641,W,1,04,1.96,180.9,M,-32.1,M,,*52
$GPRMC,143256.750,A,3554.7654,N,08403.5641,W,0.11,104.48,280721,,A*70
$GPGGA,143257.000,3554.7650,N,08403.5641,W,1,04,1.96,180.9,M,-32.1,M,,*55
$GPRMC,143257.000,A,3554.7650,N,08403.5641,W,0.14,122.19,280721,,A*72
$GPGGA,143257.250,3554.7647,N,08403.5641,W,1,04,1.96,180.9,M,-32.1,M,,*54
$GPRMC,143257.250,A,3554.7647,N,08403.5641,W,0.13,143.82,280721,,A*71
$GPGGA,143257.500,3554.7645,N,08403.5641,W,1,04,1.96,180.9,M,-32.1,M,,*54
$GPRMC,143257.500,A,3554.7645,N,08403.5641,W,0.13,170.34,280721,,A*7C
$GPGGA,143257.750,3554.7640,N,08403.5641,W,1,04,1.96,180.9,M,-32.1,M,,*56
$GPRMC,143257.750,A,3554.7640,N,08403.5641,W,0.23,182.87,280721,,A*78
$GPGGA,143258.000,3554.7637,N,08403.5641,W,1,04,1.96,180.8,M,-32.1,M,,*5A
$GPRMC,143258.000,A,3554.7637,N,08403.5641,W,0.27,192.21,280721,,A*7C
$GPGGA,143258.250,3554.7635,N,08403.5641,W,1,04,1.96,180.8,M,-32.1,M,,*5F
$GPRMC,143258.250,A,3554.7635,N,08403.5641,W,0.28,193.35,280721,,A*72
$GPGGA,143258.500,3554.7634,N,08403.5641,W,1,04,1.96,180.8,M,-32.1,M,,*5C
$GPRMC,143258.500,A,3554.7634,N,08403.5641,W,0.19,209.63,280721,,,A*70
$GPGGA,143258.750,3554.7632,N,08403.5640,W,1,04,1.96,180.8,M,-32.1,M,,*5C
$GPRMC,143258.750,A,3554.7632,N,08403.5640,W,0.13,192.69,280721$GPGGA,143259.000,3554.7631,N,08403.5640,W,1,04,1.96,180.8,M,-32.1,M,,*5C
$GPRMC,143259.250,A,3554.7630,N,08403.5640,W,0.20,172.75,280721,,,A*74
$GPGGA,143259.500,3554.7629,N,08403.5639,W,1,04,1.96,180.7,M,-32.1,M,,*51
$GPRMC,143259.750,A,3554.7629,N,08403.5639,W,0.22,155.74,280721,,,A*71
$GPGGA,143300.000,3554.7628,N,08403.5639,W,1,04,1.96,180.7,M,-32.1,M,,*58
$GPRMC,143300.250,A,3554.7627,N,08403.5638,W,0.19,144.32,280721,,,A*7C
$GPGGA,143300.500,3554.7627,N,08403.5639,W,1,04,1.96,180.7,M,-32.1,M,,*52
$GPRMC,143300.750,A,3554.7626,N,08403.5639,W,0.09,158.00,280721,,,A*74
$GPGGA,143301.000,3554.7625,N,08403.5639,W,1,04,1.96,180.7,M,-32.1,M,,*54
$GPRMC,143301.250,A,3554.7625,N,08403.5639,W,0.10,159.96,280721,,,A*75
$GPGGA,143301.500,3554.7625,N,08403.5639,W,1,04,1.96,180.6,M,-32.1,M,,*50
$GPRMC,143301.750,A,3554.7626,N,08403.5639,W,0.10,135.13,280721,,,A*74
$GPGGA,143302.000,3554.7626,N,08403.5640,W,1,04,1.96,180.6,M,-32.1,M,,*5B
$GPRMC,143302.250,A,3554.7626,N,08403.5640,W,0.11,158.80,280721,,,A*7C
$GPGGA,143302.500,3554.7626,N,08403.5641,W,1,04,1.96,180.6,M,-32.1,M,,*5F
$GPRMC,143302.750,A,3554.7626,N,08403.5642,W,0.11,196.40,280721,,,A*75
$GPGGA,143303.000,3554.7627,N,08403.5643,W,1,04,1.96,180.6,M,-32.1,M,,*58
$GPRMC,143303.250,A,3554.7627,N,08403.5643,W,0.11,232.76,280721,,,A*79
$GPGGA,143303.500,3554.7627,N,08403.5645,W,1,04,1.96,180.6,M,-32.1,M,,*5B
$GPRMC,143303.750,A,3554.7628,N,08403.5645,W,0.14,245.20,280721,,,A*73
$GPGGA,143304.000,3554.7628,N,08403.5645,W,1,04,1.96,180.6,M,-32.1,M,,*56
$GPRMC,143304.250,A,3554.7629,N,08403.5645,W,0.09,244.89,280721,,,A*7E
$GPGGA,143304.500,3554.7629,N,08403.5645,W,1,04,1.96,180.6,M,-32.1,M,,*52
$GPRMC,143304.750,A,3554.7628,N,08403.5645,W,0.14,205.16,280721,,,A*75
$GPGGA,143305.000,3554.7628,N,08403.5645,W,1,04,1.96,180.6,M,-32.1,M,,*57
$GPRMC,143305.250,A,3554.7629,N,08403.5645,W,0.12,233.30,280721,,,A*77
$GPGGA,143305.500,3554.7630,N,08403.5645,W,1,04,1.96,180.6,M,-32.1,M,,*5B
$GPRMC,143305.750,A,3554.7630,N,08403.5645,W,0.09,278.94,280721,,,A*71
$GPGGA,143306.000,3554.7630,N,08403.5645,W,1,04,1.96,180.6,M,-32.1,M,,*5D
$GPRMC,143306.250,A,3554.7630,N,08403.5645,W,0.12,323.72,280721,,,A*7A
$GPGGA,143306.500,3554.7630,N,08403.5645,W,1,04,1.96,180.6,M,-32.1,M,,*58
$GPRMC,143306.750,A,3554.7630,N,08403.5645,W,0.15,294.57,280721,,,A*72
$GPGGA,143307.000,3554.7630,N,08403.5646,W,1,04,1.96,180.6,M,-32.1,M,,*5F
$GPRMC,143307.250,A,3554.7630,N,08403.5646,W,0.14,312.87,280721,,,A*76
$GPGGA,143307.500,3554.7630,N,08403.5646,W,1,04,1.96,180.5,M,-32.1,M,,*59
$GPRMC,143307.750,A,3554.7630,N,08403.5646,W,0.21,345.25,280721,,,A*7F
$GPGGA,143308.000,3554.7630,N,08403.5646,W,1,04,19.46,180.5,M,-32.1,M,,*67
$GPRMC,143308.250,A,3554.7630,N,08403.5646,W,0.13,343.39,280721,,,A*7F
$GPGGA,143308.500,3554.7630,N,08403.5646,W,1,04,1.96,180.5,M,-32.1,M,,*56
$GPRMC,143308.750,A,3554.7630,N,08403.5646,W,0.15,314.13,280721,,,A*76
$GPGGA,143309.000,3554.7631,N,08403.5646,W,1,04,1.96,180.5,M,-32.1,M,,*53
$GPRMC,143309.250,A,3554.7631,N,08403.5646,W,0.24,309.67,280721,,,A*7E
$GPGGA,143309.500,3554.7631,N,08403.5646,W,1,04,1.96,180.5,M,-32.1,M,,*56
$GPRMC,143309.750,A,3554.7631,N,08403.5647,W,0.27,309.34,280721,,,A*7F
$GPGGA,143310.000,3554.7631,N,08403.5647,W,1,04,1.96,180.5,M,-32.1,M,,*5A
$GPRMC,143310.250,A,3554.7631,N,08403.5647,W,0.23,299.99,280721,,,A*79
$GPGGA,143310.500,3554.7631,N,08403.5647,W,1,04,1.96,180.5,M,-32.1,M,,*5F
$GPRMC,143310.750,A,3554.7631,N,08403.5647,W,0.24,300.42,280721,,,A*7C
$GPGGA,143311.000,3554.7631,N,08403.5647,W,1,04,1.96,180.5,M,-32.1,M,,*5B
$GPRMC,143311.250,A,3554.7632,N,08403.5648,W,0.23,309.81,280721,,,A*75
$GPGGA,143311.500,3554.7632,N,08403.5648,W,1,04,1.96,180.5,M,-32.1,M,,*52
$GPRMC,143311.750,A,3554.7632,N,08403.5648,W,0.23,300.84,280721,,,A*7C
$GPGGA,143312.000,3554.7632,N,08403.5648,W,1,04,1.96,180.5,M,-32.1,M,,*54
$GPRMC,143312.250,A,3554.7632,N,08403.5648,W,0.21,291.97,280721,,,A*73
$GPGGA,143312.500,3554.7632,N,08403.5648,W,1,04,1.96,180.5,M,-32.1,M,,*51
$GPRMC,143312.750,A,3554.7632,N,08403.5649,W,0.28,310.46,280721,,,A*7A
$GPGGA,143313.000,3554.7632,N,08403.5649,W,1,04,1.96,180.5,M,-32.1,M,,*54
$GPRMC,143313.250,A,3554.7632,N,08403.5649,W,0.29,322.04,280721,,,A*78
$GPGGA,143313.500,3554.7632,N,08403.5649,W,1,04,1.96,180.5,M,-32.1,M,,*51
$GPRMC,143313.750,A,3554.7633,N,08403.5649,W,0.19,300.11,280721,,,A*7B
$GPGGA,143314.000,3554.7633,N,08403.5649,W,1,04,1.96,180.5,M,-32.1,M,,*52
$GPRMC,143314.250,A,3554.7633,N,08403.5650,W,0.21,282.06,280721,,,A*77
$GPGGA,143314.500,3554.7633,N,08403.5650,W,1,04,1.96,180.5,M,-32.1,M,,*5F
$GPRMC,143314.750,A,3554.7633,N,08403.5650,W,0.18,281.52,280721,,,A*7A
$GPGGA,143315.000,3554.7633,N,08403.5650,W,1,04,1.96,180.5,M,-32.1,M,,*5B
$GPRMC,143315.250,A,3554.7633,N,08403.5650,W,0.18,285.03,280721,,,A*7E
$GPGGA,143315.500,3554.7633,N,08403.5650,W,1,04,1.96,180.5,M,-32.1,M,,*5E
$GPRMC,143315.750,A,3554.7633,N,08403.5650,W,0.11,271.35,280721,,,A*7C
$GPGGA,143316.000,3554.7633,N,08403.5650,W,1,04,1.96,180.5,M,-32.1,M,,*58
$GPRMC,143316.250,A,3554.7633,N,08403.5650,W,0.09,312.68,280721,,,A*7F
$GPGGA,143316.500,3554.7633,N,08403.5651,W,1,04,1.96,180.5,M,-32.1,M,,*5C
$GPRMC,143316.750,A,3554.7633,N,08403.5651,W,0.08,300.90,280721,,,A*7E
$GPGGA,143317.000,3554.7633,N,08403.5651,W,1,04,1.96,180.5,M,-32.1,M,,*58
$GPRMC,143317.250,A,3554.7633,N,08403.5651,W,0.03,220.50,280721,,,A*7E
$GPGGA,143317.500,3554.7633,N,08403.5651,W,1,04,1.96,180.5,M,-32.1,M,,*5D
$GPRMC,143317.750,A,3554.7633,N,08403.5651,W,0.09,337.72,280721,,,A*76
$GPGGA,143318.000,3554.7633,N,08403.5651,W,1,04,1.96,180.5,M,-32.1,M,,*57
$GPRMC,143318.250,A,3554.7633,N,08403.5651,W,0.02,309.71,280721,,,A*79
$GPGGA,143318.500,3554.7633,N,08403.5651,W,1,04,1.96,180.5,M,-32.1,M,,*52
$GPRMC,143318.750,A,3554.7633,N,08403.5651,W,0.04,235.52,280721,,,A*75
$GPGGA,143319.000,3554.7633,N,08403.5651,W,1,04,1.96,180.5,M,-32.1,M,,*56
$GPRMC,143319.250,A,3554.7633,N,08403.5651,W,0.12,211.94,280721,,,A*7A
$GPGGA,143319.500,3554.7633,N,08403.5651,W,1,04,1.96,180.5,M,-32.1,M,,*53
$GPRMC,143319.750,A,3554.7633,N,08403.5651,W,0.16,231.29,280721,,,A*7F
$GPGGA,143320.000,3554.7633,N,08403.5651,W,1,04,1.96,180.5,M,-32.1,M,,*5C
$GPRMC,143320.250,A,3554.7633,N,08403.5651,W,0.15,209.72,280721,,,A*76
$GPGGA,143320.500,3554.7633,N,08403.5651,W,1,04,1.96,180.5,M,-32.1,M,,*59
$GPRMC,143320.750,A,3554.7633,N,08403.5651,W,0.15,208.76,280721,,,A*76
$GPGGA,143321.000,3554.7633,N,08403.5651,W,1,04,1.96,180.5,M,-32.1,M,,*5D
$GPRMC,143321.250,A,3554.7632,N,08403.5651,W,0.20,221.77,280721,,,A*7F
$GPGGA,143321.500,3554.7632,N,08403.5651,W,1,04,1.96,180.5,M,-32.1,M,,*59
$GPRMC,143321.750,A,3554.7632,N,08403.5651,W,0.22,244.94,280721,,,A*76
$GPGGA,143322.000,3554.7632,N,08403.5652,W,1,04,1.96,180.5,M,-32.1,M,,*5C
$GPRMC,143322.250,A,3554.7632,N,08403.5652,W,0.24,242.24,280721,,,A*78
$GPGGA,143322.500,3554.7632,N,08403.5652,W,1,04,1.96,180.5,M,-32.1,M,,*59
$GPRMC,143322.750,A,3554.7632,N,08403.5652,W,0.33,208.23,280721,,,A*72
$GPGGA,143323.000,3554.7632,N,08403.5652,W,1,04,1.96,180.5,M,-32.1,M,,*5D
$GPRMC,143323.250,A,3554.7632,N,08403.5652,W,0.34,205.33,280721,,,A*7D
$GPGGA,143323.500,3554.7631,N,08403.5653,W,1,04,1.96,180.5,M,-32.1,M,,*5A
$GPRMC,143323.750,A,3554.7631,N,08403.5653,W,0.30,205.03,280721,,,A*7D
$GPGGA,143324.000,3554.7631,N,08403.5653,W,1,04,1.96,180.5,M,-32.1,M,,*58
$GPRMC,143324.250,A,3554.7631,N,08403.5653,W,0.23,230.97,280721,,,A*76
$GPGGA,143324.500,3554.7631,N,08403.5653,W,1,04,1.96,180.5,M,-32.1,M,,*5D
$GPRMC,143324.750,A,3554.7631,N,08403.5653,W,0.14,245.79,280721,,,A*75
$GPGGA,143325.000,3554.7631,N,08403.5653,W,1,04,1.96,180.5,M,-32.1,M,,*59
$GPRMC,143325.250,A,3554.7631,N,08403.5653,W,0.19,277.03,280721,,,A*70
$GPGGA,143325.500,3554.7631,N,08403.5653,W,1,04,1.96,180.5,M,-32.1,M,,*5C
$GPRMC,143325.750,A,3554.7631,N,08403.5654,W,0.24,286.45,280721,,,A*70
$GPGGA,143326.000,3554.7631,N,08403.5654,W,1,04,1.96,180.5,M,-32.1,M,,*5D
$GPRMC,143326.250,A,3554.7631,N,08403.5654,W,0.19,275.21,280721,,,A*76
$GPGGA,143326.500,3554.7631,N,08403.5654,W,1,04,1.96,180.5,M,-32.1,M,,*58
$GPRMC,143326.750,A,3554.7631,N,08403.5654,W,0.11,281.50,280721,,,A*76
$GPGGA,143327.000,3554.7631,N,08403.5654,W,1,04,1.96,180.5,M,-32.1,M,,*5C
$GPRMC,143327.250,A,3554.7631,N,08403.5654,W,0.04,317.01,280721,,,A*7C
$GPGGA,143327.500,3554.7631,N,08403.5654,W,1,04,1.96,180.5,M,-32.1,M,,*59
$GPRMC,143327.750,A,3554.7631,N,08403.5654,W,0.15,21.98,280721,,,A*4F
$GPGGA,143328.000,3554.7631,N,08403.5654,W,1,04,1.96,180.5,M,-32.1,M,,*53
$GPRMC,143328.250,A,3554.7631,N,08403.5654,W,0.22,26.21,280721,,,A*44
$GPGGA,143328.500,3554.7631,N,08403.5654,W,1,04,1.96,180.5,M,-32.1,M,,*56
$GPRMC,143328.750,A,3554.7631,N,08403.5654,W,0.20,10.46,280721,,,A*47
$GPGGA,143329.000,3554.7632,N,08403.5654,W,1,04,19.55,180.5,M,-32.1,M,,*67
$GPRMC,143329.250,A,3554.7632,N,08403.5654,W,0.14,356.83,280721,,,A*7F
$GPGGA,143329.500,3554.7632,N,08403.5654,W,1,04,19.56,180.5,M,-32.1,M,,*61
$GPRMC,143329.750,A,3554.7632,N,08403.5654,W,0.15,342.67,280721,,,A*74
$GPGGA,143330.000,3554.7632,N,08403.5654,W,1,04,1.96,180.5,M,-32.1,M,,*59
$GPRMC,143330.250,A,3554.7632,N,08403.5654,W,0.22,341.96,280721,,,A*70
$GPGGA,143330.500,3554.7632,N,08403.5654,W,1,04,1.96,180.5,M,-32.1,M,,*5C
$GPRMC,143330.750,A,3554.7632,N,08403.5654,W,0.12,338.68,280721,,,A*79
$GPGGA,143331.000,3554.7633,N,08403.5654,W,1,04,1.96,180.5,M,-32.1,M,,*59
$GPRMC,143331.250,A,3554.7633,N,08403.5654,W,0.06,13.34,280721,,,A*4A
$GPGGA,143331.500,3554.7633,N,08403.5654,W,1,04,19.57,180.5,M,-32.1,M,,*68
$GPRMC,143331.750,A,3554.7633,N,08403.5654,W,0.25,102.59,280721,,,A*74
$GPGGA,143332.000,3554.7633,N,08403.5654,W,1,04,1.96,180.5,M,-32.1,M,,*5A
$GPRMC,143332.250,A,3554.7633,N,08403.5653,W,0.44,84.65,280721,,,A*42
$GPGGA,143332.500,3554.7633,N,08403.5653,W,1,04,1.96,180.5,M,-32.1,M,,*58
$GPRMC,143332.750,A,3554.7633,N,08403.5652,W,0.50,76.50,280721,,,A*48
$GPGGA,143333.000,3554.7633,N,08403.5652,W,1,04,1.96,180.5,M,-32.1,M,,*5D
$GPRMC,143333.250,A,3554.7633,N,08403.5652,W,0.50,77.09,280721,,,A*41
$GPGGA,143333.500,3554.7633,N,08403.5651,W,1,04,1.96,180.5,M,-32.1,M,,*5B
$GPRMC,143333.750,A,3554.7633,N,08403.5651,W,0.50,87.71,280721,,,A*47
$GPGGA,143334.000,3554.7633,N,08403.5650,W,1,04,1.96,180.5,M,-32.1,M,,*58
$GPRMC,143334.250,A,3554.7633,N,08403.5650,W,0.48,88.13,280721,,,A*46
$GPGGA,143334.500,3554.7633,N,08403.5649,W,1,04,1.96,180.5,M,-32.1,M,,*55
$GPRMC,143334.750,A,3554.7633,N,08403.5649,W,0.49,82.79,280721,,,A*4C
$GPGGA,143335.000,3554.7633,N,08403.5649,W,1,04,1.96,180.5,M,-32.1,M,,*51
$GPRMC,143335.250,A,3554.7633,N,08403.5648,W,0.50,67.37,280721,,,A*40
$GPGGA,143335.500,3554.7633,N,08403.5648,W,1,04,1.96,180.5,M,-32.1,M,,*55
$GPRMC,143335.750,A,3554.7634,N,08403.5647,W,0.49,65.08,280721,,,A*4B
$GPGGA,143336.000,3554.7634,N,08403.5647,W,1,04,1.96,180.5,M,-32.1,M,,*5B
$GPRMC,143336.250,A,3554.7634,N,08403.5647,W,0.53,69.60,280721,,,A*44
$GPGGA,143336.500,3554.7634,N,08403.5646,W,1,04,1.96,180.5,M,-32.1,M,,*5F
$GPRMC,143336.750,A,3554.7634,N,08403.5646,W,0.59,76.57,280721,,,A*40
$GPGGA,143337.000,3554.7634,N,08403.5645,W,1,04,1.96,180.5,M,-32.1,M,,*58
$GPRMC,143337.250,A,3554.7634,N,08403.5643,W,0.57,78.09,280721,,,A*4A
$GPGGA,143337.500,3554.7635,N,08403.5642,W,1,04,1.96,180.5,M,-32.1,M,,*5B
$GPRMC,143337.750,A,3554.7635,N,08403.5641,W,0.54,79.23,280721,,,A*46
$GPGGA,143338.000,3554.7635,N,08403.5639,W,1,04,1.96,180.6,M,-32.1,M,,*5E
$GPRMC,143338.250,A,3554.7635,N,08403.5638,W,0.57,73.54,280721,,,A*4B
$GPGGA,143338.500,3554.7636,N,08403.5637,W,1,04,1.96,180.6,M,-32.1,M,,*56
$GPRMC,143338.750,A,3554.7636,N,08403.5636,W,0.53,74.24,280721,,,A*47
$GPGGA,143339.000,3554.7636,N,08403.5635,W,1,04,1.96,180.6,M,-32.1,M,,*50
$GPRMC,143339.250,A,3554.7637,N,08403.5633,W,0.55,71.10,280721,,,A*43
$GPGGA,143339.500,3554.7636,N,08403.5633,W,1,04,1.96,180.6,M,-32.1,M,,*53
$GPRMC,143339.750,A,3554.7636,N,08403.5632,W,0.50,73.14,280721,,,A*45
$GPGGA,143340.000,3554.7636,N,08403.5631,W,1,04,1.96,180.6,M,-32.1,M,,*5A
$GPRMC,143340.250,A,3554.7637,N,08403.5629,W,0.54,73.47,280721,,,A*47
$GPGGA,143340.500,3554.7637,N,08403.5627,W,1,04,1.96,180.5,M,-32.1,M,,*5A
$GPRMC,143340.750,A,3554.7637,N,08403.5627,W,0.56,73.73,280721,,,A*49
$GPGGA,143341.000,3554.7637,N,08403.5627,W,1,04,1.96,180.5,M,-32.1,M,,*5E
$GPRMC,143341.250,A,3554.7637,N,08403.5626,W,0.52,80.37,280721,,,A*44
$GPGGA,143341.500,3554.7637,N,08403.5626,W,1,04,1.96,180.5,M,-32.1,M,,*5A
$GPRMC,143341.750,A,3554.7637,N,08403.5625,W,0.40,77.08,280721,,,A*45
$GPGGA,143342.000,3554.7638,N,08403.5625,W,1,04,1.96,180.5,M,-32.1,M,,*50
$GPRMC,143342.250,A,3554.7638,N,08403.5625,W,0.32,81.50,280721,,,A*4D
$GPGGA,143342.500,3554.7638,N,08403.5624,W,1,04,1.96,180.5,M,-32.1,M,,*54
$GPRMC,143342.750,A,3554.7638,N,08403.5624,W,0.26,81.07,280721,,,A*4E
$GPGGA,143343.000,3554.7638,N,08403.5624,W,1,04,1.96,180.5,M,-32.1,M,,*50
$GPRMC,143343.250,A,3554.7638,N,08403.5624,W,0.23,67.95,280721,,,A*4C
$GPGGA,143343.500,3554.7638,N,08403.5624,W,1,04,1.96,180.5,M,-32.1,M,,*55
$GPRMC,143343.750,A,3554.7638,N,08403.5623,W,0.18,71.10,280721,,,A*4C
$GPGGA,143344.000,3554.7638,N,08403.5623,W,1,04,1.96,180.5,M,-32.1,M,,*50
$GPRMC,143344.250,A,3554.7638,N,08403.5623,W,0.16,58.40,280721,,,A*4E
$GPGGA,143344.500,3554.7638,N,08403.5623,W,1,04,1.96,180.5,M,-32.1,M,,*55
$GPRMC,143344.750,A,3554.7638,N,08403.5623,W,0.19,61.71,280721,,,A*4C
$GPGGA,143345.000,3554.7638,N,08403.5623,W,1,04,1.96,180.5,M,-32.1,M,,*51
$GPRMC,143345.250,A,3554.7638,N,08403.5622,W,0.19,73.31,280721,,,A*4E
$GPGGA,143345.500,3554.7638,N,08403.5622,W,1,04,1.96,180.5,M,-32.1,M,,*55
$GPRMC,143345.750,A,3554.7638,N,08403.5622,W,0.15,62.74,280721,,,A*46
$GPGGA,143346.000,3554.7638,N,08403.5622,W,1,04,1.96,180.5,M,-32.1,M,,*53
$GPRMC,143346.250,A,3554.7638,N,08403.5622,W,0.12,71.55,280721,,,A*46
$GPGGA,143346.500,3554.7638,N,08403.5622,W,1,04,1.96,180.5,M,-32.1,M,,*56
$GPRMC,143346.750,A,3554.7638,N,08403.5622,W,0.18,60.15,280721,,,A*4D
$GPGGA,143347.000,3554.7638,N,08403.5622,W,1,04,1.96,180.5,M,-32.1,M,,*52
$GPRMC,143347.250,A,3554.7638,N,08403.5621,W,0.25,59.24,280721,,,A*4C
$GPGGA,143347.500,3554.7639,N,08403.5621,W,1,04,1.96,180.5,M,-32.1,M,,*55
$GPRMC,143347.750,A,3554.7639,N,08403.5621,W,0.25,46.04,280721,,,A*44
$GPGGA,143348.000,3554.7639,N,08403.5621,W,1,04,1.96,180.5,M,-32.1,M,,*5F
$GPRMC,143348.250,A,3554.7639,N,08403.5621,W,0.24,32.47,280721,,,A*4B
$GPGGA,143348.500,3554.7639,N,08403.5621,W,1,04,1.96,180.5,M,-32.1,M,,*5A
$GPRMC,143348.750,A,3554.7639,N,08403.5621,W,0.22,10.15,280721,,,A*4F
$GPGGA,143349.000,3554.7639,N,08403.5621,W,1,04,19.65,180.5,M,-32.1,M,,*6B
$GPRMC,143349.250,A,3554.7640,N,08403.5620,W,0.18,11.72,280721,,,A*4D
$GPGGA,143349.500,3554.7640,N,08403.5620,W,1,04,19.65,180.5,M,-32.1,M,,*61
$GPRMC,143349.750,A,3554.7640,N,08403.5620,W,0.22,13.56,280721,,,A*45
$GPGGA,143350.000,3554.7640,N,08403.5620,W,1,04,19.65,180.5,M,-32.1,M,,*6C
$GPRMC,143350.250,A,3554.7640,N,08403.5620,W,0.24,35.97,280721,,,A*47
$GPGGA,143350.500,3554.7640,N,08403.5620,W,1,04,1.96,180.5,M,-32.1,M,,*5C
$GPRMC,143350.750,A,3554.7640,N,08403.5620,W,0.22,28.78,280721,,,A*49
$GPGGA,143351.000,3554.7641,N,08403.5620,W,1,04,1.96,180.5,M,-32.1,M,,*59
$GPRMC,143351.250,A,3554.7641,N,08403.5620,W,0.22,31.09,280721,,,A*42
$GPGGA,143351.500,3554.7641,N,08403.5620,W,1,04,1.96,180.5,M,-32.1,M,,*5C
$GPRMC,143351.750,A,3554.7641,N,08403.5619,W,0.27,34.21,280721,,,A*47
$GPGGA,143352.000,3554.7641,N,08403.5619,W,1,04,1.96,180.5,M,-32.1,M,,*50
$GPRMC,143352.250,A,3554.7641,N,08403.5619,W,0.32,34.75,280721,,,A*44
$GPGGA,143352.500,3554.7641,N,08403.5619,W,1,04,1.96,180.6,M,-32.1,M,,*56
$GPRMC,143352.750,A,3554.7642,N,08403.5619,W,0.31,34.93,280721,,,A*49
$GPGGA,143353.000,3554.7642,N,08403.5619,W,1,04,1.96,180.6,M,-32.1,M,,*51
$GPRMC,143353.250,A,3554.7642,N,08403.5619,W,0.32,31.88,280721,,,A*41
$GPGGA,143353.500,3554.7642,N,08403.5618,W,1,04,1.96,180.6,M,-32.1,M,,*55
$GPRMC,143353.750,A,3554.7642,N,08403.5618,W,0.35,33.37,280721,,,A*44
$GPGGA,143354.000,3554.7643,N,08403.5618,W,1,04,1.96,180.6,M,-32.1,M,,*56
$GPRMC,143354.250,A,3554.7643,N,08403.5618,W,0.35,38.98,280721,,,A*49
$GPGGA,143354.500,3554.7643,N,08403.5618,W,1,04,1.96,180.6,M,-32.1,M,,*53
$GPRMC,143354.750,A,3554.7643,N,08403.5617,W,0.41,39.58,280721,,,A*4D
$GPGGA,143355.000,3554.7643,N,08403.5617,W,1,04,1.96,180.6,M,-32.1,M,,*58
$GPRMC,143355.250,A,3554.7644,N,08403.5617,W,0.44,43.08,280721,,,A*43
$GPGGA,143355.500,3554.7644,N,08403.5617,W,1,04,1.96,180.6,M,-32.1,M,,*5A
$GPRMC,143355.750,A,3554.7644,N,08403.5616,W,0.43,46.93,280721,,,A*47
$GPGGA,143356.000,3554.7644,N,08403.5616,W,1,04,1.96,180.6,M,-32.1,M,,*5D
$GPRMC,143356.250,A,3554.7644,N,08403.5616,W,0.43,45.52,280721,,,A*4F
$GPGGA,143356.500,3554.7645,N,08403.5616,W,1,04,1.96,180.6,M,-32.1,M,,*59
$GPRMC,143356.750,A,3554.7645,N,08403.5615,W,0.39,47.10,280721,,,A*41
$GPGGA,143357.000,3554.7645,N,08403.5615,W,1,04,1.96,180.6,M,-32.1,M,,*5E
$GPRMC,143357.250,A,3554.7645,N,08403.5615,W,0.31,33.38,280721,,,A*44
$GPGGA,143357.500,3554.7645,N,08403.5615,W,1,04,1.96,180.6,M,-32.1,M,,*5B
$GPRMC,143357.750,A,3554.7646,N,08403.5615,W,0.35,19.60,280721,,,A*43
$GPGGA,143358.000,3554.7646,N,08403.5615,W,1,04,1.96,180.6,M,-32.1,M,,*52
$GPRMC,143358.250,A,3554.7646,N,08403.5614,W,0.31,23.07,280721,,,A*44
$GPGGA,143358.500,3554.7646,N,08403.5614,W,1,04,1.96,180.6,M,-32.1,M,,*56
$GPRMC,143358.750,A,3554.7646,N,08403.5614,W,0.23,49.70,280721,,,A*4E
$GPGGA,143359.000,3554.7646,N,08403.5614,W,1,04,1.96,180.6,M,-32.1,M,,*52
$GPRMC,143359.250,A,3554.7647,N,08403.5614,W,0.26,35.02,280721,,,A*40
$GPGGA,143359.500,3554.7647,N,08403.5614,W,1,04,1.96,180.6,M,-32.1,M,,*56
$GPRMC,143359.750,A,3554.7647,N,08403.5614,W,0.26,23.94,280721,,,A*4D
$GPGGA,143400.000,3554.7647,N,08403.5614,W,1,04,1.96,180.6,M,-32.1,M,,*58
$GPRMC,143400.250,A,3554.7647,N,08403.5613,W,0.28,33.85,280721,,,A*4B
$GPGGA,143400.500,3554.7647,N,08403.5613,W,1,04,1.96,180.6,M,-32.1,M,,*5A
$GPRMC,143400.750,A,3554.7648,N,08403.5613,W,0.28,36.71,280721,,,A*4F
$GPGGA,143401.000,3554.7648,N,08403.5613,W,1,04,1.96,180.6,M,-32.1,M,,*51
$GPRMC,143401.250,A,3554.7648,N,08403.5613,W,0.29,30.35,280721,,,A*4C
$GPGGA,143401.500,3554.7648,N,08403.5613,W,1,04,1.96,180.6,M,-32.1,M,,*54
$GPRMC,143401.750,A,3554.7648,N,08403.5613,W,0.20,351.43,280721,,,A*75
$GPGGA,143402.000,3554.7648,N,08403.5613,W,1,04,19.71,180.6,M,-32.1,M,,*62
$GPRMC,143402.250,A,3554.7648,N,08403.5613,W,0.23,331.96,280721,,,A*7E
$GPGGA,143402.500,3554.7649,N,08403.5613,W,1,04,1.96,180.6,M,-32.1,M,,*56
$GPRMC,143402.750,A,3554.7649,N,08403.5613,W,0.21,358.76,280721,,,A*79
$GPGGA,143403.000,3554.7649,N,08403.5613,W,1,04,19.72,180.6,M,-32.1,M,,*61
$GPRMC,143403.250,A,3554.7649,N,08403.5613,W,0.23,9.12,280721,,,A*7A
$GPGGA,143403.500,3554.7649,N,08403.5613,W,1,04,19.73,180.5,M,-32.1,M,,*66
$GPRMC,143403.750,A,3554.7649,N,08403.5613,W,0.21,7.93,280721,,,A*7A
$GPGGA,143404.000,3554.7649,N,08403.5613,W,1,04,19.72,180.5,M,-32.1,M,,*65
$GPRMC,143404.250,A,3554.7650,N,08403.5613,W,0.19,18.58,280721,,,A*42
$GPGGA,143404.500,3554.7650,N,08403.5613,W,1,04,1.96,180.5,M,-32.1,M,,*5B
$GPRMC,143404.750,A,3554.7650,N,08403.5613,W,0.23,12.15,280721,,,A*4D
$GPGGA,143405.000,3554.7650,N,08403.5613,W,1,04,19.73,180.5,M,-32.1,M,,*6D
$GPRMC,143405.250,A,3554.7650,N,08403.5613,W,0.25,327.19,280721,,,A*76
$GPGGA,143405.500,3554.7650,N,08403.5613,W,1,04,1.96,180.5,M,-32.1,M,,*5A
$GPRMC,143405.750,A,3554.7650,N,08403.5613,W,0.29,321.62,280721,,,A*75
$GPGGA,143406.000,3554.7651,N,08403.5614,W,1,04,1.96,180.5,M,-32.1,M,,*5A
$GPRMC,143406.250,A,3554.7651,N,08403.5614,W,0.28,328.44,280721,,,A*79
$GPGGA,143406.500,3554.7651,N,08403.5614,W,1,04,1.96,180.5,M,-32.1,M,,*5F
$GPRMC,143406.750,A,3554.7651,N,08403.5614,W,0.24,324.04,280721,,,A*78
$GPGGA,143407.000,3554.7651,N,08403.5614,W,1,04,1.96,180.5,M,-32.1,M,,*5B
$GPRMC,143407.250,A,3554.7651,N,08403.5614,W,0.30,305.48,280721,,,A*72
$GPGGA,143407.500,3554.7651,N,08403.5615,W,1,04,1.96,180.5,M,-32.1,M,,*5F
$GPRMC,143407.750,A,3554.7651,N,08403.5615,W,0.31,292.26,280721,,,A*70
$GPGGA,143408.000,3554.7651,N,08403.5615,W,1,04,1.96,180.5,M,-32.1,M,,*55
$GPRMC,143408.250,A,3554.7652,N,08403.5615,W,0.35,281.13,280721,,,A*79
$GPGGA,143408.500,3554.7652,N,08403.5616,W,1,04,1.96,180.5,M,-32.1,M,,*50
$GPRMC,143408.750,A,3554.7652,N,08403.5616,W,0.33,278.08,280721,,,A*75
$GPGGA,143409.000,3554.7652,N,08403.5616,W,1,04,1.96,180.5,M,-32.1,M,,*54
$GPRMC,143409.250,A,3554.7652,N,08403.5617,W,0.30,269.58,280721,,,A*76
$GPGGA,143409.500,3554.7652,N,08403.5617,W,1,04,1.96,180.5,M,-32.1,M,,*50
$GPRMC,143409.750,A,3554.7652,N,08403.5617,W,0.22,259.32,280721,,,A*7F
$GPGGA,143410.000,3554.7652,N,08403.5617,W,1,04,1.96,180.5,M,-32.1,M,,*5D
$GPRMC,143410.250,A,3554.7652,N,08403.5617,W,0.24,265.70,280721,,,A*7D
$GPGGA,143410.500,3554.7652,N,08403.5618,W,1,04,1.96,180.5,M,-32.1,M,,*57
$GPRMC,143410.750,A,3554.7652,N,08403.5618,W,0.25,257.55,280721,,,A*70
$GPGGA,143411.000,3554.7651,N,08403.5618,W,1,04,1.96,180.5,M,-32.1,M,,*50
$GPRMC,143411.250,A,3554.7651,N,08403.5618,W,0.24,233.15,280721,,,A*70
$GPGGA,143411.500,3554.7651,N,08403.5618,W,1,04,1.96,180.5,M,-32.1,M,,*55
$GPRMC,143411.750,A,3554.7651,N,08403.5619,W,0.38,244.56,280721,,,A*7E
$GPGGA,143412.000,3554.7651,N,08403.5619,W,1,04,1.96,180.5,M,-32.1,M,,*52
$GPRMC,143412.250,A,3554.7651,N,08403.5619,W,0.48,238.42,280721,,,A*71
$GPGGA,143412.500,3554.7651,N,08403.5620,W,1,04,1.96,180.5,M,-32.1,M,,*5D
$GPRMC,143412.750,A,3554.7650,N,08403.5620,W,0.48,219.88,280721,,,A*7A
$GPGGA,143413.000,3554.7650,N,08403.5620,W,1,04,1.96,180.5,M,-32.1,M,,*58
$GPRMC,143413.250,A,3554.7650,N,08403.5620,W,0.49,209.83,280721,,,A*75
$GPGGA,143413.500,3554.7650,N,08403.5621,W,1,04,1.96,180.5,M,-32.1,M,,*5C
$GPRMC,143413.750,A,3554.7649,N,08403.5621,W,0.46,216.67,280721,,,A*72
$GPGGA,143414.000,3554.7649,N,08403.5621,W,1,04,1.96,180.5,M,-32.1,M,,*56
$GPRMC,143414.250,A,3554.7649,N,08403.5621,W,0.46,209.49,280721,,,A*72
$GPGGA,143414.500,3554.7649,N,08403.5621,W,1,04,1.96,180.5,M,-32.1,M,,*53
$GPRMC,143414.750,A,3554.7648,N,08403.5622,W,0.45,214.25,280721,,,A*70
$GPGGA,143415.000,3554.7648,N,08403.5622,W,1,04,1.96,180.5,M,-32.1,M,,*55
$GPRMC,143415.250,A,3554.7648,N,08403.5622,W,0.40,220.61,280721,,,A*76
$GPGGA,143415.500,3554.7648,N,08403.5622,W,1,04,1.96,180.5,M,-32.1,M,,*50
$GPRMC,143415.750,A,3554.7647,N,08403.5622,W,0.37,219.84,280721,,,A*7D
$GPGGA,143416.000,3554.7647,N,08403.5623,W,1,04,1.96,180.5,M,-32.1,M,,*58
$GPRMC,143416.250,A,3554.7647,N,08403.5623,W,0.32,212.45,280721,,,A*79
$GPGGA,143416.500,3554.7647,N,08403.5623,W,1,04,1.96,180.5,M,-32.1,M,,*5D
$GPRMC,143416.750,A,3554.7647,N,08403.5623,W,0.27,216.66,280721,,,A*7D
$GPGGA,143417.000,3554.7646,N,08403.5623,W,1,04,1.96,180.5,M,-32.1,M,,*58
$GPRMC,143417.250,A,3554.7646,N,08403.5623,W,0.30,199.79,280721,,,A*74
$GPGGA,143417.500,3554.7646,N,08403.5623,W,1,04,1.96,180.5,M,-32.1,M,,*5D
$GPRMC,143417.750,A,3554.7646,N,08403.5623,W,0.29,205.88,280721,,,A*71
$GPGGA,143418.000,3554.7646,N,08403.5623,W,1,04,1.96,180.5,M,-32.1,M,,*57
$GPRMC,143418.250,A,3554.7646,N,08403.5623,W,0.21,198.24,280721,,,A*72
$GPGGA,143418.500,3554.7645,N,08403.5624,W,1,04,1.96,180.5,M,-32.1,M,,*56
$GPRMC,143418.750,A,3554.7645,N,08403.5624,W,0.16,207.52,280721,,,A*73
$GPGGA,143419.000,3554.7645,N,08403.5624,W,1,04,1.96,180.5,M,-32.1,M,,*52
$GPRMC,143419.250,A,3554.7645,N,08403.5624,W,0.10,237.70,280721,,,A*72
$GPGGA,143419.500,3554.7645,N,08403.5624,W,1,04,1.96,180.5,M,-32.1,M,,*57
$GPRMC,143419.750,A,3554.7645,N,08403.5624,W,0.09,325.57,280721,,,A*78
$GPGGA,143420.000,3554.7645,N,08403.5624,W,1,04,1.96,180.5,M,-32.1,M,,*58
$GPRMC,143420.250,A,3554.7645,N,08403.5624,W,0.16,333.04,280721,,,A*78
$GPGGA,143420.500,3554.7646,N,08403.5624,W,1,04,1.96,180.5,M,-32.1,M,,*5E
$GPRMC,143420.750,A,3554.7646,N,08403.5624,W,0.17,314.66,280721,,,A*7E
$GPGGA,143421.000,3554.7646,N,08403.5624,W,1,04,1.96,180.5,M,-32.1,M,,*5A
$GPRMC,143421.250,A,3554.7646,N,08403.5624,W,0.24,332.42,280721,,,A*78
$GPGGA,143421.500,3554.7646,N,08403.5624,W,1,04,1.96,180.5,M,-32.1,M,,*5F
$GPRMC,143421.750,A,3554.7646,N,08403.5624,W,0.23,330.88,280721,,,A*7E
$GPGGA,143422.000,3554.7646,N,08403.5624,W,1,04,1.96,180.5,M,-32.1,M,,*59
$GPRMC,143422.250,A,3554.7646,N,08403.5625,W,0.26,341.73,280721,,,A*7E
$GPGGA,143422.500,3554.7647,N,08403.5625,W,1,04,1.96,180.5,M,-32.1,M,,*5C
$GPRMC,143422.750,A,3554.7647,N,08403.5625,W,0.27,339.76,280721,,,A*71
$GPGGA,143423.000,3554.7647,N,08403.5625,W,1,04,1.96,180.5,M,-32.1,M,,*58
$GPRMC,143423.250,A,3554.7647,N,08403.5625,W,0.23,322.47,280721,,,A*79
$GPGGA,143423.500,3554.7647,N,08403.5625,W,1,04,1.96,180.5,M,-32.1,M,,*5D
$GPRMC,143423.750,A,3554.7647,N,08403.5625,W,0.21,311.58,280721,,,A*70
$GPGGA,143424.000,3554.7648,N,08403.5625,W,1,04,1.96,180.5,M,-32.1,M,,*50
$GPRMC,143424.250,A,3554.7648,N,08403.5626,W,0.23,304.12,280721,,,A*76
$GPGGA,143424.500,3554.7648,N,08403.5626,W,1,04,1.96,180.5,M,-32.1,M,,*56
$GPRMC,143424.750,A,3554.7648,N,08403.5626,W,0.27,301.40,280721,,,A*75
$GPGGA,143425.000,3554.7648,N,08403.5626,W,1,04,1.96,180.5,M,-32.1,M,,*52
$GPRMC,143425.250,A,3554.7648,N,08403.5626,W,0.25,313.37,280721,,,A*70
$GPGGA,143425.500,3554.7648,N,08403.5627,W,1,04,1.96,180.5,M,-32.1,M,,*56
$GPRMC,143425.750,A,3554.7648,N,08403.5627,W,0.32,329.97,280721,,,A*71
$GPGGA,143426.000,3554.7649,N,08403.5627,W,1,04,1.96,180.5,M,-32.1,M,,*51
$GPRMC,143426.250,A,3554.7649,N,08403.5627,W,0.36,327.12,280721,,,A*71
$GPGGA,143426.500,3554.7649,N,08403.5627,W,1,04,1.96,180.5,M,-32.1,M,,*54
$GPRMC,143426.750,A,3554.7649,N,08403.5627,W,0.41,322.46,280721,,,A*70
$GPGGA,143427.000,3554.7649,N,08403.5628,W,1,04,1.96,180.5,M,-32.1,M,,*5F
$GPRMC,143427.250,A,3554.7650,N,08403.5628,W,0.43,321.23,280721,,,A*71
$GPGGA,143427.500,3554.7650,N,08403.5628,W,1,04,1.96,180.5,M,-32.1,M,,*52
$GPRMC,143427.750,A,3554.7650,N,08403.5628,W,0.49,328.53,280721,,,A*70
$GPGGA,143428.000,3554.7651,N,08403.5629,W,1,04,1.96,180.5,M,-32.1,M,,*58
$GPRMC,143428.250,A,3554.7651,N,08403.5629,W,0.49,332.30,280721,,,A*74
$GPGGA,143428.500,3554.7651,N,08403.5629,W,1,04,1.96,180.5,M,-32.1,M,,*5D
$GPRMC,143428.750,A,3554.7652,N,08403.5629,W,0.59,338.11,280721,,,A*7A
$GPGGA,143429.000,3554.7653,N,08403.5630,W,1,04,1.96,180.5,M,-32.1,M,,*53
$GPRMC,143429.250,A,3554.7654,N,08403.5628,W,0.57,342.69,280721,,,A*75
$GPGGA,143429.500,3554.7655,N,08403.5628,W,1,04,1.96,180.5,M,-32.1,M,,*59
$GPRMC,143429.750,A,3554.7657,N,08403.5629,W,0.68,339.60,280721,,,A*7B
$GPGGA,143430.000,3554.7658,N,08403.5629,W,1,04,1.96,180.5,M,-32.1,M,,*58
$GPRMC,143430.250,A,3554.7659,N,08403.5626,W,0.70,349.69,280721,,,A*70
$GPGGA,143430.500,3554.7660,N,08403.5625,W,1,04,19.86,180.5,M,-32.1,M,,*62
$GPRMC,143430.750,A,3554.7661,N,08403.5624,W,0.68,0.55,280721,,,A*74
$GPGGA,143431.000,3554.7662,N,08403.5623,W,1,04,19.87,180.5,M,-32.1,M,,*63
$GPRMC,143431.250,A,3554.7664,N,08403.5623,W,0.78,2.40,280721,,,A*75
$GPGGA,143431.500,3554.7666,N,08403.5621,W,1,04,19.87,180.5,M,-32.1,M,,*60
$GPRMC,143431.750,A,3554.7667,N,08403.5618,W,0.86,12.77,280721,,,A*4F
$GPGGA,143432.000,3554.7668,N,08403.5615,W,1,04,19.88,180.5,M,-32.1,M,,*60
$GPRMC,143432.250,A,3554.7669,N,08403.5614,W,0.87,19.40,280721,,,A*45
$GPGGA,143432.500,3554.7670,N,08403.5611,W,1,04,1.96,180.5,M,-32.1,M,,*5E
$GPRMC,143432.750,A,3554.7671,N,08403.5609,W,0.92,25.05,280721,,,A*4F
$GPGGA,143433.000,3554.7672,N,08403.5608,W,1,04,1.96,180.4,M,-32.1,M,,*51
$GPRMC,143433.250,A,3554.7673,N,08403.5607,W,0.93,25.27,280721,,,A*46
$GPGGA,143433.500,3554.7674,N,08403.5606,W,1,04,1.96,180.4,M,-32.1,M,,*5C
$GPRMC,143433.750,A,3554.7674,N,08403.5606,W,0.90,20.75,280721,,,A*44
$GPGGA,143434.000,3554.7675,N,08403.5606,W,1,04,1.96,180.4,M,-32.1,M,,*5F
$GPRMC,143434.250,A,3554.7675,N,08403.5606,W,0.85,18.57,280721,,,A*48
$GPGGA,143434.500,3554.7675,N,08403.5605,W,1,04,1.96,180.3,M,-32.1,M,,*5E
$GPRMC,143434.750,A,3554.7675,N,08403.5606,W,0.72,14.22,280721,,,A*4B
$GPGGA,143435.000,3554.7675,N,08403.5607,W,1,04,19.88,180.3,M,-32.1,M,,*6E
$GPRMC,143435.250,A,3554.7674,N,08403.5607,W,0.54,4.18,280721,,,A*73
$GPGGA,143435.500,3554.7674,N,08403.5608,W,1,04,19.90,180.3,M,-32.1,M,,*6C
$GPRMC,143435.750,A,3554.7674,N,08403.5609,W,0.45,351.76,280721,,,A*73
$GPGGA,143436.000,3554.7674,N,08403.5609,W,1,04,19.89,180.3,M,-32.1,M,,*63
$GPRMC,143436.250,A,3554.7674,N,08403.5610,W,0.40,338.80,280721,,,A*7E
$GPGGA,143436.500,3554.7673,N,08403.5610,W,1,04,1.96,180.2,M,-32.1,M,,*5F
$GPRMC,143436.750,A,3554.7673,N,08403.5611,W,0.36,311.51,280721,,,A*7B
$GPGGA,143437.000,3554.7672,N,08403.5611,W,1,04,1.96,180.2,M,-32.1,M,,*5B
$GPRMC,143437.250,A,3554.7673,N,08403.5613,W,0.43,300.05,280721,,,A*7E
$GPGGA,143437.500,3554.7673,N,08403.5614,W,1,04,1.96,180.2,M,-32.1,M,,*5A
$GPRMC,143437.750,A,3554.7673,N,08403.5615,W,0.51,292.66,280721,,,A*71
$GPGGA,143438.000,3554.7673,N,08403.5616,W,1,04,1.96,180.2,M,-32.1,M,,*52
$GPRMC,143438.250,A,3554.7673,N,08403.5616,W,0.54,289.10,280721,,,A*76
$GPGGA,143438.500,3554.7672,N,08403.5618,W,1,04,1.96,180.2,M,-32.1,M,,*58
$GPRMC,143438.750,A,3554.7672,N,08403.5619,W,0.64,285.01,280721,,,A*72
$GPGGA,143439.000,3554.7673,N,08403.5621,W,1,04,1.96,180.2,M,-32.1,M,,*57
$GPRMC,143439.250,A,3554.7674,N,08403.5623,W,0.80,292.39,280721,,,A*7E
$GPGGA,143439.500,3554.7675,N,08403.5624,W,1,04,1.96,180.2,M,-32.1,M,,*51
$GPRMC,143439.750,A,3554.7676,N,08403.5625,W,0.87,295.80,280721,,,A*7D
$GPGGA,143440.000,3554.7676,N,08403.5625,W,1,04,1.96,180.1,M,-32.1,M,,*5B
$GPRMC,143440.250,A,3554.7678,N,08403.5626,W,0.95,302.10,280721,,,A*7E
$GPGGA,143440.500,3554.7680,N,08403.5628,W,1,04,1.96,180.1,M,-32.1,M,,*5A
$GPRMC,143440.750,A,3554.7681,N,08403.5628,W,1.09,307.17,280721,,,A*75
$GPGGA,143441.000,3554.7682,N,08403.5629,W,1,04,1.96,180.1,M,-32.1,M,,*5D
$GPRMC,143441.250,A,3554.7682,N,08403.5628,W,1.05,309.94,280721,,,A*7B
$GPGGA,143441.500,3554.7683,N,08403.5627,W,1,04,1.96,180.1,M,-32.1,M,,*57
$GPRMC,143441.750,A,3554.7685,N,08403.5626,W,1.00,321.13,280721,,,A*77
$GPGGA,143442.000,3554.7686,N,08403.5626,W,1,04,1.96,180.1,M,-32.1,M,,*55
$GPRMC,143442.250,A,3554.7687,N,08403.5625,W,0.99,327.45,280721,,,A*74
$GPGGA,143442.500,3554.7688,N,08403.5625,W,1,04,1.96,180.1,M,-32.1,M,,*5D
$GPRMC,143442.750,A,3554.7691,N,08403.5626,W,1.23,332.56,280721,,,A*73
$GPGGA,143443.000,3554.7693,N,08403.5628,W,1,04,1.96,180.1,M,-32.1,M,,*5E
$GPRMC,143443.250,A,3554.7695,N,08403.5630,W,1.52,331.43,280721,,,A*75
$GPGGA,143443.500,3554.7698,N,08403.5632,W,1,04,1.96,180.1,M,-32.1,M,,*5B
$GPRMC,143443.750,A,3554.7701,N,08403.5633,W,1.83,334.69,280721,,,A*7E
$GPGGA,143444.000,3554.7702,N,08403.5633,W,1,04,1.96,180.1,M,-32.1,M,,*5A
$GPRMC,143444.250,A,3554.7705,N,08403.5634,W,1.98,336.75,280721,,,A*7A
$GPGGA,143444.500,3554.7707,N,08403.5636,W,1,04,1.96,180.1,M,-32.1,M,,*5F
$GPRMC,143444.750,A,3554.7708,N,08403.5637,W,2.12,335.00,280721,,,A*71
$GPGGA,143445.000,3554.7710,N,08403.5638,W,1,04,1.96,180.2,M,-32.1,M,,*50
$GPRMC,143445.250,A,3554.7712,N,08403.5640,W,2.41,324.99,280721,,,A*78
$GPGGA,143445.500,3554.7714,N,08403.5641,W,1,04,1.96,180.2,M,-32.1,M,,*5F
$GPRMC,143445.750,A,3554.7715,N,08403.5643,W,2.77,325.84,280721,,,A*71
$GPGGA,143446.000,3554.7717,N,08403.5644,W,1,04,1.96,180.2,M,-32.1,M,,*5F
$GPRMC,143446.250,A,3554.7719,N,08403.5645,W,2.92,330.70,280721,,,A*79
$GPGGA,143446.500,3554.7721,N,08403.5646,W,1,04,1.96,180.2,M,-32.1,M,,*5D
$GPRMC,143446.750,A,3554.7723,N,08403.5648,W,3.07,322.73,280721,,,A*75
$GPGGA,143447.000,3554.7724,N,08403.5650,W,1,04,1.96,180.2,M,-32.1,M,,*5B
$GPRMC,143447.250,A,3554.7726,N,08403.5651,W,3.03,326.82,280721,,,A*72
$GPGGA,143447.500,3554.7728,N,08403.5652,W,1,04,1.96,180.2,M,-32.1,M,,*50
$GPRMC,143447.750,A,3554.7732,N,08403.5654,W,3.71,333.55,280721,,,A*7C
$GPGGA,143448.000,3554.7735,N,08403.5656,W,1,04,1.96,180.2,M,-32.1,M,,*52
$GPRMC,143448.250,A,3554.7738,N,08403.5658,W,4.27,330.89,280721,,,A*76
$GPGGA,143448.500,3554.7741,N,08403.5660,W,1,04,19.97,180.2,M,-32.1,M,,*69
$GPRMC,143448.750,A,3554.7743,N,08403.5663,W,4.48,327.49,280721,,,A*74
$GPGGA,143449.000,3554.7745,N,08403.5666,W,1,04,19.97,180.2,M,-32.1,M,,*6F
$GPRMC,143449.250,A,3554.7746,N,08403.5670,W,4.66,313.28,280721,,,A*7B
$GPGGA,143449.500,3554.7747,N,08403.5674,W,1,04,19.97,180.2,M,-32.1,M,,*6B
$GPRMC,143449.750,A,3554.7749,N,08403.5679,W,5.04,301.90,280721,,,A*7D
$GPGGA,143450.000,3554.7750,N,08403.5683,W,1,04,1.96,180.2,M,-32.1,M,,*50
$GPRMC,143450.250,A,3554.7751,N,08403.5687,W,4.98,298.38,280721,,,A*7F
$GPGGA,143450.500,3554.7752,N,08403.5690,W,1,04,19.98,180.2,M,-32.1,M,,*62
$GPRMC,143450.750,A,3554.7753,N,08403.5693,W,4.59,294.94,280721,,,A*7A
$GPGGA,143451.000,3554.7754,N,08403.5697,W,1,04,19.98,180.1,M,-32.1,M,,*64
$GPRMC,143451.250,A,3554.7755,N,08403.5703,W,5.04,287.08,280721,,,A*7E
$GPGGA,143451.500,3554.7754,N,08403.5708,W,1,04,19.98,180.1,M,-32.1,M,,*66
$GPRMC,143451.750,A,3554.7754,N,08403.5713,W,5.39,275.96,280721,,,A*7F
$GPGGA,143452.000,3554.7753,N,08403.5718,W,1,04,19.98,180.1,M,-32.1,M,,*66
$GPRMC,143452.250,A,3554.7753,N,08403.5722,W,5.59,270.98,280721,,,A*71
$GPGGA,143452.500,3554.7752,N,08403.5727,W,1,04,19.99,180.1,M,-32.1,M,,*6F
$GPRMC,143452.750,A,3554.7751,N,08403.5730,W,5.35,263.64,280721,,,A*7E
$GPGGA,143453.000,3554.7749,N,08403.5734,W,1,04,19.99,180.1,M,-32.1,M,,*63
$GPRMC,143453.250,A,3554.7748,N,08403.5738,W,5.26,256.23,280721,,,A*7D
$GPGGA,143453.500,3554.7747,N,08403.5742,W,1,04,19.99,180.1,M,-32.1,M,,*69
$GPRMC,143453.750,A,3554.7746,N,08403.5747,W,5.39,253.79,280721,,,A*7A
$GPGGA,143454.000,3554.7744,N,08403.5750,W,1,04,1.96,180.1,M,-32.1,M,,*5D
$GPRMC,143454.250,A,3554.7742,N,08403.5753,W,5.06,249.04,280721,,,A*74
$GPGGA,143454.500,3554.7740,N,08403.5756,W,1,04,20.00,180.1,M,-32.1,M,,*66
$GPRMC,143454.750,A,3554.7737,N,08403.5758,W,4.94,240.68,280721,,,A*71
$GPGGA,143455.000,3554.7734,N,08403.5760,W,1,04,20.00,180.0,M,-32.1,M,,*65
$GPRMC,143455.250,A,3554.7730,N,08403.5763,W,5.12,229.92,280721,,,A*7F
$GPGGA,143455.500,3554.7728,N,08403.5766,W,1,04,20.00,180.0,M,-32.1,M,,*6B
$GPRMC,143455.750,A,3554.7726,N,08403.5770,W,5.23,230.37,280721,,,A*7A
$GPGGA,143456.000,3554.7724,N,08403.5773,W,1,04,20.01,180.0,M,-32.1,M,,*64
$GPRMC,143456.250,A,3554.7723,N,08403.5775,W,4.55,232.15,280721,,,A*7E
$GPGGA,143456.500,3554.7722,N,08403.5778,W,1,04,20.01,180.0,M,-32.1,M,,*6C
$GPRMC,143456.750,A,3554.7721,N,08403.5780,W,3.93,234.27,280721,,,A*79
$GPGGA,143457.000,3554.7719,N,08403.5782,W,1,04,20.01,180.0,M,-32.1,M,,*65
$GPRMC,143457.250,A,3554.7719,N,08403.5784,W,3.52,237.14,280721,,,A*7C
$GPGGA,143457.500,3554.7718,N,08403.5786,W,1,04,1.96,180.0,M,-32.1,M,,*58
$GPRMC,143457.750,A,3554.7717,N,08403.5789,W,3.34,241.34,280721,,,A*79
$GPGGA,143458.000,3554.7718,N,08403.5790,W,1,04,1.96,180.0,M,-32.1,M,,*55
$GPRMC,143458.250,A,3554.7717,N,08403.5789,W,2.24,238.07,280721,,,A*7D
$GPGGA,143458.500,3554.7717,N,08403.5790,W,1,04,1.96,180.0,M,-32.1,M,,*5F
$GPRMC,143458.750,A,3554.7717,N,08403.5791,W,1.73,243.33,280721,,,A*7B
$GPGGA,143459.000,3554.7717,N,08403.5792,W,1,04,1.96,180.0,M,-32.1,M,,*59
$GPRMC,143459.250,A,3554.7717,N,08403.5793,W,1.37,255.36,280721,,,A*7F
$GPGGA,143459.500,3554.7717,N,08403.5794,W,1,04,1.96,180.0,M,-32.1,M,,*5A
$GPRMC,143459.750,A,3554.7717,N,08403.5794,W,1.01,258.56,280721,,,A*73
$GPGGA,143500.000,3554.7717,N,08403.5794,W,1,04,1.96,180.0,M,-32.1,M,,*52
$GPRMC,143500.250,A,3554.7716,N,08403.5794,W,0.95,234.01,280721,,,A*7E
$GPGGA,143500.500,3554.7715,N,08403.5795,W,1,04,1.96,180.0,M,-32.1,M,,*54
$GPRMC,143500.750,A,3554.7713,N,08403.5796,W,1.30,218.42,280721,,,A*7B
$GPGGA,143501.000,3554.7712,N,08403.5797,W,1,04,1.96,180.0,M,-32.1,M,,*55
$GPRMC,143501.250,A,3554.7711,N,08403.5798,W,1.49,219.02,280721,,,A*78
$GPGGA,143501.500,3554.7710,N,08403.5800,W,1,04,1.96,180.0,M,-32.1,M,,*53
$GPRMC,143501.750,A,3554.7709,N,08403.5803,W,1.66,226.74,280721,,,A*79
$GPGGA,143502.000,3554.7708,N,08403.5806,W,1,04,1.96,180.0,M,-32.1,M,,*5A
$GPRMC,143502.250,A,3554.7707,N,08403.5808,W,1.94,229.54,280721,,,A*7A
$GPGGA,143502.500,3554.7705,N,08403.5811,W,1,04,1.96,180.0,M,-32.1,M,,*54
$GPRMC,143502.750,A,3554.7704,N,08403.5814,W,2.18,232.35,280721,,,A*7B
$GPGGA,143503.000,3554.7703,N,08403.5817,W,1,04,1.96,180.0,M,-32.1,M,,*50
$GPRMC,143503.250,A,3554.7702,N,08403.5819,W,2.48,237.10,280721,,,A*73
$GPGGA,143503.500,3554.7702,N,08403.5824,W,1,04,1.96,179.9,M,-32.1,M,,*5B
$GPRMC,143503.750,A,3554.7702,N,08403.5829,W,3.02,257.14,280721,,,A*78
$GPGGA,143504.000,3554.7702,N,08403.5833,W,1,04,1.96,179.9,M,-32.1,M,,*5F
$GPRMC,143504.250,A,3554.7703,N,08403.5838,W,3.75,274.60,280721,,,A*79
$GPGGA,143504.500,3554.7705,N,08403.5845,W,1,04,1.96,180.0,M,-32.1,M,,*53
$GPRMC,143504.750,A,3554.7707,N,08403.5851,W,4.86,288.26,280721,,,A*7D
$GPGGA,143505.000,3554.7711,N,08403.5857,W,1,04,1.96,180.0,M,-32.1,M,,*51
$GPRMC,143505.250,A,3554.7718,N,08403.5864,W,7.84,309.79,280721,,,A*72
$GPGGA,143505.500,3554.7724,N,08403.5870,W,1,04,20.06,180.0,M,-32.1,M,,*6D
$GPRMC,143505.750,A,3554.7729,N,08403.5878,W,9.57,316.12,280721,,,A*7B
$GPGGA,143506.000,3554.7735,N,08403.5885,W,1,04,20.07,180.0,M,-32.1,M,,*60
$GPRMC,143506.250,A,3554.7740,N,08403.5893,W,10.41,316.15,280721,,,A*4F
$GPGGA,143506.500,3554.7746,N,08403.5900,W,1,04,20.07,180.0,M,-32.1,M,,*6D
$GPRMC,143506.750,A,3554.7752,N,08403.5908,W,11.00,315.92,280721,,,A*42
$GPGGA,143507.000,3554.7758,N,08403.5916,W,1,04,1.96,180.1,M,-32.1,M,,*5B
$GPRMC,143507.250,A,3554.7765,N,08403.5925,W,12.01,316.44,280721,,,A*47
$GPGGA,143507.500,3554.7772,N,08403.5934,W,1,04,20.07,180.1,M,-32.1,M,,*6D
$GPRMC,143507.750,A,3554.7780,N,08403.5941,W,12.80,318.61,280721,,,A*4B
$GPGGA,143508.000,3554.7787,N,08403.5948,W,1,04,1.96,180.1,M,-32.1,M,,*5D
$GPRMC,143508.250,A,3554.7795,N,08403.5955,W,12.83,320.68,280721,,,A*41
$GPGGA,143508.500,3554.7802,N,08403.5963,W,1,04,20.08,180.2,M,-32.1,M,,*64
$GPRMC,143508.750,A,3554.7810,N,08403.5970,W,12.92,322.58,280721,,,A*40
$GPGGA,143509.000,3554.7817,N,08403.5977,W,1,04,1.96,180.2,M,-32.1,M,,*55
$GPRMC,143509.250,A,3554.7826,N,08403.5984,W,13.25,324.16,280721,,,A*4B
$GPGGA,143509.500,3554.7835,N,08403.5992,W,1,04,20.08,180.3,M,-32.1,M,,*6E
$GPRMC,143509.750,A,3554.7847,N,08403.6001,W,14.99,326.37,280721,,,A*4F
$GPGGA,143510.000,3554.7858,N,08403.6010,W,1,04,20.09,180.3,M,-32.1,M,,*69
$GPRMC,143510.250,A,3554.7868,N,08403.6018,W,15.95,327.58,280721,,,A*42
$GPGGA,143510.500,3554.7879,N,08403.6026,W,1,04,20.09,180.3,M,-32.1,M,,*6A
$GPRMC,143510.750,A,3554.7890,N,08403.6034,W,16.87,329.59,280721,,,A*41
$GPGGA,143511.000,3554.7900,N,08403.6042,W,1,04,1.96,180.3,M,-32.1,M,,*56
$GPRMC,143511.250,A,3554.7911,N,08403.6049,W,17.28,331.18,280721,,,A*4F
$GPGGA,143511.500,3554.7922,N,08403.6056,W,1,04,20.09,180.3,M,-32.1,M,,*63
$GPRMC,143511.750,A,3554.7933,N,08403.6062,W,17.49,332.77,280721,,,A*4E
$GPGGA,143512.000,3554.7943,N,08403.6069,W,1,04,20.10,180.3,M,-32.1,M,,*66
$GPRMC,143512.250,A,3554.7954,N,08403.6076,W,17.77,333.84,280721,,,A*4C
$GPGGA,143512.500,3554.7965,N,08403.6082,W,1,04,20.10,180.3,M,-32.1,M,,*62
$GPRMC,143512.750,A,3554.7976,N,08403.6088,W,17.76,334.96,280721,,,A*4D
$GPGGA,143513.000,3554.7987,N,08403.6094,W,1,04,1.96,180.3,M,-32.1,M,,*50
$GPRMC,143513.250,A,3554.7999,N,08403.6101,W,17.99,334.98,280721,,,A*47
$GPGGA,143513.500,3554.8011,N,08403.6108,W,1,04,20.11,180.3,M,-32.1,M,,*64
$GPRMC,143513.750,A,3554.8023,N,08403.6116,W,18.70,334.69,280721,,,A*45
$GPGGA,143514.000,3554.8035,N,08403.6124,W,1,04,1.96,180.3,M,-32.1,M,,*52
$GPRMC,143514.250,A,3554.8047,N,08403.6132,W,19.15,335.05,280721,,,A*4A
$GPGGA,143514.500,3554.8059,N,08403.6139,W,1,04,20.11,180.3,M,-32.1,M,,*6D
$GPRMC,143514.750,A,3554.8071,N,08403.6146,W,19.20,335.63,280721,,,A*4F
$GPGGA,143515.000,3554.8083,N,08403.6154,W,1,04,1.96,180.3,M,-32.1,M,,*59
$GPRMC,143515.250,A,3554.8095,N,08403.6162,W,19.21,335.91,280721,,,A*4B
$GPGGA,143515.500,3554.8107,N,08403.6169,W,1,04,20.12,180.3,M,-32.1,M,,*60
$GPRMC,143515.750,A,3554.8120,N,08403.6177,W,19.22,335.64,280721,,,A*4C
$GPGGA,143516.000,3554.8131,N,08403.6184,W,1,04,1.96,180.3,M,-32.1,M,,*5F
$GPRMC,143516.250,A,3554.8143,N,08403.6191,W,19.27,336.45,280721,,,A*42
$GPGGA,143516.500,3554.8156,N,08403.6197,W,1,04,20.12,180.3,M,-32.1,M,,*66
$GPRMC,143516.750,A,3554.8169,N,08403.6203,W,19.51,338.36,280721,,,A*4C
$GPGGA,143517.000,3554.8182,N,08403.6210,W,1,04,1.96,180.3,M,-32.1,M,,*58
$GPRMC,143517.250,A,3554.8194,N,08403.6216,W,19.46,339.08,280721,,,A*44
$GPGGA,143517.500,3554.8207,N,08403.6222,W,1,04,1.96,180.4,M,-32.1,M,,*55
$GPRMC,143517.750,A,3554.8219,N,08403.6227,W,19.36,340.19,280721,,,A*4C
$GPGGA,143518.000,3554.8232,N,08403.6233,W,1,04,1.96,180.4,M,-32.1,M,,*59
$GPRMC,143518.250,A,3554.8245,N,08403.6239,W,19.29,340.91,280721,,,A*4E
$GPGGA,143518.500,3554.8258,N,08403.6244,W,1,04,1.96,180.4,M,-32.1,M,,*50
$GPRMC,143518.750,A,3554.8271,N,08403.6248,W,19.32,342.71,280721,,,A*4C
$GPGGA,143519.000,3554.8284,N,08403.6252,W,1,04,1.96,180.4,M,-32.1,M,,*52
$GPRMC,143519.250,A,3554.8298,N,08403.6257,W,19.39,343.77,280721,,,A*4D
$GPGGA,143519.500,3554.8311,N,08403.6261,W,1,04,1.96,180.4,M,-32.1,M,,*5A
$GPRMC,143519.750,A,3554.8324,N,08403.6265,W,19.46,344.59,280721,,,A*4C
$GPGGA,143520.000,3554.8337,N,08403.6270,W,1,04,1.96,180.4,M,-32.1,M,,*51
$GPRMC,143520.250,A,3554.8351,N,08403.6275,W,19.51,344.09,280721,,,A*43
$GPGGA,143520.500,3554.8364,N,08403.6280,W,1,04,1.96,180.4,M,-32.1,M,,*5D
$GPRMC,143520.750,A,3554.8377,N,08403.6285,W,19.55,343.32,280721,,,A*46
$GPGGA,143521.000,3554.8391,N,08403.6290,W,1,04,1.96,180.4,M,-32.1,M,,*52
$GPRMC,143521.250,A,3554.8404,N,08403.6295,W,19.61,343.11,280721,,,A*46
$GPGGA,143521.500,3554.8417,N,08403.6300,W,1,04,20.16,180.4,M,-32.1,M,,*6D
$GPRMC,143521.750,A,3554.8430,N,08403.6305,W,19.59,342.98,280721,,,A*47
$GPGGA,143522.000,3554.8443,N,08403.6310,W,1,04,1.96,180.4,M,-32.1,M,,*50
$GPRMC,143522.250,A,3554.8456,N,08403.6315,W,19.33,343.21,280721,,,A*4F
$GPGGA,143522.500,3554.8467,N,08403.6320,W,1,04,20.16,180.4,M,-32.1,M,,*6B
$GPRMC,143522.750,A,3554.8480,N,08403.6324,W,19.12,343.39,280721,,,A*49
$GPGGA,143523.000,3554.8493,N,08403.6328,W,1,04,1.96,180.4,M,-32.1,M,,*57
$GPRMC,143523.250,A,3554.8506,N,08403.6332,W,19.04,344.03,280721,,,A*4C
$GPGGA,143523.500,3554.8519,N,08403.6336,W,1,04,1.96,180.4,M,-32.1,M,,*5E
$GPRMC,143523.750,A,3554.8532,N,08403.6339,W,18.83,345.64,280721,,,A*4B
$GPGGA,143524.000,3554.8544,N,08403.6343,W,1,04,20.17,180.5,M,-32.1,M,,*6D
$GPRMC,143524.250,A,3554.8556,N,08403.6347,W,18.69,346.12,280721,,,A*44
$GPGGA,143524.500,3554.8568,N,08403.6351,W,1,04,20.17,180.5,M,-32.1,M,,*65
$GPRMC,143524.750,A,3554.8579,N,08403.6355,W,18.26,345.55,280721,,,A*44
$GPGGA,143525.000,3554.8591,N,08403.6359,W,1,04,20.18,180.5,M,-32.1,M,,*60
$GPRMC,143525.250,A,3554.8602,N,08403.6363,W,17.94,344.97,280721,,,A*43
$GPGGA,143525.500,3554.8612,N,08403.6367,W,1,04,1.96,180.5,M,-32.1,M,,*55
$GPRMC,143525.750,A,3554.8622,N,08403.6371,W,17.34,344.44,280721,,,A*43
$GPGGA,143526.000,3554.8632,N,08403.6374,W,1,04,1.96,180.5,M,-32.1,M,,*53
$GPRMC,143526.250,A,3554.8641,N,08403.6378,W,16.75,344.51,280721,,,A*49
$GPGGA,143526.500,3554.8650,N,08403.6380,W,1,04,1.96,180.5,M,-32.1,M,,*59
$GPRMC,143526.750,A,3554.8659,N,08403.6382,W,15.95,345.65,280721,,,A*4B
$GPGGA,143527.000,3554.8668,N,08403.6385,W,1,04,20.19,180.6,M,-32.1,M,,*64
$GPRMC,143527.250,A,3554.8676,N,08403.6388,W,15.33,346.05,280721,,,A*41
$GPGGA,143527.500,3554.8686,N,08403.6390,W,1,04,20.19,180.6,M,-32.1,M,,*65
$GPRMC,143527.750,A,3554.8694,N,08403.6393,W,14.86,346.17,280721,,,A*4E
$GPGGA,143528.000,3554.8702,N,08403.6395,W,1,04,20.19,180.6,M,-32.1,M,,*67
$GPRMC,143528.250,A,3554.8709,N,08403.6398,W,14.12,345.20,280721,,,A*40
$GPGGA,143528.500,3554.8715,N,08403.6401,W,1,04,20.20,180.6,M,-32.1,M,,*64
$GPRMC,143528.750,A,3554.8721,N,08403.6403,W,13.14,344.77,280721,,,A*48
$GPGGA,143529.000,3554.8727,N,08403.6404,W,1,04,1.96,180.6,M,-32.1,M,,*5A
$GPRMC,143529.250,A,3554.8732,N,08403.6406,W,12.15,344.60,280721,,,A*4D
$GPGGA,143529.500,3554.8738,N,08403.6408,W,1,04,1.96,180.6,M,-32.1,M,,*5D
$GPRMC,143529.750,A,3554.8744,N,08403.6411,W,11.54,344.99,280721,,,A*4F
$GPGGA,143530.000,3554.8750,N,08403.6412,W,1,04,1.96,180.7,M,-32.1,M,,*54
$GPRMC,143530.250,A,3554.8755,N,08403.6414,W,10.97,346.51,280721,,,A*4F
$GPGGA,143530.500,3554.8759,N,08403.6415,W,1,04,20.21,180.7,M,-32.1,M,,*60
$GPRMC,143530.750,A,3554.8762,N,08403.6415,W,9.77,348.90,280721,,,A*7A
$GPGGA,143531.000,3554.8767,N,08403.6416,W,1,04,20.21,180.7,M,-32.1,M,,*6A
$GPRMC,143531.250,A,3554.8770,N,08403.6417,W,9.08,350.15,280721,,,A*73
$GPGGA,143531.500,3554.8774,N,08403.6417,W,1,04,20.22,180.7,M,-32.1,M,,*6F
$GPRMC,143531.750,A,3554.8776,N,08403.6416,W,8.04,353.35,280721,,,A*7D
$GPGGA,143532.000,3554.8780,N,08403.6417,W,1,04,20.21,180.7,M,-32.1,M,,*61
$GPRMC,143532.250,A,3554.8780,N,08403.6418,W,7.06,352.69,280721,,,A*79
$GPGGA,143532.500,3554.8777,N,08403.6419,W,1,04,20.22,180.7,M,-32.1,M,,*61
$GPRMC,143532.750,A,3554.8777,N,08403.6422,W,5.30,348.01,280721,,,A*7F
$GPGGA,143533.000,3554.8780,N,08403.6422,W,1,04,20.22,180.7,M,-32.1,M,,*65
$GPRMC,143533.250,A,3554.8782,N,08403.6422,W,4.77,344.52,280721,,,A*79
$GPGGA,143533.500,3554.8785,N,08403.6421,W,1,04,20.23,180.7,M,-32.1,M,,*67
$GPRMC,143533.750,A,3554.8788,N,08403.6420,W,4.06,344.77,280721,,,A*75
$GPGGA,143534.000,3554.8791,N,08403.6420,W,1,04,1.96,180.7,M,-32.1,M,,*5C
$GPRMC,143534.250,A,3554.8793,N,08403.6420,W,3.72,339.91,280721,,,A*7B
$GPGGA,143534.500,3554.8795,N,08403.6420,W,1,04,1.96,180.8,M,-32.1,M,,*52
$GPRMC,143534.750,A,3554.8798,N,08403.6421,W,3.52,333.93,280721,,,A*7E
$GPGGA,143535.000,3554.8801,N,08403.6423,W,1,04,1.96,180.8,M,-32.1,M,,*57
$GPRMC,143535.250,A,3554.8805,N,08403.6426,W,4.23,324.99,280721,,,A*7B
$GPGGA,143535.500,3554.8808,N,08403.6429,W,1,04,20.24,180.8,M,-32.1,M,,*6B
$GPRMC,143535.750,A,3554.8811,N,08403.6432,W,4.87,318.78,280721,,,A*70
$GPGGA,143536.000,3554.8814,N,08403.6436,W,1,04,1.96,180.8,M,-32.1,M,,*54
$GPRMC,143536.250,A,3554.8817,N,08403.6440,W,5.29,313.34,280721,,,A*73
$GPGGA,143536.500,3554.8819,N,08403.6445,W,1,04,1.96,180.8,M,-32.1,M,,*58
$GPRMC,143536.750,A,3554.8821,N,08403.6449,W,5.53,302.97,280721,,,A*7E
$GPGGA,143537.000,3554.8822,N,08403.6453,W,1,04,1.96,180.8,M,-32.1,M,,*53
$GPRMC,143537.250,A,3554.8823,N,08403.6458,W,5.48,296.40,280721,,,A*74
$GPGGA,143537.500,3554.8822,N,08403.6461,W,1,04,1.96,180.8,M,-32.1,M,,*57
$GPRMC,143537.750,A,3554.8820,N,08403.6464,W,4.20,270.52,280721,,,A*79
$GPGGA,143538.000,3554.8817,N,08403.6474,W,1,04,1.96,180.8,M,-32.1,M,,*5F
$GPRMC,143538.250,A,3554.8815,N,08403.6480,W,5.92,258.61,280721,,,A*7D
$GPGGA,143538.500,3554.8811,N,08403.6487,W,1,04,1.96,180.8,M,-32.1,M,,*50
$GPRMC,143538.750,A,3554.8804,N,08403.6495,W,7.54,238.20,280721,,,A*77
$GPGGA,143539.000,3554.8799,N,08403.6502,W,1,04,1.96,180.8,M,-32.1,M,,*57
$GPRMC,143539.250,A,3554.8794,N,08403.6509,W,8.48,232.45,280721,,,A*7A
$GPGGA,143539.500,3554.8788,N,08403.6515,W,1,04,1.96,180.8,M,-32.1,M,,*54
$GPRMC,143539.750,A,3554.8781,N,08403.6521,W,9.52,222.91,280721,,,A*73
$GPGGA,143540.000,3554.8775,N,08403.6526,W,1,04,1.96,180.8,M,-32.1,M,,*5D
$GPRMC,143540.250,A,3554.8768,N,08403.6531,W,10.00,217.17,280721,,,A*49
$GPGGA,143540.500,3554.8761,N,08403.6536,W,1,04,20.27,180.8,M,-32.1,M,,*65
$GPRMC,143540.750,A,3554.8754,N,08403.6541,W,10.31,214.89,280721,,,A*42
$GPGGA,143541.000,3554.8748,N,08403.6547,W,1,04,1.96,180.8,M,-32.1,M,,*55
$GPRMC,143541.250,A,3554.8741,N,08403.6553,W,10.68,214.21,280721,,,A*4F
$GPGGA,143541.500,3554.8735,N,08403.6558,W,1,04,1.96,180.8,M,-32.1,M,,*54
$GPRMC,143541.750,A,3554.8728,N,08403.6564,W,11.03,213.52,280721,,,A*4E
$GPGGA,143542.000,3554.8720,N,08403.6570,W,1,04,1.96,180.7,M,-32.1,M,,*53
$GPRMC,143542.250,A,3554.8713,N,08403.6576,W,11.34,212.68,280721,,,A*4F
$GPGGA,143542.500,3554.8705,N,08403.6582,W,1,04,1.96,180.7,M,-32.1,M,,*5C
$GPRMC,143542.750,A,3554.8696,N,08403.6587,W,11.80,210.48,280721,,,A*47
$GPGGA,143543.000,3554.8688,N,08403.6593,W,1,04,1.96,180.7,M,-32.1,M,,*5C
$GPRMC,143543.250,A,3554.8681,N,08403.6599,W,11.93,209.82,280721,,,A*46
$GPGGA,143543.500,3554.8673,N,08403.6604,W,1,04,1.96,180.7,M,-32.1,M,,*50
$GPRMC,143543.750,A,3554.8665,N,08403.6610,W,12.19,209.90,280721,,,A*49
$GPGGA,143544.000,3554.8657,N,08403.6615,W,1,04,1.96,180.7,M,-32.1,M,,*54
$GPRMC,143544.250,A,3554.8649,N,08403.6621,W,12.19,209.73,280721,,,A*4A
$GPGGA,143544.500,3554.8641,N,08403.6626,W,1,04,1.96,180.7,M,-32.1,M,,*56
$GPRMC,143544.750,A,3554.8633,N,08403.6632,W,12.10,208.46,280721,,,A*4E
$GPGGA,143545.000,3554.8626,N,08403.6637,W,1,04,1.96,180.7,M,-32.1,M,,*53
$GPRMC,143545.250,A,3554.8618,N,08403.6642,W,12.05,208.34,280721,,,A*45
$GPGGA,143545.500,3554.8610,N,08403.6648,W,1,04,1.96,180.7,M,-32.1,M,,*5B
$GPRMC,143545.750,A,3554.8603,N,08403.6653,W,12.06,207.97,280721,,,A*4F
$GPGGA,143546.000,3554.8596,N,08403.6659,W,1,04,1.96,180.7,M,-32.1,M,,*50
$GPRMC,143546.250,A,3554.8588,N,08403.6664,W,12.05,208.88,280721,,,A*4F
$GPGGA,143546.500,3554.8581,N,08403.6670,W,1,04,1.96,180.7,M,-32.1,M,,*58
$GPRMC,143546.750,A,3554.8574,N,08403.6676,W,12.07,209.99,280721,,,A*49
$GPGGA,143547.000,3554.8566,N,08403.6681,W,1,04,1.96,180.8,M,-32.1,M,,*54
$GPRMC,143547.250,A,3554.8559,N,08403.6687,W,12.14,210.37,280721,,,A*42
$GPGGA,143547.500,3554.8551,N,08403.6693,W,1,04,20.32,180.8,M,-32.1,M,,*6B
$GPRMC,143547.750,A,3554.8543,N,08403.6699,W,12.50,209.28,280721,,,A*45
$GPGGA,143548.000,3554.8536,N,08403.6705,W,1,04,1.96,180.8,M,-32.1,M,,*53
$GPRMC,143548.250,A,3554.8528,N,08403.6711,W,12.49,209.96,280721,,,A*4E
$GPGGA,143548.500,3554.8521,N,08403.6717,W,1,04,1.96,180.8,M,-32.1,M,,*53
$GPRMC,143548.750,A,3554.8514,N,08403.6723,W,12.24,209.66,280721,,,A*41
$GPGGA,143549.000,3554.8506,N,08403.6728,W,1,04,1.96,180.8,M,-32.1,M,,*5E
$GPRMC,143549.250,A,3554.8499,N,08403.6733,W,12.07,207.80,280721,,,A*47
$GPGGA,143549.500,3554.8491,N,08403.6738,W,1,04,1.96,180.9,M,-32.1,M,,*54
$GPRMC,143549.750,A,3554.8484,N,08403.6743,W,12.28,206.51,280721,,,A*49
$GPGGA,143550.000,3554.8476,N,08403.6749,W,1,04,1.96,180.9,M,-32.1,M,,*56
$GPRMC,143550.250,A,3554.8468,N,08403.6755,W,12.38,206.55,280721,,,A*44
$GPGGA,143550.500,3554.8460,N,08403.6760,W,1,04,20.34,180.9,M,-32.1,M,,*64
$GPRMC,143550.750,A,3554.8452,N,08403.6767,W,12.95,207.54,280721,,,A*4E
$GPGGA,143551.000,3554.8443,N,08403.6773,W,1,04,1.96,180.9,M,-32.1,M,,*58
$GPRMC,143551.250,A,3554.8434,N,08403.6780,W,13.70,208.34,280721,,,A*40
$GPGGA,143551.500,3554.8425,N,08403.6787,W,1,04,1.96,180.9,M,-32.1,M,,*56
$GPRMC,143551.750,A,3554.8416,N,08403.6795,W,14.72,210.95,280721,,,A*46
$GPGGA,143552.000,3554.8407,N,08403.6803,W,1,04,1.96,181.0,M,-32.1,M,,*5B
$GPRMC,143552.250,A,3554.8397,N,08403.6812,W,16.01,213.48,280721,,,A*4B
$GPGGA,143552.500,3554.8387,N,08403.6821,W,1,04,1.96,181.0,M,-32.1,M,,*51
$GPRMC,143552.750,A,3554.8377,N,08403.6830,W,17.52,215.56,280721,,,A*4E
$GPGGA,143553.000,3554.8366,N,08403.6840,W,1,04,1.96,181.0,M,-32.1,M,,*5D
$GPRMC,143553.250,A,3554.8355,N,08403.6850,W,18.29,215.20,280721,,,A*4E
$GPGGA,143553.500,3554.8344,N,08403.6860,W,1,04,1.96,181.1,M,-32.1,M,,*5B
$GPRMC,143553.750,A,3554.8332,N,08403.6871,W,19.23,215.37,280721,,,A*44
$GPGGA,143554.000,3554.8320,N,08403.6882,W,1,04,1.96,181.1,M,-32.1,M,,*57
$GPRMC,143554.250,A,3554.8309,N,08403.6894,W,19.74,215.61,280721,,,A*44
$GPGGA,143554.500,3554.8297,N,08403.6906,W,1,04,1.96,181.1,M,-32.1,M,,*52
$GPRMC,143554.750,A,3554.8285,N,08403.6920,W,20.63,216.56,280721,,,A*41
$GPGGA,143555.000,3554.8272,N,08403.6934,W,1,04,1.96,181.1,M,-32.1,M,,*5C
$GPRMC,143555.250,A,3554.8259,N,08403.6950,W,22.22,218.88,280721,,,A*49
$GPGGA,143555.500,3554.8247,N,08403.6965,W,1,04,1.96,181.2,M,-32.1,M,,*58
$GPRMC,143555.750,A,3554.8235,N,08403.6980,W,22.96,220.60,280721,,,A*49
$GPGGA,143556.000,3554.8223,N,08403.6994,W,1,04,1.96,181.2,M,-32.1,M,,*52
$GPRMC,143556.250,A,3554.8211,N,08403.7010,W,23.22,222.29,280721,,,A*49
$GPGGA,143556.500,3554.8199,N,08403.7027,W,1,04,1.96,181.2,M,-32.1,M,,*55
