Vers 81
USE_SERIAL_FEEDBACK=true
DEVELOPMENT_MODE=false
USE_RMC_ONLY=false

$GPRMC,165923.500,A,4308.3038,N,07726.2444,W,0.22,335.15,050921,,,A*78
$GPGGA,165923.750,4308.3038,N,07726.2444,W,1,03,3.18,184.4,M,-34.4,M,,*5D
$GPRMC,165924.000,A,4308.3038,N,07726.2444,W,0.30,323.48,050921,,,A*76
$GPGGA,165924.250,4308.3038,N,07726.2444,W,1,03,3.17,184.4,M,-34.4,M,,*50
$GPRMC,165924.500,A,4308.3038,N,07726.2444,W,0.29,327.76,050921,,,A*72
$GPGGA,165924.750,4308.3039,N,07726.2444,W,1,03,3.17,184.4,M,-34.4,M,,*54
$GPRMC,165925.000,A,4308.3040,N,07726.2444,W,0.32,342.43,050921,,,A*76
$GPGGA,165925.250,4308.3041,N,07726.2445,W,1,03,3.18,184.4,M,-34.4,M,,*51
$GPRMC,165925.500,A,4308.3042,N,07726.2446,W,0.29,347.53,050921,,,A*7D
$GPGGA,165925.750,4308.3042,N,07726.2447,W,1,03,47.47,184.4,M,-34.4,M,,*6F
$GPRMC,165926.000,A,4308.3043,N,07726.2448,W,0.28,8.75,050921,,,A*79
$GPGGA,165926.084,4308.3035,N,07726.2474,W,1,04,3.05,182.2,M,-3.4,M,,*53
$GPRMC,165926.500,A,4308.3031,N,07726.2489,W,0.18,347.28,050921,,,A*77
$GPGGA,165926.750,4308.3029,N,07726.2501,W,1,04,3.05,180.3,M,-34.4,M,,*50
$GPRMC,165927.000,A,4308.3029,N,07726.2507,W,0.23,345.56,050921,,,A*7E
$GPGGA,165927.250,4308.3028,N,07726.2514,W,1,04,3.05,179.2,M,-34.4,M,,*56
$GPRMC,165927.500,A,4308.3028,N,07726.2519,W,0.19,338.87,050921,,,A*7A
$GPGGA,165927.750,4308.3028,N,07726.2525,W,1,04,2.59,178.3,M,-34.4,M,,*59
$GPRMC,165928.000,A,4308.3028,N,07726.2529,W,0.21,318.95,050921,,,A*79
$GPGGA,165928.250,4308.3028,N,07726.2532,W,1,04,2.59,177.6,M,-34.4,M,,*5F
$GPRMC,165928.500,A,4308.3028,N,07726.2536,W,0.11,332.21,050921,,,A*76
$GPGGA,165928.750,4308.3028,N,07726.2539,W,1,04,2.59,176.9,M,-34.4,M,,*5F
$GPRMC,165929.000,A,4308.3028,N,07726.2542,W,0.12,318.97,050921,,,A*77
$GPGGA,165929.250,4308.3028,N,07726.2544,W,1,04,2.59,176.2,M,-34.4,M,,*5A
$GPRMC,165929.500,A,4308.3029,N,07726.2547,W,0.16,321.60,050921,,,A*70
$GPGGA,165929.750,4308.3029,N,07726.2551,W,1,04,2.59,175.6,M,-34.4,M,,*5D
$GPRMC,165930.000,A,4308.3030,N,07726.2554,W,0.22,316.96,050921,,,A*7D
$GPGGA,165930.250,4308.3030,N,07726.2557,W,1,04,2.59,175.0,M,-34.4,M,,*58
$GPRMC,165930.500,A,4308.3031,N,07726.2559,W,0.21,318.85,050921,,,A*7B
$GPGGA,165930.750,4308.3031,N,07726.2562,W,1,04,2.59,174.4,M,-34.4,M,,*5F
$GPRMC,165931.000,A,4308.3032,N,07726.2564,W,0.23,332.09,050921,,,A*7C
$GPGGA,165931.250,4308.3033,N,07726.2567,W,1,04,2.59,173.9,M,-34.4,M,,*56
$GPRMC,165931.500,A,4308.3033,N,07726.2570,W,0.34,333.73,050921,,,A*77
$GPGGA,165931.750,4308.3034,N,07726.2572,W,1,04,2.59,173.5,M,-34.4,M,,*5C
$GPRMC,165932.000,A,4308.3034,N,07726.2574,W,0.35,330.44,050921,,,A*74
$GPGGA,165932.250,4308.3035,N,07726.2579,W,1,05,1.74,173.0,M,-34.4,M,,*58
$GPRMC,165932.500,A,4308.3035,N,07726.2583,W,0.33,322.81,050921,,,A*74
$GPGGA,165932.750,4308.3036,N,07726.2587,W,1,05,1.74,172.5,M,-34.4,M,,*5B
$GPRMC,165933.000,A,4308.3037,N,07726.2590,W,0.38,323.83,050921,,,A*78
$GPGGA,165933.250,4308.3037,N,07726.2592,W,1,05,1.74,172.1,M,-34.4,M,,*5E
$GPRMC,165933.500,A,4308.3037,N,07726.2596,W,0.35,308.90,050921,,,A*7D
$GPGGA,165933.750,4308.3038,N,07726.2600,W,1,05,1.74,171.7,M,-34.4,M,,*59
$GPRMC,165934.000,A,4308.3038,N,07726.2603,W,0.35,302.47,050921,,,A*7F
$GPGGA,165934.250,4308.3038,N,07726.2606,W,1,05,1.74,171.3,M,-34.4,M,,*59
$GPRMC,165934.500,A,4308.3038,N,07726.2607,W,0.33,291.07,050921,,,A*77
$GPGGA,165934.750,4308.3038,N,07726.2609,W,1,05,1.74,171.0,M,-34.4,M,,*50
$GPRMC,165935.000,A,4308.3039,N,07726.2612,W,0.36,306.61,050921,,,A*7C
$GPGGA,165935.250,4308.3040,N,07726.2616,W,1,05,1.74,170.7,M,-34.4,M,,*53
$GPRMC,165935.500,A,4308.3041,N,07726.2618,W,0.45,313.53,050921,,,A*7D
$GPGGA,165935.750,4308.3042,N,07726.2622,W,1,05,1.74,170.4,M,-34.4,M,,*50
$GPRMC,165936.000,A,4308.3042,N,07726.2624,W,0.46,319.66,050921,,,A*78
$GPGGA,165936.250,4308.3043,N,07726.2627,W,1,05,1.74,170.1,M,-34.4,M,,*57
$GPRMC,165936.500,A,4308.3043,N,07726.2628,W,0.44,307.76,050921,,,A*7C
$GPGGA,165936.750,4308.3043,N,07726.2630,W,1,05,1.74,169.8,M,-34.4,M,,*55
$GPRMC,165937.000,A,4308.3044,N,07726.2632,W,0.42,302.82,050921,,,A*7C
$GPGGA,165937.250,4308.3044,N,07726.2633,W,1,05,1.74,169.6,M,-34.4,M,,*5B
$GPRMC,165937.500,A,4308.3044,N,07726.2633,W,0.31,310.96,050921,,,A*7A
$GPGGA,165937.750,4308.3044,N,07726.2634,W,1,05,1.74,169.4,M,-34.4,M,,*5B
$GPRMC,165938.000,A,4308.3044,N,07726.2634,W,0.21,314.65,050921,,,A*7E
$GPGGA,165938.250,4308.3044,N,07726.2634,W,1,05,1.74,169.3,M,-34.4,M,,*56
$GPRMC,165938.500,A,4308.3045,N,07726.2635,W,0.20,352.24,050921,,,A*7D
$GPGGA,165938.750,4308.3045,N,07726.2636,W,1,05,2.09,169.2,M,-34.4,M,,*58
$GPRMC,165939.000,A,4308.3045,N,07726.2637,W,0.21,350.84,050921,,,A*72
$GPGGA,165939.250,4308.3046,N,07726.2637,W,1,05,2.09,169.2,M,-34.4,M,,*5E
$GPRMC,165939.500,A,4308.3047,N,07726.2637,W,0.39,20.93,050921,,,A*4E
$GPGGA,165939.750,4308.3047,N,07726.2637,W,1,05,1.74,169.1,M,-34.4,M,,*50
$GPRMC,165940.000,A,4308.3048,N,07726.2636,W,0.60,22.86,050921,,,A*41
$GPGGA,165940.250,4308.3049,N,07726.2636,W,1,05,1.74,169.1,M,-34.4,M,,*54
$GPRMC,165940.500,A,4308.3050,N,07726.2636,W,0.71,20.44,050921,,,A*41
$GPGGA,165940.750,4308.3051,N,07726.2637,W,1,05,1.74,169.1,M,-34.4,M,,*59
$GPRMC,165941.000,A,4308.3052,N,07726.2637,W,0.96,16.19,050921,,,A*42
$GPGGA,165941.250,4308.3054,N,07726.2637,W,1,05,1.74,169.1,M,-34.4,M,,*58
$GPRMC,165941.500,A,4308.3055,N,07726.2637,W,1.16,15.71,050921,,,A*44
$GPGGA,165941.750,4308.3056,N,07726.2637,W,1,05,1.74,169.1,M,-34.4,M,,*5F
$GPRMC,165942.000,A,4308.3058,N,07726.2637,W,1.42,13.23,050921,,,A*4F
$GPGGA,165942.250,4308.3060,N,07726.2637,W,1,05,2.09,169.1,M,-34.4,M,,*55
$GPRMC,165942.500,A,4308.3062,N,07726.2637,W,1.58,10.32,050921,,,A*4B
$GPGGA,165942.750,4308.3063,N,07726.2637,W,1,05,2.09,169.1,M,-34.4,M,,*53
$GPRMC,165943.000,A,4308.3065,N,07726.2637,W,1.71,8.67,050921,,,A*7A
$GPGGA,165943.250,4308.3068,N,07726.2638,W,1,05,2.09,169.1,M,-34.4,M,,*53
$GPRMC,165943.500,A,4308.3070,N,07726.2638,W,1.99,5.05,050921,,,A*7B
$GPGGA,165943.750,4308.3072,N,07726.2638,W,1,05,2.09,169.1,M,-34.4,M,,*5D
$GPRMC,165944.000,A,4308.3075,N,07726.2638,W,2.79,1.83,050921,,,A*7B
$GPGGA,165944.250,4308.3078,N,07726.2637,W,1,05,2.09,169.0,M,-34.4,M,,*5B
$GPRMC,165944.500,A,4308.3080,N,07726.2637,W,3.60,4.89,050921,,,A*7D
$GPGGA,165944.750,4308.3083,N,07726.2636,W,1,05,2.09,168.9,M,-34.4,M,,*53
$GPRMC,165945.000,A,4308.3085,N,07726.2636,W,3.62,4.89,050921,,,A*7F
$GPGGA,165945.250,4308.3088,N,07726.2634,W,1,05,2.09,168.8,M,-34.4,M,,*5F
$GPRMC,165945.500,A,4308.3090,N,07726.2634,W,3.47,10.43,050921,,,A*48
$GPGGA,165945.750,4308.3093,N,07726.2633,W,1,05,2.09,168.8,M,-34.4,M,,*57
$GPRMC,165946.000,A,4308.3095,N,07726.2632,W,3.43,12.45,050921,,,A*4D
$GPGGA,165946.250,4308.3098,N,07726.2631,W,1,05,2.09,168.7,M,-34.4,M,,*57
$GPRMC,165946.500,A,4308.3100,N,07726.2630,W,3.32,16.58,050921,,,A*49
$GPGGA,165946.750,4308.3102,N,07726.2629,W,1,05,1.74,168.7,M,-34.4,M,,*50
$GPRMC,165947.000,A,4308.3103,N,07726.2628,W,2.88,17.14,050921,,,A*4E
$GPGGA,165947.250,4308.3105,N,07726.2628,W,1,05,1.74,168.7,M,-34.4,M,,*52
$GPRMC,165947.500,A,4308.3106,N,07726.2627,W,2.34,24.15,050921,,,A*47
$GPGGA,165947.750,4308.3107,N,07726.2626,W,1,05,1.74,168.7,M,-34.4,M,,*5B
$GPRMC,165948.000,A,4308.3108,N,07726.2627,W,1.61,20.26,050921,,,A*44
$GPGGA,165948.250,4308.3109,N,07726.2627,W,1,05,1.74,168.7,M,-34.4,M,,*5E
$GPRMC,165948.500,A,4308.3109,N,07726.2627,W,1.09,10.87,050921,,,A*46
$GPGGA,165948.750,4308.3110,N,07726.2628,W,1,05,2.09,168.6,M,-34.4,M,,*54
$GPRMC,165949.000,A,4308.3112,N,07726.2627,W,1.53,8.94,050921,,,A*7C
$GPGGA,165949.250,4308.3115,N,07726.2627,W,1,05,2.09,168.6,M,-34.4,M,,*5A
$GPRMC,165949.500,A,4308.3118,N,07726.2626,W,2.24,13.23,050921,,,A*47
$GPGGA,165949.750,4308.3120,N,07726.2626,W,1,05,2.09,168.6,M,-34.4,M,,*58
$GPRMC,165950.000,A,4308.3123,N,07726.2628,W,2.58,5.80,050921,,,A*79
$GPGGA,165950.250,4308.3125,N,07726.2625,W,1,05,2.09,168.4,M,-34.4,M,,*51
$GPRMC,165950.500,A,4308.3126,N,07726.2620,W,2.77,24.29,050921,,,A*4C
$GPGGA,165950.750,4308.3128,N,07726.2618,W,1,05,1.74,168.1,M,-34.4,M,,*5B
$GPRMC,165951.000,A,4308.3131,N,07726.2618,W,3.17,19.53,050921,,,A*41
$GPGGA,165951.250,4308.3133,N,07726.2616,W,1,05,1.74,167.8,M,-34.4,M,,*5D
$GPRMC,165951.500,A,4308.3135,N,07726.2616,W,3.04,25.59,050921,,,A*49
$GPGGA,165951.750,4308.3137,N,07726.2614,W,1,05,1.74,167.6,M,-34.4,M,,*50
$GPRMC,165952.000,A,4308.3140,N,07726.2613,W,3.28,31.25,050921,,,A*48
$GPGGA,165952.250,4308.3142,N,07726.2611,W,1,05,1.74,167.4,M,-34.4,M,,*53
$GPRMC,165952.500,A,4308.3144,N,07726.2609,W,3.56,37.36,050921,,,A*4F
$GPGGA,165952.750,4308.3145,N,07726.2607,W,1,05,1.74,167.2,M,-34.4,M,,*50
$GPRMC,165953.000,A,4308.3146,N,07726.2606,W,2.62,46.12,050921,,,A*40
$GPGGA,165953.250,4308.3147,N,07726.2606,W,1,05,1.74,166.9,M,-34.4,M,,*5D
$GPRMC,165953.500,A,4308.3147,N,07726.2605,W,1.46,51.86,050921,,,A*49
$GPGGA,165953.750,4308.3146,N,07726.2605,W,1,05,1.75,166.8,M,-34.4,M,,*5A
$GPRMC,165954.000,A,4308.3146,N,07726.2604,W,0.90,74.04,050921,,,A*4C
$GPGGA,165954.250,4308.3146,N,07726.2605,W,1,05,1.74,166.8,M,-34.4,M,,*59
$GPRMC,165954.500,A,4308.3146,N,07726.2606,W,0.14,80.76,050921,,,A*49
$GPGGA,165954.750,4308.3146,N,07726.2608,W,1,05,1.74,166.7,M,-34.4,M,,*5E
$GPRMC,165955.000,A,4308.3146,N,07726.2610,W,0.56,267.96,050921,,,A*79
$GPGGA,165955.250,4308.3146,N,07726.2614,W,1,05,1.75,166.7,M,-34.4,M,,*56
$GPRMC,165955.500,A,4308.3146,N,07726.2616,W,1.16,262.44,050921,,,A*75
$GPGGA,165955.750,4308.3146,N,07726.2618,W,1,05,1.75,166.7,M,-34.4,M,,*5F
$GPRMC,165956.000,A,4308.3146,N,07726.2622,W,1.51,262.82,050921,,,A*7D
$GPGGA,165956.250,4308.3147,N,07726.2627,W,1,05,1.75,166.6,M,-34.4,M,,*55
$GPRMC,165956.500,A,4308.3148,N,07726.2632,W,2.37,269.57,050921,,,A*77
$GPGGA,165956.750,4308.3148,N,07726.2636,W,1,05,1.74,166.5,M,-34.4,M,,*5D
$GPRMC,165957.000,A,4308.3148,N,07726.2641,W,3.91,263.51,050921,,,A*76
$GPGGA,165957.250,4308.3147,N,07726.2648,W,1,05,2.09,166.5,M,-34.4,M,,*56
$GPRMC,165957.500,A,4308.3147,N,07726.2655,W,5.97,263.83,050921,,,A*76
$GPGGA,165957.750,4308.3147,N,07726.2662,W,1,05,2.09,166.5,M,-34.4,M,,*5B
$GPRMC,165958.000,A,4308.3149,N,07726.2670,W,6.94,270.09,050921,,,A*75
$GPGGA,165958.250,4308.3151,N,07726.2678,W,1,05,2.08,166.4,M,-34.4,M,,*5D
$GPRMC,165958.500,A,4308.3152,N,07726.2687,W,8.09,276.63,050921,,,A*72
$GPGGA,165958.750,4308.3154,N,07726.2696,W,1,05,2.08,166.3,M,-34.4,M,,*5A
$GPRMC,165959.000,A,4308.3156,N,07726.2706,W,9.52,279.78,050921,,,A*70
$GPGGA,165959.250,4308.3159,N,07726.2717,W,1,05,2.09,166.3,M,-34.4,M,,*5A
$GPRMC,165959.500,A,4308.3161,N,07726.2728,W,10.94,282.59,050921,,,A*48
$GPGGA,165959.750,4308.3164,N,07726.2740,W,1,05,1.75,166.2,M,-34.4,M,,*5A
$GPRMC,170000.000,A,4308.3166,N,07726.2752,W,12.03,283.99,050921,,,A*47
$GPGGA,170000.250,4308.3169,N,07726.2764,W,1,05,2.09,166.1,M,-34.4,M,,*5E
$GPRMC,170000.500,A,4308.3173,N,07726.2776,W,12.78,285.58,050921,,,A*47
$GPGGA,170000.750,4308.3176,N,07726.2789,W,1,05,1.75,166.0,M,-34.4,M,,*5F
$GPRMC,170001.000,A,4308.3179,N,07726.2801,W,13.20,286.55,050921,,,A*44
$GPGGA,170001.250,4308.3182,N,07726.2814,W,1,05,2.09,165.9,M,-34.4,M,,*59
$GPRMC,170001.500,A,4308.3186,N,07726.2827,W,13.52,287.99,050921,,,A*41
$GPGGA,170001.750,4308.3190,N,07726.2840,W,1,05,1.75,165.8,M,-34.4,M,,*57
$GPRMC,170002.000,A,4308.3193,N,07726.2853,W,13.75,288.96,050921,,,A*45
$GPGGA,170002.250,4308.3198,N,07726.2865,W,1,05,1.75,165.7,M,-34.4,M,,*51
$GPRMC,170002.500,A,4308.3201,N,07726.2878,W,13.84,289.96,050921,,,A*4E
$GPGGA,170002.750,4308.3206,N,07726.2892,W,1,05,1.75,165.6,M,-34.4,M,,*59
$GPRMC,170003.000,A,4308.3211,N,07726.2905,W,14.33,291.93,050921,,,A*47
$GPGGA,170003.250,4308.3216,N,07726.2918,W,1,05,1.75,165.4,M,-34.4,M,,*5D
$GPRMC,170003.500,A,4308.3221,N,07726.2931,W,14.65,293.48,050921,,,A*41
$GPGGA,170003.750,4308.3225,N,07726.2945,W,1,05,1.75,165.3,M,-34.4,M,,*57
$GPRMC,170004.000,A,4308.3229,N,07726.2958,W,14.84,293.74,050921,,,A*44
$GPGGA,170004.250,4308.3233,N,07726.2971,W,1,05,1.75,165.1,M,-34.4,M,,*57
$GPRMC,170004.500,A,4308.3238,N,07726.2985,W,15.15,294.51,050921,,,A*48
$GPGGA,170004.750,4308.3243,N,07726.3000,W,1,05,1.75,165.0,M,-34.4,M,,*5A
$GPRMC,170005.000,A,4308.3249,N,07726.3015,W,15.84,295.37,050921,,,A*42
$GPGGA,170005.250,4308.3255,N,07726.3033,W,1,05,1.75,164.8,M,-34.4,M,,*50
$GPRMC,170005.500,A,4308.3261,N,07726.3049,W,16.68,296.77,050921,,,A*42
$GPGGA,170005.750,4308.3268,N,07726.3064,W,1,05,1.75,164.6,M,-34.4,M,,*57
$GPRMC,170006.000,A,4308.3276,N,07726.3081,W,17.52,298.96,050921,,,A*4F
$GPGGA,170006.250,4308.3284,N,07726.3098,W,1,05,2.08,164.5,M,-34.4,M,,*5A
$GPRMC,170006.500,A,4308.3292,N,07726.3115,W,18.49,300.31,050921,,,A*44
$GPGGA,170006.750,4308.3300,N,07726.3132,W,1,05,1.75,164.3,M,-34.4,M,,*5C
$GPRMC,170007.000,A,4308.3307,N,07726.3148,W,18.73,300.91,050921,,,A*46
$GPGGA,170007.250,4308.3315,N,07726.3164,W,1,05,2.08,164.1,M,-34.4,M,,*54
$GPRMC,170007.500,A,4308.3323,N,07726.3180,W,19.12,302.02,050921,,,A*4F
$GPGGA,170007.750,4308.3331,N,07726.3196,W,1,05,1.75,164.0,M,-34.4,M,,*52
$GPRMC,170008.000,A,4308.3340,N,07726.3211,W,19.45,303.09,050921,,,A*43
$GPGGA,170008.250,4308.3348,N,07726.3227,W,1,05,1.75,163.9,M,-34.4,M,,*51
$GPRMC,170008.500,A,4308.3356,N,07726.3243,W,19.67,304.01,050921,,,A*49
$GPGGA,170008.750,4308.3364,N,07726.3259,W,1,05,1.75,163.8,M,-34.4,M,,*52
$GPRMC,170009.000,A,4308.3372,N,07726.3274,W,19.89,304.47,050921,,,A*4D
$GPGGA,170009.250,4308.3380,N,07726.3290,W,1,05,2.08,163.8,M,-34.4,M,,*50
$GPRMC,170009.500,A,4308.3389,N,07726.3306,W,20.13,304.50,050921,,,A*47
$GPGGA,170009.750,4308.3397,N,07726.3322,W,1,05,1.75,163.7,M,-34.4,M,,*5D
$GPRMC,170010.000,A,4308.3405,N,07726.3339,W,20.48,304.51,050921,,,A*4A
$GPGGA,170010.250,4308.3414,N,07726.3356,W,1,05,1.75,163.6,M,-34.4,M,,*5E
$GPRMC,170010.500,A,4308.3422,N,07726.3373,W,20.89,304.03,050921,,,A*4E
$GPGGA,170010.750,4308.3431,N,07726.3390,W,1,05,1.75,163.6,M,-34.4,M,,*56
$GPRMC,170011.000,A,4308.3439,N,07726.3407,W,21.01,304.34,050921,,,A*41
$GPGGA,170011.250,4308.3448,N,07726.3424,W,1,05,2.08,163.5,M,-34.4,M,,*5E
$GPRMC,170011.500,A,4308.3457,N,07726.3440,W,21.24,304.79,050921,,,A*41
$GPGGA,170011.750,4308.3465,N,07726.3458,W,1,05,1.75,163.5,M,-34.4,M,,*56
$GPRMC,170012.000,A,4308.3474,N,07726.3475,W,21.48,304.92,050921,,,A*4F
$GPGGA,170012.250,4308.3483,N,07726.3492,W,1,05,2.08,163.5,M,-34.4,M,,*57
$GPRMC,170012.500,A,4308.3491,N,07726.3510,W,21.56,304.65,050921,,,A*44
$GPGGA,170012.750,4308.3500,N,07726.3527,W,1,05,1.75,163.4,M,-34.4,M,,*5F
$GPRMC,170013.000,A,4308.3509,N,07726.3544,W,21.59,305.02,050921,,,A*4E
$GPGGA,170013.250,4308.3518,N,07726.3559,W,1,05,1.75,163.3,M,-34.4,M,,*5C
$GPRMC,170013.500,A,4308.3528,N,07726.3575,W,21.34,308.38,050921,,,A*45
$GPGGA,170013.750,4308.3538,N,07726.3590,W,1,05,1.75,163.2,M,-34.4,M,,*5F
$GPRMC,170014.000,A,4308.3548,N,07726.3606,W,21.36,310.40,050921,,,A*42
$GPGGA,170014.250,4308.3559,N,07726.3622,W,1,05,2.09,163.1,M,-34.4,M,,*5B
$GPRMC,170014.500,A,4308.3570,N,07726.3636,W,21.41,312.72,050921,,,A*4C
$GPGGA,170014.750,4308.3581,N,07726.3650,W,1,05,1.75,163.1,M,-34.4,M,,*56
$GPRMC,170015.000,A,4308.3592,N,07726.3665,W,21.20,314.48,050921,,,A*4A
$GPGGA,170015.250,4308.3604,N,07726.3678,W,1,05,2.08,163.0,M,-34.4,M,,*5E
$GPRMC,170015.500,A,4308.3615,N,07726.3691,W,21.10,317.06,050921,,,A*42
$GPGGA,170015.750,4308.3626,N,07726.3703,W,1,05,1.75,163.0,M,-34.4,M,,*5F
$GPRMC,170016.000,A,4308.3637,N,07726.3715,W,20.57,318.80,050921,,,A*4A
$GPGGA,170016.250,4308.3649,N,07726.3726,W,1,05,1.75,162.9,M,-34.4,M,,*5F
$GPRMC,170016.500,A,4308.3662,N,07726.3735,W,20.19,323.60,050921,,,A*41
$GPGGA,170016.750,4308.3674,N,07726.3741,W,1,05,1.75,162.7,M,-34.4,M,,*5B
$GPRMC,170017.000,A,4308.3687,N,07726.3747,W,19.64,330.55,050921,,,A*4F
$GPGGA,170017.250,4308.3699,N,07726.3754,W,1,05,2.08,162.5,M,-34.4,M,,*53
$GPRMC,170017.500,A,4308.3711,N,07726.3761,W,19.25,333.24,050921,,,A*40
$GPGGA,170017.750,4308.3723,N,07726.3768,W,1,05,1.75,162.4,M,-34.4,M,,*51
$GPRMC,170018.000,A,4308.3735,N,07726.3775,W,18.70,335.08,050921,,,A*40
$GPGGA,170018.250,4308.3747,N,07726.3782,W,1,05,2.08,162.2,M,-34.4,M,,*52
$GPRMC,170018.500,A,4308.3759,N,07726.3787,W,18.35,337.95,050921,,,A*45
$GPGGA,170018.750,4308.3772,N,07726.3793,W,1,05,1.75,162.1,M,-34.4,M,,*5B
$GPRMC,170019.000,A,4308.3786,N,07726.3796,W,18.31,342.44,050921,,,A*49
$GPGGA,170019.250,4308.3799,N,07726.3797,W,1,05,1.75,162.1,M,-34.4,M,,*5E
$GPRMC,170019.500,A,4308.3813,N,07726.3800,W,18.42,347.19,050921,,,A*46
$GPGGA,170019.750,4308.3825,N,07726.3801,W,1,05,2.08,162.2,M,-34.4,M,,*59
$GPRMC,170020.000,A,4308.3838,N,07726.3801,W,18.38,351.42,050921,,,A*45
$GPGGA,170020.250,4308.3852,N,07726.3801,W,1,05,2.09,162.2,M,-34.4,M,,*57
$GPRMC,170020.500,A,4308.3866,N,07726.3801,W,18.88,354.54,050921,,,A*42
$GPGGA,170020.750,4308.3881,N,07726.3801,W,1,05,2.08,162.2,M,-34.4,M,,*5D
$GPRMC,170021.000,A,4308.3896,N,07726.3800,W,19.80,357.88,050921,,,A*43
$GPGGA,170021.250,4308.3911,N,07726.3799,W,1,05,2.08,162.2,M,-34.4,M,,*5F
$GPRMC,170021.500,A,4308.3926,N,07726.3796,W,20.60,1.56,050921,,,A*4B
$GPGGA,170021.750,4308.3940,N,07726.3793,W,1,05,2.08,162.3,M,-34.4,M,,*55
$GPRMC,170022.000,A,4308.3954,N,07726.3788,W,20.81,4.48,050921,,,A*42
$GPGGA,170022.250,4308.3968,N,07726.3782,W,1,05,2.09,162.5,M,-34.4,M,,*5E
$GPRMC,170022.500,A,4308.3982,N,07726.3777,W,21.08,8.16,050921,,,A*4B
$GPGGA,170022.750,4308.3997,N,07726.3772,W,1,05,2.09,162.6,M,-34.4,M,,*57
$GPRMC,170023.000,A,4308.4012,N,07726.3767,W,21.31,9.55,050921,,,A*45
$GPGGA,170023.250,4308.4026,N,07726.3761,W,1,05,2.08,162.7,M,-34.4,M,,*55
$GPRMC,170023.500,A,4308.4041,N,07726.3756,W,21.35,10.22,050921,,,A*78
$GPGGA,170023.750,4308.4055,N,07726.3751,W,1,05,2.08,162.7,M,-34.4,M,,*57
$GPRMC,170024.000,A,4308.4069,N,07726.3746,W,20.88,10.13,050921,,,A*74
$GPGGA,170024.250,4308.4083,N,07726.3741,W,1,05,2.08,162.9,M,-34.4,M,,*51
$GPRMC,170024.500,A,4308.4097,N,07726.3736,W,20.51,10.80,050921,,,A*79
$GPGGA,170024.750,4308.4111,N,07726.3731,W,1,05,2.08,163.0,M,-34.4,M,,*51
$GPRMC,170025.000,A,4308.4125,N,07726.3726,W,20.48,11.12,050921,,,A*76
$GPGGA,170025.250,4308.4139,N,07726.3722,W,1,05,2.08,163.2,M,-34.4,M,,*5F
$GPRMC,170025.500,A,4308.4153,N,07726.3717,W,20.48,10.71,050921,,,A*74
$GPGGA,170025.750,4308.4167,N,07726.3712,W,1,05,2.08,163.3,M,-34.4,M,,*53
$GPRMC,170026.000,A,4308.4181,N,07726.3708,W,20.46,10.62,050921,,,A*7F
$GPGGA,170026.250,4308.4195,N,07726.3704,W,1,05,2.08,163.3,M,-34.4,M,,*5F
$GPRMC,170026.500,A,4308.4208,N,07726.3699,W,20.30,10.27,050921,,,A*71
$GPGGA,170026.750,4308.4221,N,07726.3694,W,1,05,2.08,163.4,M,-34.4,M,,*59
$GPRMC,170027.000,A,4308.4235,N,07726.3689,W,20.20,10.30,050921,,,A*7D
$GPGGA,170027.250,4308.4248,N,07726.3685,W,1,05,2.08,163.4,M,-34.4,M,,*52
$GPRMC,170027.500,A,4308.4261,N,07726.3681,W,19.91,10.14,050921,,,A*77
$GPGGA,170027.750,4308.4274,N,07726.3676,W,1,05,2.08,163.5,M,-34.4,M,,*55
$GPRMC,170028.000,A,4308.4287,N,07726.3672,W,19.65,10.06,050921,,,A*71
$GPGGA,170028.250,4308.4300,N,07726.3668,W,1,05,2.08,163.5,M,-34.4,M,,*52
$GPRMC,170028.500,A,4308.4312,N,07726.3664,W,19.41,10.20,050921,,,A*7C
$GPGGA,170028.750,4308.4325,N,07726.3660,W,1,05,2.08,163.6,M,-34.4,M,,*5B
$GPRMC,170029.000,A,4308.4338,N,07726.3656,W,19.12,10.38,050921,,,A*7E
$GPGGA,170029.250,4308.4351,N,07726.3652,W,1,05,2.09,163.5,M,-34.4,M,,*5F
$GPRMC,170029.500,A,4308.4363,N,07726.3648,W,18.90,10.40,050921,,,A*7E
$GPGGA,170029.750,4308.4375,N,07726.3645,W,1,05,2.08,163.6,M,-34.4,M,,*58
$GPRMC,170030.000,A,4308.4388,N,07726.3642,W,18.30,9.51,050921,,,A*4E
$GPGGA,170030.250,4308.4400,N,07726.3639,W,1,05,2.09,163.6,M,-34.4,M,,*5A
$GPRMC,170030.500,A,4308.4412,N,07726.3636,W,17.68,9.24,050921,,,A*4C
$GPGGA,170030.750,4308.4424,N,07726.3633,W,1,05,2.08,163.6,M,-34.4,M,,*52
$GPRMC,170031.000,A,4308.4435,N,07726.3630,W,17.19,8.93,050921,,,A*40
$GPGGA,170031.250,4308.4447,N,07726.3628,W,1,05,2.08,163.7,M,-34.4,M,,*58
$GPRMC,170031.500,A,4308.4458,N,07726.3625,W,16.51,8.67,050921,,,A*4C
$GPGGA,170031.750,4308.4469,N,07726.3622,W,1,05,2.08,163.8,M,-34.4,M,,*54
$GPRMC,170032.000,A,4308.4479,N,07726.3620,W,15.60,8.58,050921,,,A*41
$GPGGA,170032.250,4308.4488,N,07726.3617,W,1,05,2.08,163.8,M,-34.4,M,,*5B
$GPRMC,170032.500,A,4308.4497,N,07726.3615,W,14.07,8.54,050921,,,A*4E
$GPGGA,170032.750,4308.4505,N,07726.3612,W,1,05,2.08,163.9,M,-34.4,M,,*5E
$GPRMC,170033.000,A,4308.4514,N,07726.3610,W,12.74,8.92,050921,,,A*4D
$GPGGA,170033.250,4308.4520,N,07726.3607,W,1,05,2.08,164.0,M,-34.4,M,,*57
$GPRMC,170033.500,A,4308.4527,N,07726.3605,W,10.94,8.06,050921,,,A*4D
$GPGGA,170033.750,4308.4534,N,07726.3604,W,1,05,2.08,164.0,M,-34.4,M,,*54
$GPRMC,170034.000,A,4308.4540,N,07726.3602,W,9.62,7.15,050921,,,A*75
$GPGGA,170034.250,4308.4545,N,07726.3601,W,1,05,2.08,164.1,M,-34.4,M,,*54
$GPRMC,170034.500,A,4308.4550,N,07726.3600,W,8.03,5.16,050921,,,A*74
$GPGGA,170034.750,4308.4553,N,07726.3600,W,1,05,2.08,164.1,M,-34.4,M,,*57
$GPRMC,170035.000,A,4308.4556,N,07726.3599,W,5.88,0.63,050921,,,A*7C
$GPGGA,170035.250,4308.4558,N,07726.3599,W,1,05,2.08,164.1,M,-34.4,M,,*5B
$GPRMC,170035.500,A,4308.4560,N,07726.3599,W,4.12,355.16,050921,,,A*7F
$GPGGA,170035.750,4308.4561,N,07726.3599,W,1,05,2.08,164.1,M,-34.4,M,,*54
$GPRMC,170036.000,A,4308.4563,N,07726.3599,W,2.94,346.00,050921,,,A*77
$GPGGA,170036.250,4308.4564,N,07726.3600,W,1,05,2.08,164.1,M,-34.4,M,,*54
$GPRMC,170036.500,A,4308.4566,N,07726.3600,W,2.55,346.00,050921,,,A*79
$GPGGA,170036.750,4308.4567,N,07726.3601,W,1,05,1.75,164.2,M,-34.4,M,,*59
$GPRMC,170037.000,A,4308.4569,N,07726.3602,W,2.54,346.00,050921,,,A*71
$GPGGA,170037.250,4308.4570,N,07726.3601,W,1,05,1.75,164.3,M,-34.4,M,,*5A
$GPRMC,170037.500,A,4308.4572,N,07726.3601,W,2.56,346.00,050921,,,A*7F
$GPGGA,170037.750,4308.4574,N,07726.3602,W,1,05,2.08,164.4,M,-34.4,M,,*56
$GPRMC,170038.000,A,4308.4577,N,07726.3603,W,3.41,348.74,050921,,,A*78
$GPGGA,170038.250,4308.4581,N,07726.3604,W,1,05,2.08,164.4,M,-34.4,M,,*50
$GPRMC,170038.500,A,4308.4585,N,07726.3607,W,4.87,345.17,050921,,,A*71
$GPGGA,170038.750,4308.4590,N,07726.3609,W,1,05,2.08,164.5,M,-34.4,M,,*59
$GPRMC,170039.000,A,4308.4594,N,07726.3611,W,5.38,341.50,050921,,,A*70
$GPGGA,170039.250,4308.4597,N,07726.3613,W,1,05,2.08,164.6,M,-34.4,M,,*52
$GPRMC,170039.500,A,4308.4602,N,07726.3617,W,5.79,335.48,050921,,,A*70
$GPGGA,170039.750,4308.4605,N,07726.3620,W,1,05,1.75,164.7,M,-34.4,M,,*57
$GPRMC,170040.000,A,4308.4610,N,07726.3627,W,6.54,324.10,050921,,,A*7A
$GPGGA,170040.250,4308.4613,N,07726.3632,W,1,05,2.08,164.8,M,-34.4,M,,*5E
$GPRMC,170040.500,A,4308.4616,N,07726.3640,W,7.22,309.63,050921,,,A*73
$GPGGA,170040.750,4308.4620,N,07726.3649,W,1,05,1.75,164.9,M,-34.4,M,,*5F
$GPRMC,170041.000,A,4308.4623,N,07726.3657,W,8.34,302.17,050921,,,A*77
$GPGGA,170041.250,4308.4627,N,07726.3665,W,1,05,2.08,164.9,M,-34.4,M,,*5B
$GPRMC,170041.500,A,4308.4631,N,07726.3675,W,9.15,298.76,050921,,,A*76
$GPGGA,170041.750,4308.4634,N,07726.3685,W,1,05,1.75,164.8,M,-34.4,M,,*5A
$GPRMC,170042.000,A,4308.4636,N,07726.3696,W,10.18,291.45,050921,,,A*46
$GPGGA,170042.250,4308.4638,N,07726.3707,W,1,05,1.76,164.8,M,-34.4,M,,*58
$GPRMC,170042.500,A,4308.4639,N,07726.3719,W,11.17,284.58,050921,,,A*4C
$GPGGA,170042.750,4308.4641,N,07726.3731,W,1,05,1.75,164.8,M,-34.4,M,,*55
$GPRMC,170043.000,A,4308.4642,N,07726.3744,W,11.89,280.10,050921,,,A*43
$GPGGA,170043.250,4308.4643,N,07726.3756,W,1,05,2.08,164.7,M,-34.4,M,,*54
$GPRMC,170043.500,A,4308.4644,N,07726.3769,W,12.42,278.28,050921,,,A*47
$GPGGA,170043.750,4308.4645,N,07726.3781,W,1,05,1.75,164.7,M,-34.4,M,,*54
$GPRMC,170044.000,A,4308.4647,N,07726.3794,W,12.76,277.37,050921,,,A*42
$GPGGA,170044.250,4308.4648,N,07726.3807,W,1,05,1.75,164.7,M,-34.4,M,,*5A
$GPRMC,170044.500,A,4308.4649,N,07726.3820,W,13.24,276.15,050921,,,A*4E
$GPGGA,170044.750,4308.4650,N,07726.3833,W,1,05,1.76,164.8,M,-34.4,M,,*5D
$GPRMC,170045.000,A,4308.4651,N,07726.3846,W,13.53,275.52,050921,,,A*43
$GPGGA,170045.250,4308.4652,N,07726.3860,W,1,05,1.75,164.8,M,-34.4,M,,*5E
$GPRMC,170045.500,A,4308.4653,N,07726.3873,W,13.80,275.00,050921,,,A*4B
$GPGGA,170045.750,4308.4655,N,07726.3888,W,1,05,1.76,164.8,M,-34.4,M,,*59
$GPRMC,170046.000,A,4308.4656,N,07726.3903,W,14.38,274.80,050921,,,A*43
$GPGGA,170046.250,4308.4657,N,07726.3919,W,1,05,1.76,164.9,M,-34.4,M,,*55
$GPRMC,170046.500,A,4308.4658,N,07726.3936,W,15.38,273.63,050921,,,A*45
$GPGGA,170046.750,4308.4660,N,07726.3953,W,1,05,1.76,165.1,M,-34.4,M,,*53
$GPRMC,170047.000,A,4308.4661,N,07726.3971,W,16.33,273.25,050921,,,A*42
$GPGGA,170047.250,4308.4663,N,07726.3990,W,1,05,1.76,165.2,M,-34.4,M,,*58
$GPRMC,170047.500,A,4308.4664,N,07726.4009,W,17.34,272.87,050921,,,A*4C
$GPGGA,170047.750,4308.4665,N,07726.4028,W,1,05,1.76,165.3,M,-34.4,M,,*57
$GPRMC,170048.000,A,4308.4666,N,07726.4046,W,17.96,272.17,050921,,,A*4E
$GPGGA,170048.250,4308.4666,N,07726.4064,W,1,05,2.08,165.5,M,-34.4,M,,*5A
$GPRMC,170048.500,A,4308.4665,N,07726.4082,W,18.25,271.39,050921,,,A*48
$GPGGA,170048.750,4308.4665,N,07726.4099,W,1,05,1.76,165.6,M,-34.4,M,,*57
$GPRMC,170049.000,A,4308.4665,N,07726.4118,W,18.62,270.99,050921,,,A*46
$GPGGA,170049.250,4308.4666,N,07726.4137,W,1,05,1.76,165.7,M,-34.4,M,,*54
$GPRMC,170049.500,A,4308.4667,N,07726.4156,W,18.94,271.59,050921,,,A*4F
$GPGGA,170049.750,4308.4668,N,07726.4175,W,1,05,1.76,165.8,M,-34.4,M,,*56
$GPRMC,170050.000,A,4308.4669,N,07726.4194,W,19.08,272.56,050921,,,A*4A
$GPGGA,170050.250,4308.4670,N,07726.4212,W,1,05,1.76,165.9,M,-34.4,M,,*51
$GPRMC,170050.500,A,4308.4672,N,07726.4231,W,19.04,274.03,050921,,,A*43
$GPGGA,170050.750,4308.4674,N,07726.4250,W,1,05,1.76,165.9,M,-34.4,M,,*56
$GPRMC,170051.000,A,4308.4676,N,07726.4267,W,18.90,275.10,050921,,,A*4F
$GPGGA,170051.250,4308.4678,N,07726.4286,W,1,05,2.08,165.9,M,-34.4,M,,*5F
$GPRMC,170051.500,A,4308.4683,N,07726.4305,W,18.97,277.69,050921,,,A*4E
$GPGGA,170051.750,4308.4687,N,07726.4324,W,1,05,2.08,165.9,M,-34.4,M,,*53
$GPRMC,170052.000,A,4308.4691,N,07726.4342,W,19.03,280.20,050921,,,A*41
$GPGGA,170052.250,4308.4695,N,07726.4360,W,1,05,2.08,165.9,M,-34.4,M,,*56
$GPRMC,170052.500,A,4308.4698,N,07726.4378,W,19.02,281.34,050921,,,A*41
$GPGGA,170052.750,4308.4700,N,07726.4396,W,1,05,1.76,166.0,M,-34.4,M,,*57
$GPRMC,170053.000,A,4308.4703,N,07726.4415,W,19.26,281.12,050921,,,A*48
$GPGGA,170053.250,4308.4705,N,07726.4434,W,1,05,2.08,166.0,M,-34.4,M,,*53
$GPRMC,170053.500,A,4308.4707,N,07726.4452,W,19.53,279.85,050921,,,A*41
$GPGGA,170053.750,4308.4708,N,07726.4471,W,1,05,2.08,166.0,M,-34.4,M,,*5A
$GPRMC,170054.000,A,4308.4710,N,07726.4490,W,19.58,278.91,050921,,,A*44
$GPGGA,170054.250,4308.4711,N,07726.4510,W,1,05,2.08,166.0,M,-34.4,M,,*56
$GPRMC,170054.500,A,4308.4712,N,07726.4530,W,20.25,276.76,050921,,,A*4F
$GPGGA,170054.750,4308.4713,N,07726.4550,W,1,05,2.08,166.0,M,-34.4,M,,*55
$GPRMC,170055.000,A,4308.4713,N,07726.4570,W,20.55,273.57,050921,,,A*4F
$GPGGA,170055.250,4308.4714,N,07726.4590,W,1,05,2.08,166.0,M,-34.4,M,,*5A
$GPRMC,170055.500,A,4308.4715,N,07726.4613,W,21.64,271.91,050921,,,A*41
$GPGGA,170055.750,4308.4716,N,07726.4635,W,1,05,2.08,166.0,M,-34.4,M,,*51
$GPRMC,170056.000,A,4308.4718,N,07726.4658,W,22.42,271.76,050921,,,A*4B
$GPGGA,170056.250,4308.4719,N,07726.4681,W,1,05,2.08,166.1,M,-34.4,M,,*56
$GPRMC,170056.500,A,4308.4720,N,07726.4704,W,23.25,272.19,050921,,,A*47
$GPGGA,170056.750,4308.4721,N,07726.4727,W,1,05,1.76,166.1,M,-34.4,M,,*5F
$GPRMC,170057.000,A,4308.4722,N,07726.4750,W,23.93,272.77,050921,,,A*45
$GPGGA,170057.250,4308.4724,N,07726.4775,W,1,05,2.08,166.3,M,-34.4,M,,*51
$GPRMC,170057.500,A,4308.4726,N,07726.4800,W,25.06,273.87,050921,,,A*4A
$GPGGA,170057.750,4308.4728,N,07726.4825,W,1,05,2.08,166.4,M,-34.4,M,,*55
$GPRMC,170058.000,A,4308.4731,N,07726.4850,W,25.60,275.31,050921,,,A*48
$GPGGA,170058.250,4308.4734,N,07726.4876,W,1,05,2.08,166.4,M,-34.4,M,,*54
$GPRMC,170058.500,A,4308.4737,N,07726.4901,W,26.26,276.61,050921,,,A*49
$GPGGA,170058.750,4308.4739,N,07726.4926,W,1,05,2.08,166.6,M,-34.4,M,,*5A
$GPRMC,170059.000,A,4308.4741,N,07726.4952,W,26.67,276.65,050921,,,A*4B
$GPGGA,170059.250,4308.4744,N,07726.4977,W,1,05,2.08,166.7,M,-34.4,M,,*51
$GPRMC,170059.500,A,4308.4746,N,07726.5003,W,26.64,277.05,050921,,,A*41
$GPGGA,170059.750,4308.4749,N,07726.5030,W,1,05,2.08,166.6,M,-34.4,M,,*53
$GPRMC,170100.000,A,4308.4752,N,07726.5056,W,26.73,276.68,050921,,,A*40
$GPGGA,170100.250,4308.4754,N,07726.5083,W,1,05,2.08,166.5,M,-34.4,M,,*5C
$GPRMC,170100.500,A,4308.4757,N,07726.5110,W,26.80,275.31,050921,,,A*40
$GPGGA,170100.750,4308.4758,N,07726.5136,W,1,05,1.76,166.4,M,-34.4,M,,*51
$GPRMC,170101.000,A,4308.4760,N,07726.5163,W,26.88,274.78,050921,,,A*40
$GPGGA,170101.250,4308.4762,N,07726.5190,W,1,05,2.08,166.4,M,-34.4,M,,*5A
$GPRMC,170101.500,A,4308.4764,N,07726.5217,W,26.99,274.40,050921,,,A*4A
$GPGGA,170101.750,4308.4765,N,07726.5244,W,1,05,2.08,166.3,M,-34.4,M,,*55
$GPRMC,170102.000,A,4308.4767,N,07726.5273,W,27.13,273.84,050921,,,A*41
$GPGGA,170102.250,4308.4770,N,07726.5301,W,1,05,2.08,166.2,M,-34.4,M,,*56
$GPRMC,170102.500,A,4308.4771,N,07726.5329,W,28.37,273.58,050921,,,A*45
$GPGGA,170102.750,4308.4773,N,07726.5358,W,1,05,2.08,166.0,M,-34.4,M,,*5E
$GPRMC,170103.000,A,4308.4774,N,07726.5386,W,28.81,273.03,050921,,,A*42
$GPGGA,170103.250,4308.4776,N,07726.5415,W,1,05,2.08,165.9,M,-34.4,M,,*5B
$GPRMC,170103.500,A,4308.4777,N,07726.5444,W,29.10,272.79,050921,,,A*48
$GPGGA,170103.750,4308.4778,N,07726.5473,W,1,05,1.76,165.8,M,-34.4,M,,*5B
$GPRMC,170104.000,A,4308.4780,N,07726.5501,W,29.37,272.72,050921,,,A*4C
$GPGGA,170104.250,4308.4782,N,07726.5530,W,1,05,2.08,165.7,M,-34.4,M,,*5F
$GPRMC,170104.500,A,4308.4783,N,07726.5559,W,29.63,273.25,050921,,,A*45
$GPGGA,170104.750,4308.4784,N,07726.5589,W,1,05,2.08,165.5,M,-34.4,M,,*5C
$GPRMC,170105.000,A,4308.4786,N,07726.5618,W,29.95,273.24,050921,,,A*4A
$GPGGA,170105.250,4308.4788,N,07726.5649,W,1,05,2.08,165.4,M,-34.4,M,,*5A
$GPRMC,170105.500,A,4308.4789,N,07726.5678,W,30.26,273.45,050921,,,A*41
$GPGGA,170105.750,4308.4791,N,07726.5708,W,1,05,2.08,165.2,M,-34.4,M,,*55
$GPRMC,170106.000,A,4308.4792,N,07726.5738,W,30.69,273.03,050921,,,A*41
$GPGGA,170106.250,4308.4793,N,07726.5767,W,1,05,2.08,165.1,M,-34.4,M,,*5B
$GPRMC,170106.500,A,4308.4795,N,07726.5797,W,30.92,272.88,050921,,,A*40
$GPGGA,170106.750,4308.4796,N,07726.5827,W,1,05,1.76,165.2,M,-34.4,M,,*59
$GPRMC,170107.000,A,4308.4797,N,07726.5857,W,31.16,272.52,050921,,,A*4F
$GPGGA,170107.250,4308.4798,N,07726.5887,W,1,05,2.08,165.2,M,-34.4,M,,*53
$GPRMC,170107.500,A,4308.4798,N,07726.5916,W,31.45,272.17,050921,,,A*46
$GPGGA,170107.750,4308.4799,N,07726.5946,W,1,05,1.76,165.3,M,-34.4,M,,*50
$GPRMC,170108.000,A,4308.4800,N,07726.5976,W,31.57,272.32,050921,,,A*40
$GPGGA,170106.250,4308.4802,N,07726.6007,W,1,05,2.08,165.4,M,-34.4,M,,*5B
$GPRMC,170106.500,A,4308.4802,N,07726.6037,W,31.84,272.46,050921,,,A*4B
$GPGGA,170106.750,4308.4804,N,07726.6067,W,1,05,1.76,165.5,M,-34.4,M,,*55
$GPRMC,170107.000,A,4308.4805,N,07726.6097,W,31.86,272.30,050921,,,A*41
$GPGGA,170107.250,4308.4805,N,07726.6127,W,1,05,2.08,165.7,M,-34.4,M,,*5D
$GPRMC,170107.500,A,4308.4805,N,07726.6156,W,31.64,271.53,050921,,,A*42
$GPGGA,170107.750,4308.4804,N,07726.6186,W,1,05,1.76,165.8,M,-34.4,M,,*57
$GPRMC,170108.000,A,4308.4804,N,07726.6216,W,31.70,270.58,050921,,,A*41
$GPGGA,170108.250,4308.4803,N,07726.6245,W,1,05,2.08,165.8,M,-34.4,M,,*5C
$GPRMC,170108.500,A,4308.4803,N,07726.6275,W,31.64,270.35,050921,,,A*48
$GPGGA,170108.750,4308.4803,N,07726.6305,W,1,05,1.76,166.0,M,-34.4,M,,*5D
$GPRMC,170109.000,A,4308.4802,N,07726.6335,W,31.60,270.08,050921,,,A*42
$GPGGA,170109.250,4308.4802,N,07726.6364,W,1,05,1.76,166.1,M,-34.4,M,,*5E
$GPRMC,170109.500,A,4308.4802,N,07726.6394,W,31.53,269.45,050921,,,A*4D
$GPGGA,170109.750,4308.4801,N,07726.6424,W,1,05,1.76,166.3,M,-34.4,M,,*59
$GPRMC,170110.000,A,4308.4801,N,07726.6453,W,31.55,268.88,050921,,,A*49
$GPGGA,170110.250,4308.4800,N,07726.6483,W,1,05,2.08,166.4,M,-34.4,M,,*55
$GPRMC,170110.500,A,4308.4799,N,07726.6512,W,31.57,268.45,050921,,,A*45
$GPGGA,170110.750,4308.4799,N,07726.6542,W,1,05,1.76,166.5,M,-34.4,M,,*58
$GPRMC,170111.000,A,4308.4798,N,07726.6571,W,31.57,268.02,050921,,,A*46
$GPGGA,170111.250,4308.4797,N,07726.6601,W,1,05,1.76,166.7,M,-34.4,M,,*54
$GPRMC,170111.500,A,4308.4796,N,07726.6630,W,31.57,267.68,050921,,,A*48
$GPGGA,170111.750,4308.4795,N,07726.6660,W,1,05,1.76,166.8,M,-34.4,M,,*5B
$GPRMC,170112.000,A,4308.4793,N,07726.6690,W,31.54,267.23,050921,,,A*4D
$GPGGA,170112.250,4308.4792,N,07726.6719,W,1,05,1.76,166.9,M,-34.4,M,,*54
$GPRMC,170112.500,A,4308.4791,N,07726.6750,W,31.71,266.81,050921,,,A*49
$GPGGA,170112.750,4308.4789,N,07726.6780,W,1,05,1.76,167.0,M,-34.4,M,,*53
$GPRMC,170113.000,A,4308.4788,N,07726.6810,W,31.90,266.62,050921,,,A*4C
$GPGGA,170113.250,4308.4787,N,07726.6841,W,1,05,2.08,167.2,M,-34.4,M,,*53
$GPRMC,170113.500,A,4308.4785,N,07726.6872,W,32.03,266.54,050921,,,A*4C
$GPGGA,170113.750,4308.4782,N,07726.6902,W,1,05,1.76,167.3,M,-34.4,M,,*5E
$GPRMC,170114.000,A,4308.4780,N,07726.6933,W,32.30,266.17,050921,,,A*48
$GPGGA,170114.250,4308.4778,N,07726.6964,W,1,05,2.08,167.4,M,-34.4,M,,*54
$GPRMC,170114.500,A,4308.4777,N,07726.6995,W,32.37,266.80,050921,,,A*40
$GPGGA,170114.750,4308.4775,N,07726.7027,W,1,05,1.76,167.6,M,-34.4,M,,*5B
$GPRMC,170115.000,A,4308.4774,N,07726.7058,W,32.43,267.02,050921,,,A*46
$GPGGA,170115.250,4308.4773,N,07726.7089,W,1,05,2.08,167.7,M,-34.4,M,,*56
$GPRMC,170115.500,A,4308.4771,N,07726.7120,W,32.46,266.04,050921,,,A*4A
$GPGGA,170115.750,4308.4770,N,07726.7150,W,1,05,1.76,167.8,M,-34.4,M,,*50
$GPRMC,170116.000,A,4308.4768,N,07726.7181,W,32.45,266.29,050921,,,A*43
$GPGGA,170116.250,4308.4766,N,07726.7211,W,1,05,2.08,168.0,M,-34.4,M,,*5A
$GPRMC,170116.500,A,4308.4763,N,07726.7240,W,32.37,265.76,050921,,,A*4F
$GPGGA,170116.750,4308.4761,N,07726.7271,W,1,05,1.76,168.1,M,-34.4,M,,*55
$GPRMC,170117.000,A,4308.4759,N,07726.7301,W,31.90,265.60,050921,,,A*4F
$GPGGA,170117.250,4308.4757,N,07726.7331,W,1,05,2.08,168.2,M,-34.4,M,,*58
$GPRMC,170117.500,A,4308.4755,N,07726.7362,W,31.70,265.24,050921,,,A*4D
$GPGGA,170117.750,4308.4753,N,07726.7393,W,1,05,2.08,168.4,M,-34.4,M,,*57
$GPRMC,170118.000,A,4308.4751,N,07726.7423,W,31.71,265.17,050921,,,A*40
$GPGGA,170118.250,4308.4748,N,07726.7451,W,1,06,2.05,168.5,M,-34.4,M,,*51
$GPRMC,170118.500,A,4308.4746,N,07726.7481,W,31.45,265.24,050921,,,A*4C
$GPGGA,170118.750,4308.4744,N,07726.7510,W,1,06,2.05,168.7,M,-34.4,M,,*5E
$GPRMC,170119.000,A,4308.4742,N,07726.7540,W,31.39,265.37,050921,,,A*49
$GPGGA,170119.250,4308.4739,N,07726.7569,W,1,06,2.05,168.9,M,-34.4,M,,*50
$GPRMC,170119.500,A,4308.4737,N,07726.7599,W,31.33,265.26,050921,,,A*40
$GPGGA,170119.750,4308.4735,N,07726.7628,W,1,06,2.05,169.1,M,-34.4,M,,*56
$GPRMC,170120.000,A,4308.4733,N,07726.7657,W,31.04,265.01,050921,,,A*4B
$GPGGA,170120.250,4308.4730,N,07726.7686,W,1,06,2.05,169.2,M,-34.4,M,,*5B
$GPRMC,170120.500,A,4308.4728,N,07726.7715,W,30.80,264.27,050921,,,A*4B
$GPGGA,170120.750,4308.4726,N,07726.7744,W,1,06,2.05,169.3,M,-34.4,M,,*57
$GPRMC,170121.000,A,4308.4723,N,07726.7773,W,30.76,263.71,050921,,,A*49
$GPGGA,170121.250,4308.4721,N,07726.7801,W,1,06,2.05,169.4,M,-34.4,M,,*5D
$GPRMC,170121.500,A,4308.4719,N,07726.7829,W,30.52,263.59,050921,,,A*49
$GPGGA,170121.750,4308.4716,N,07726.7858,W,1,06,2.05,169.4,M,-34.4,M,,*50
$GPRMC,170122.000,A,4308.4714,N,07726.7886,W,30.25,263.57,050921,,,A*49
$GPGGA,170122.250,4308.4712,N,07726.7914,W,1,06,2.05,169.4,M,-34.4,M,,*5B
$GPRMC,170122.500,A,4308.4710,N,07726.7943,W,30.27,263.89,050921,,,A*41
$GPGGA,170122.750,4308.4708,N,07726.7971,W,1,06,2.05,169.4,M,-34.4,M,,*56
$GPRMC,170123.000,A,4308.4706,N,07726.8000,W,30.57,263.68,050921,,,A*4B
$GPGGA,170123.250,4308.4703,N,07726.8029,W,1,06,2.05,169.4,M,-34.4,M,,*52
$GPRMC,170123.500,A,4308.4701,N,07726.8058,W,30.82,263.50,050921,,,A*47
$GPGGA,170123.750,4308.4699,N,07726.8087,W,1,06,2.05,169.4,M,-34.4,M,,*51
$GPRMC,170124.000,A,4308.4697,N,07726.8116,W,30.99,263.05,050921,,,A*4A
$GPGGA,170124.250,4308.4694,N,07726.8146,W,1,06,2.05,169.3,M,-34.4,M,,*55
$GPRMC,170124.500,A,4308.4692,N,07726.8175,W,30.99,262.71,050921,,,A*4D
$GPGGA,170124.750,4308.4689,N,07726.8204,W,1,06,2.05,169.2,M,-34.4,M,,*58
$GPRMC,170125.000,A,4308.4687,N,07726.8233,W,31.02,262.62,050921,,,A*4D
$GPGGA,170125.250,4308.4684,N,07726.8262,W,1,06,2.05,169.1,M,-34.4,M,,*52
$GPRMC,170125.500,A,4308.4682,N,07726.8291,W,31.01,262.45,050921,,,A*43
$GPGGA,170125.750,4308.4679,N,07726.8321,W,1,06,2.05,169.0,M,-34.4,M,,*52
$GPRMC,170126.000,A,4308.4678,N,07726.8351,W,31.40,263.33,050921,,,A*48
$GPGGA,170126.250,4308.4676,N,07726.8380,W,1,06,2.05,169.0,M,-34.4,M,,*50
$GPRMC,170126.500,A,4308.4674,N,07726.8410,W,31.39,264.04,050921,,,A*4E
$GPGGA,170126.750,4308.4671,N,07726.8440,W,1,06,2.05,168.9,M,-34.4,M,,*51
$GPRMC,170127.000,A,4308.4669,N,07726.8470,W,31.67,264.14,050921,,,A*4A
$GPGGA,170127.250,4308.4667,N,07726.8501,W,1,06,2.05,169.0,M,-34.4,M,,*5E
$GPRMC,170127.500,A,4308.4664,N,07726.8532,W,31.75,264.47,050921,,,A*40
$GPGGA,170127.750,4308.4662,N,07726.8562,W,1,06,2.05,169.1,M,-34.4,M,,*5A
$GPRMC,170128.000,A,4308.4660,N,07726.8593,W,31.91,264.67,050921,,,A*4D
$GPGGA,170128.250,4308.4659,N,07726.8624,W,1,06,2.05,169.0,M,-34.4,M,,*58
$GPRMC,170128.500,A,4308.4657,N,07726.8654,W,32.53,264.38,050921,,,A*43
$GPGGA,170128.750,4308.4655,N,07726.8685,W,1,06,2.05,168.8,M,-34.4,M,,*53
$GPRMC,170129.000,A,4308.4653,N,07726.8717,W,32.56,264.34,050921,,,A*4C
$GPGGA,170129.250,4308.4650,N,07726.8748,W,1,06,2.05,168.6,M,-34.4,M,,*5C
$GPRMC,170129.500,A,4308.4648,N,07726.8779,W,32.68,264.43,050921,,,A*46
$GPGGA,170129.750,4308.4646,N,07726.8811,W,1,06,2.05,168.4,M,-34.4,M,,*5F
$GPRMC,170130.000,A,4308.4644,N,07726.8842,W,33.03,264.31,050921,,,A*49
$GPGGA,170130.250,4308.4641,N,07726.8874,W,1,06,2.05,168.3,M,-34.4,M,,*51
$GPRMC,170130.500,A,4308.4639,N,07726.8906,W,33.15,264.51,050921,,,A*46
$GPGGA,170130.750,4308.4637,N,07726.8937,W,1,06,2.05,168.2,M,-34.4,M,,*52
$GPRMC,170131.000,A,4308.4634,N,07726.8969,W,33.23,264.03,050921,,,A*44
$GPGGA,170131.250,4308.4631,N,07726.9000,W,1,06,2.05,167.9,M,-34.4,M,,*58
$GPRMC,170131.500,A,4308.4629,N,07726.9032,W,33.35,263.59,050921,,,A*44
$GPGGA,170131.750,4308.4626,N,07726.9064,W,1,06,2.05,167.7,M,-34.4,M,,*57
$GPRMC,170132.000,A,4308.4623,N,07726.9096,W,33.54,263.22,050921,,,A*4D
$GPGGA,170132.250,4308.4620,N,07726.9128,W,1,06,2.05,167.5,M,-34.4,M,,*5C
$GPRMC,170132.500,A,4308.4618,N,07726.9160,W,33.56,263.08,050921,,,A*42
$GPGGA,170132.750,4308.4615,N,07726.9192,W,1,06,2.05,167.1,M,-34.4,M,,*5A
$GPRMC,170133.000,A,4308.4613,N,07726.9224,W,33.55,263.01,050921,,,A*44
$GPGGA,170133.250,4308.4611,N,07726.9257,W,1,06,2.05,166.6,M,-34.4,M,,*56
$GPRMC,170133.500,A,4308.4610,N,07726.9289,W,33.54,263.59,050921,,,A*49
$GPGGA,170133.750,4308.4608,N,07726.9321,W,1,06,2.05,166.2,M,-34.4,M,,*5F
$GPRMC,170134.000,A,4308.4606,N,07726.9354,W,33.51,264.21,050921,,,A*40
$GPGGA,170134.250,4308.4604,N,07726.9386,W,1,06,2.05,165.9,M,-34.4,M,,*54
$GPRMC,170134.500,A,4308.4602,N,07726.9419,W,33.69,264.66,050921,,,A*47
$GPGGA,170134.750,4308.4601,N,07726.9452,W,1,06,2.05,165.5,M,-34.4,M,,*56
$GPRMC,170135.000,A,4308.4599,N,07726.9484,W,33.96,265.05,050921,,,A*42
$GPGGA,170135.250,4308.4598,N,07726.9518,W,1,06,2.05,164.9,M,-34.4,M,,*53
$GPRMC,170135.500,A,4308.4596,N,07726.9550,W,34.05,264.25,050921,,,A*4E
$GPGGA,170135.750,4308.4595,N,07726.9584,W,1,06,2.05,164.4,M,-34.4,M,,*53
$GPRMC,170136.000,A,4308.4594,N,07726.9616,W,33.79,264.14,050921,,,A*45
$GPGGA,170136.250,4308.4593,N,07726.9650,W,1,06,2.05,163.6,M,-34.4,M,,*5C
$GPRMC,170136.500,A,4308.4592,N,07726.9683,W,33.83,264.71,050921,,,A*4C
$GPGGA,170136.750,4308.4591,N,07726.9716,W,1,06,2.05,162.9,M,-34.4,M,,*56
$GPRMC,170137.000,A,4308.4591,N,07726.9749,W,33.89,265.01,050921,,,A*40
$GPGGA,170137.250,4308.4590,N,07726.9782,W,1,06,2.05,162.1,M,-34.4,M,,*56
$GPRMC,170137.500,A,4308.4589,N,07726.9816,W,33.93,265.09,050921,,,A*4A
$GPGGA,170137.750,4308.4589,N,07726.9849,W,1,06,2.05,161.3,M,-34.4,M,,*52
$GPRMC,170138.000,A,4308.4588,N,07726.9882,W,33.96,264.67,050921,,,A*40
$GPGGA,170138.250,4308.4587,N,07726.9915,W,1,06,2.05,160.6,M,-34.4,M,,*5A
$GPRMC,170138.500,A,4308.4586,N,07726.9948,W,33.94,264.61,050921,,,A*48
$GPGGA,170138.750,4308.4585,N,07726.9981,W,1,06,2.05,160.1,M,-34.4,M,,*57
$GPRMC,170139.000,A,4308.4585,N,07727.0014,W,33.96,265.18,050921,,,A*4A
$GPGGA,170139.250,4308.4585,N,07727.0047,W,1,06,2.05,159.5,M,-34.4,M,,*56
$GPRMC,170139.500,A,4308.4584,N,07727.0080,W,33.95,265.85,050921,,,A*44
$GPGGA,170139.750,4308.4584,N,07727.0113,W,1,06,2.05,158.9,M,-34.4,M,,*5F
$GPRMC,170140.000,A,4308.4584,N,07727.0146,W,34.34,266.11,050921,,,A*46
$GPGGA,170140.250,4308.4583,N,07727.0179,W,1,06,2.05,158.4,M,-34.4,M,,*52
$GPRMC,170140.500,A,4308.4582,N,07727.0213,W,34.28,266.22,050921,,,A*4B
$GPGGA,170140.750,4308.4582,N,07727.0246,W,1,06,2.05,157.9,M,-34.4,M,,*5B
$GPRMC,170141.000,A,4308.4581,N,07727.0279,W,34.20,266.65,050921,,,A*4B
$GPGGA,170141.250,4308.4580,N,07727.0311,W,1,06,2.05,157.6,M,-34.4,M,,*51
$GPRMC,170141.500,A,4308.4579,N,07727.0344,W,34.45,266.47,050921,,,A*45
$GPGGA,170141.750,4308.4579,N,07727.0377,W,1,06,2.05,157.3,M,-34.4,M,,*57
$GPRMC,170142.000,A,4308.4578,N,07727.0410,W,34.44,267.57,050921,,,A*45
$GPGGA,170142.250,4308.4579,N,07727.0444,W,1,06,2.05,157.0,M,-34.4,M,,*55
$GPRMC,170142.500,A,4308.4579,N,07727.0478,W,34.78,268.82,050921,,,A*47
$GPGGA,170142.750,4308.4580,N,07727.0511,W,1,06,2.05,156.4,M,-34.4,M,,*52
$GPRMC,170143.000,A,4308.4581,N,07727.0544,W,34.86,270.14,050921,,,A*4D
$GPGGA,170143.250,4308.4582,N,07727.0578,W,1,06,2.05,155.9,M,-34.4,M,,*55
$GPRMC,170143.500,A,4308.4583,N,07727.0613,W,35.01,270.72,050921,,,A*45
$GPGGA,170143.750,4308.4584,N,07727.0647,W,1,06,2.05,155.2,M,-34.4,M,,*52
$GPRMC,170144.000,A,4308.4585,N,07727.0682,W,35.15,271.01,050921,,,A*49
$GPGGA,170144.250,4308.4586,N,07727.0716,W,1,06,2.05,154.6,M,-34.4,M,,*52
$GPRMC,170144.500,A,4308.4587,N,07727.0750,W,35.90,271.42,050921,,,A*4A
$GPGGA,170144.750,4308.4588,N,07727.0784,W,1,06,2.05,154.5,M,-34.4,M,,*51
$GPRMC,170145.000,A,4308.4589,N,07727.0818,W,35.66,271.95,050921,,,A*40
$GPGGA,170145.250,4308.4591,N,07727.0852,W,1,06,2.05,154.2,M,-34.4,M,,*5E
$GPRMC,170145.500,A,4308.4594,N,07727.0886,W,35.59,273.35,050921,,,A*4A
$GPGGA,170145.750,4308.4596,N,07727.0919,W,1,06,2.05,153.9,M,-34.4,M,,*5E
$GPRMC,170146.000,A,4308.4599,N,07727.0953,W,35.35,274.39,050921,,,A*49
$GPGGA,170146.250,4308.4602,N,07727.0987,W,1,06,2.05,153.9,M,-34.4,M,,*51
$GPRMC,170146.500,A,4308.4605,N,07727.1020,W,35.32,275.37,050921,,,A*4E
$GPGGA,170146.750,4308.4608,N,07727.1053,W,1,06,2.05,153.9,M,-34.4,M,,*5F
$GPRMC,170147.000,A,4308.4611,N,07727.1086,W,35.08,276.50,050921,,,A*48
$GPGGA,170147.250,4308.4615,N,07727.1120,W,1,06,2.05,153.9,M,-34.4,M,,*52
$GPRMC,170147.500,A,4308.4619,N,07727.1153,W,35.10,277.61,050921,,,A*46
$GPGGA,170147.750,4308.4623,N,07727.1187,W,1,06,2.05,154.0,M,-34.4,M,,*51
$GPRMC,170148.000,A,4308.4627,N,07727.1220,W,35.38,278.79,050921,,,A*4A
$GPGGA,170148.250,4308.4632,N,07727.1254,W,1,06,2.05,154.2,M,-34.4,M,,*54
$GPRMC,170148.500,A,4308.4636,N,07727.1288,W,35.65,279.50,050921,,,A*4F
$GPGGA,170148.750,4308.4641,N,07727.1322,W,1,06,2.05,154.2,M,-34.4,M,,*55
$GPRMC,170149.000,A,4308.4645,N,07727.1355,W,35.39,280.12,050921,,,A*47
$GPGGA,170149.250,4308.4650,N,07727.1388,W,1,06,2.05,154.1,M,-34.4,M,,*52
$GPRMC,170149.500,A,4308.4655,N,07727.1420,W,35.07,280.66,050921,,,A*48
$GPGGA,170149.750,4308.4659,N,07727.1452,W,1,06,2.05,154.1,M,-34.4,M,,*5E
$GPRMC,170150.000,A,4308.4664,N,07727.1484,W,34.79,280.63,050921,,,A*44
$GPGGA,170150.250,4308.4668,N,07727.1516,W,1,06,2.05,154.1,M,-34.4,M,,*50
$GPRMC,170150.500,A,4308.4672,N,07727.1547,W,34.48,280.39,050921,,,A*45
$GPGGA,170150.750,4308.4677,N,07727.1579,W,1,06,2.05,154.1,M,-34.4,M,,*52
$GPRMC,170151.000,A,4308.4681,N,07727.1610,W,34.28,280.19,050921,,,A*48
$GPGGA,170151.250,4308.4685,N,07727.1641,W,1,06,2.05,154.3,M,-34.4,M,,*51
$GPRMC,170151.500,A,4308.4688,N,07727.1671,W,33.85,279.49,050921,,,A*40
$GPGGA,170151.750,4308.4692,N,07727.1702,W,1,06,2.05,154.3,M,-34.4,M,,*54
$GPRMC,170152.000,A,4308.4695,N,07727.1733,W,33.70,279.18,050921,,,A*43
$GPGGA,170152.250,4308.4699,N,07727.1765,W,1,06,2.05,154.2,M,-34.4,M,,*59
$GPRMC,170152.500,A,4308.4701,N,07727.1796,W,33.45,278.38,050921,,,A*40
$GPGGA,170152.750,4308.4704,N,07727.1826,W,1,06,2.05,154.1,M,-34.4,M,,*52
$GPRMC,170153.000,A,4308.4707,N,07727.1856,W,33.05,278.03,050921,,,A*4D
$GPGGA,170153.250,4308.4711,N,07727.1886,W,1,06,2.05,153.9,M,-34.4,M,,*57
$GPRMC,170153.500,A,4308.4714,N,07727.1916,W,32.43,278.04,050921,,,A*4B
$GPGGA,170153.750,4308.4717,N,07727.1946,W,1,06,2.05,153.9,M,-34.4,M,,*59
$GPRMC,170154.000,A,4308.4720,N,07727.1977,W,32.46,278.16,050921,,,A*4F
$GPGGA,170154.250,4308.4724,N,07727.2007,W,1,06,2.05,153.8,M,-34.4,M,,*55
$GPRMC,170154.500,A,4308.4727,N,07727.2037,W,32.40,278.27,050921,,,A*47
$GPGGA,170154.750,4308.4731,N,07727.2067,W,1,06,2.05,153.8,M,-34.4,M,,*52
$GPRMC,170155.000,A,4308.4734,N,07727.2097,W,32.17,278.40,050921,,,A*48
$GPGGA,170155.250,4308.4737,N,07727.2127,W,1,06,2.05,153.8,M,-34.4,M,,*55
$GPRMC,170155.500,A,4308.4740,N,07727.2156,W,32.11,278.47,050921,,,A*43
$GPGGA,170155.750,4308.4744,N,07727.2186,W,1,06,2.05,153.9,M,-34.4,M,,*5E
$GPRMC,170156.000,A,4308.4747,N,07727.2217,W,32.14,278.20,050921,,,A*40
$GPGGA,170156.250,4308.4751,N,07727.2249,W,1,06,2.05,153.7,M,-34.4,M,,*52
$GPRMC,170156.500,A,4308.4755,N,07727.2281,W,32.92,278.03,050921,,,A*46
$GPGGA,170156.750,4308.4759,N,07727.2312,W,1,06,1.51,153.6,M,-34.4,M,,*53
$GPRMC,170157.000,A,4308.4763,N,07727.2343,W,32.86,278.80,050921,,,A*46
$GPGGA,170157.250,4308.4767,N,07727.2373,W,1,06,2.05,153.7,M,-34.4,M,,*5E
$GPRMC,170157.500,A,4308.4770,N,07727.2404,W,32.63,279.20,050921,,,A*45
$GPGGA,170157.750,4308.4774,N,07727.2434,W,1,06,2.05,153.9,M,-34.4,M,,*53
$GPRMC,170158.000,A,4308.4777,N,07727.2464,W,32.46,279.28,050921,,,A*41
$GPGGA,170158.250,4308.4780,N,07727.2494,W,1,06,2.05,154.2,M,-34.4,M,,*54
$GPRMC,170158.500,A,4308.4783,N,07727.2524,W,32.23,278.81,050921,,,A*4B
$GPGGA,170158.750,4308.4786,N,07727.2554,W,1,06,2.05,154.4,M,-34.4,M,,*5C
$GPRMC,170159.000,A,4308.4789,N,07727.2583,W,31.82,278.41,050921,,,A*4C
$GPGGA,170159.250,4308.4792,N,07727.2613,W,1,06,2.05,154.7,M,-34.4,M,,*5E
$GPRMC,170159.500,A,4308.4795,N,07727.2642,W,31.73,278.13,050921,,,A*43
$GPGGA,170159.750,4308.4798,N,07727.2672,W,1,06,2.05,155.1,M,-34.4,M,,*51
$GPRMC,170200.000,A,4308.4800,N,07727.2701,W,31.41,277.83,050921,,,A*4B
$GPGGA,170200.250,4308.4804,N,07727.2730,W,1,06,2.05,155.3,M,-34.4,M,,*54
$GPRMC,170200.500,A,4308.4807,N,07727.2759,W,31.05,278.13,050921,,,A*42
$GPGGA,170200.750,4308.4810,N,07727.2788,W,1,06,2.05,155.4,M,-34.4,M,,*50
$GPRMC,170201.000,A,4308.4812,N,07727.2817,W,31.07,278.05,050921,,,A*42
$GPGGA,170201.250,4308.4815,N,07727.2847,W,1,06,2.05,155.5,M,-34.4,M,,*5C
$GPRMC,170201.500,A,4308.4818,N,07727.2875,W,30.80,278.12,050921,,,A*41
$GPGGA,170201.750,4308.4822,N,07727.2904,W,1,06,2.05,155.4,M,-34.4,M,,*5A
$GPRMC,170202.000,A,4308.4825,N,07727.2933,W,30.55,278.46,050921,,,A*43
$GPGGA,170202.250,4308.4828,N,07727.2962,W,1,06,2.05,155.5,M,-34.4,M,,*57
$GPRMC,170202.500,A,4308.4831,N,07727.2991,W,30.64,278.50,050921,,,A*4E
$GPGGA,170202.750,4308.4834,N,07727.3020,W,1,06,2.05,155.4,M,-34.4,M,,*50
$GPRMC,170203.000,A,4308.4837,N,07727.3048,W,30.68,278.50,050921,,,A*4C
$GPGGA,170203.250,4308.4840,N,07727.3077,W,1,06,2.05,155.5,M,-34.4,M,,*54
$GPRMC,170203.500,A,4308.4844,N,07727.3105,W,30.63,279.30,050921,,,A*49
$GPGGA,170203.750,4308.4848,N,07727.3134,W,1,06,2.05,155.4,M,-34.4,M,,*5E
$GPRMC,170204.000,A,4308.4852,N,07727.3164,W,30.76,279.52,050921,,,A*4B
$GPGGA,170204.250,4308.4855,N,07727.3193,W,1,06,2.05,155.3,M,-34.4,M,,*5A
$GPRMC,170204.500,A,4308.4859,N,07727.3222,W,30.87,279.47,050921,,,A*4E
$GPGGA,170204.750,4308.4862,N,07727.3251,W,1,06,2.05,155.1,M,-34.4,M,,*54
$GPRMC,170205.000,A,4308.4865,N,07727.3280,W,30.98,279.27,050921,,,A*45
$GPGGA,170205.250,4308.4869,N,07727.3309,W,1,06,2.05,155.0,M,-34.4,M,,*56
$GPRMC,170205.500,A,4308.4872,N,07727.3338,W,31.01,279.04,050921,,,A*44
$GPGGA,170205.750,4308.4875,N,07727.3367,W,1,06,2.05,154.8,M,-34.4,M,,*5F
$GPRMC,170206.000,A,4308.4879,N,07727.3396,W,30.94,278.84,050921,,,A*49
$GPGGA,170206.250,4308.4882,N,07727.3425,W,1,06,2.05,154.6,M,-34.4,M,,*5E
$GPRMC,170206.500,A,4308.4885,N,07727.3454,W,30.85,278.94,050921,,,A*47
$GPGGA,170206.750,4308.4889,N,07727.3483,W,1,06,2.05,154.4,M,-34.4,M,,*5E
$GPRMC,170207.000,A,4308.4892,N,07727.3511,W,30.85,278.67,050921,,,A*49
$GPGGA,170207.250,4308.4894,N,07727.3540,W,1,06,2.05,154.2,M,-34.4,M,,*5E
$GPRMC,170207.500,A,4308.4898,N,07727.3569,W,30.82,278.12,050921,,,A*4C
$GPGGA,170207.750,4308.4901,N,07727.3598,W,1,06,2.05,153.8,M,-34.4,M,,*5E
$GPRMC,170208.000,A,4308.4904,N,07727.3628,W,30.65,277.58,050921,,,A*4C
$GPGGA,170208.250,4308.4908,N,07727.3656,W,1,06,2.05,153.4,M,-34.4,M,,*50
$GPRMC,170208.500,A,4308.4912,N,07727.3685,W,30.35,277.98,050921,,,A*40
$GPGGA,170208.750,4308.4915,N,07727.3713,W,1,06,1.52,153.1,M,-34.4,M,,*5D
$GPRMC,170209.000,A,4308.4919,N,07727.3742,W,30.24,278.05,050921,,,A*4E
$GPGGA,170209.250,4308.4923,N,07727.3770,W,1,06,2.05,152.9,M,-34.4,M,,*51
$GPRMC,170209.500,A,4308.4926,N,07727.3798,W,30.20,278.31,050921,,,A*43
$GPGGA,170209.750,4308.4930,N,07727.3827,W,1,06,2.05,152.6,M,-34.4,M,,*54
$GPRMC,170210.000,A,4308.4934,N,07727.3856,W,30.18,278.56,050921,,,A*4A
$GPGGA,170210.250,4308.4938,N,07727.3884,W,1,06,2.05,152.4,M,-34.4,M,,*5A
$GPRMC,170210.500,A,4308.4942,N,07727.3912,W,29.98,278.94,050921,,,A*41
$GPGGA,170210.750,4308.4946,N,07727.3940,W,1,06,2.05,152.4,M,-34.4,M,,*5F
$GPRMC,170211.000,A,4308.4950,N,07727.3967,W,29.91,279.09,050921,,,A*48
$GPGGA,170211.250,4308.4954,N,07727.3996,W,1,06,2.05,152.5,M,-34.4,M,,*52
$GPRMC,170211.500,A,4308.4957,N,07727.4025,W,29.91,278.91,050921,,,A*42
$GPGGA,170211.750,4308.4961,N,07727.4053,W,1,06,2.05,152.5,M,-34.4,M,,*56
$GPRMC,170212.000,A,4308.4965,N,07727.4082,W,30.29,278.94,050921,,,A*46
$GPGGA,170212.250,4308.4969,N,07727.4111,W,1,06,2.05,152.5,M,-34.4,M,,*5F
$GPRMC,170212.500,A,4308.4972,N,07727.4139,W,30.27,278.85,050921,,,A*4A
$GPGGA,170212.750,4308.4976,N,07727.4167,W,1,06,2.05,152.5,M,-34.4,M,,*55
$GPRMC,170213.000,A,4308.4979,N,07727.4196,W,30.28,278.54,050921,,,A*43
$GPGGA,170213.250,4308.4982,N,07727.4225,W,1,06,2.05,152.4,M,-34.4,M,,*5E
$GPRMC,170213.500,A,4308.4985,N,07727.4253,W,30.28,278.67,050921,,,A*4F
$GPGGA,170213.750,4308.4989,N,07727.4281,W,1,06,2.05,152.4,M,-34.4,M,,*5E
$GPRMC,170214.000,A,4308.4992,N,07727.4309,W,30.30,278.67,050921,,,A*4C
$GPGGA,170214.250,4308.4995,N,07727.4338,W,1,06,2.05,152.2,M,-34.4,M,,*54
$GPRMC,170214.500,A,4308.4999,N,07727.4366,W,30.24,278.77,050921,,,A*4F
$GPGGA,170214.750,4308.5002,N,07727.4395,W,1,06,1.52,152.1,M,-34.4,M,,*52
$GPRMC,170215.000,A,4308.5005,N,07727.4423,W,30.05,278.87,050921,,,A*4C
$GPGGA,170215.250,4308.5008,N,07727.4451,W,1,06,2.05,152.0,M,-34.4,M,,*53
$GPRMC,170215.500,A,4308.5012,N,07727.4479,W,29.97,279.01,050921,,,A*4C
$GPGGA,170215.750,4308.5016,N,07727.4507,W,1,06,2.05,151.7,M,-34.4,M,,*5F
$GPRMC,170216.000,A,4308.5019,N,07727.4536,W,29.97,279.01,050921,,,A*4B
$GPGGA,170216.250,4308.5022,N,07727.4564,W,1,06,2.05,151.5,M,-34.4,M,,*59
$GPRMC,170216.500,A,4308.5026,N,07727.4593,W,30.42,278.66,050921,,,A*4D
$GPGGA,170216.750,4308.5029,N,07727.4621,W,1,06,2.05,151.3,M,-34.4,M,,*53
$GPRMC,170217.000,A,4308.5032,N,07727.4650,W,30.48,278.20,050921,,,A*48
$GPGGA,170217.250,4308.5034,N,07727.4679,W,1,06,2.05,151.0,M,-34.4,M,,*55
$GPRMC,170217.500,A,4308.5037,N,07727.4707,W,30.52,277.58,050921,,,A*40
$GPGGA,170217.750,4308.5039,N,07727.4735,W,1,06,1.52,150.8,M,-34.4,M,,*5C
$GPRMC,170218.000,A,4308.5042,N,07727.4763,W,30.41,277.17,050921,,,A*43
$GPGGA,170218.250,4308.5045,N,07727.4790,W,1,06,2.05,150.5,M,-34.4,M,,*5E
$GPRMC,170218.500,A,4308.5048,N,07727.4817,W,29.38,276.86,050921,,,A*4F
$GPGGA,170218.750,4308.5051,N,07727.4844,W,1,06,2.05,150.0,M,-34.4,M,,*5D
$GPRMC,170219.000,A,4308.5053,N,07727.4871,W,29.08,276.95,050921,,,A*40
$GPGGA,170219.250,4308.5056,N,07727.4898,W,1,06,2.05,149.8,M,-34.4,M,,*5F
$GPRMC,170219.500,A,4308.5058,N,07727.4924,W,28.89,276.79,050921,,,A*45
$GPGGA,170219.750,4308.5060,N,07727.4951,W,1,06,2.05,149.8,M,-34.4,M,,*5B
$GPRMC,170220.000,A,4308.5063,N,07727.4977,W,28.51,276.67,050921,,,A*4E
$GPGGA,170220.250,4308.5064,N,07727.5004,W,1,06,2.05,149.7,M,-34.4,M,,*57
$GPRMC,170220.500,A,4308.5066,N,07727.5030,W,28.50,276.12,050921,,,A*46
$GPGGA,170220.750,4308.5068,N,07727.5056,W,1,06,2.05,149.7,M,-34.4,M,,*59
$GPRMC,170221.000,A,4308.5070,N,07727.5083,W,28.62,276.36,050921,,,A*4A
$GPGGA,170221.250,4308.5073,N,07727.5111,W,1,06,2.05,149.8,M,-34.4,M,,*5A
$GPRMC,170221.500,A,4308.5076,N,07727.5138,W,28.88,277.54,050921,,,A*49
$GPGGA,170221.750,4308.5079,N,07727.5166,W,1,06,2.05,149.9,M,-34.4,M,,*54
$GPRMC,170222.000,A,4308.5082,N,07727.5193,W,29.09,278.45,050921,,,A*42
$GPGGA,170222.250,4308.5085,N,07727.5221,W,1,06,2.05,150.0,M,-34.4,M,,*50
$GPRMC,170222.500,A,4308.5088,N,07727.5248,W,29.22,278.30,050921,,,A*43
$GPGGA,170222.750,4308.5090,N,07727.5275,W,1,06,2.05,150.0,M,-34.4,M,,*50
$GPRMC,170223.000,A,4308.5092,N,07727.5301,W,29.08,277.18,050921,,,A*4D
$GPGGA,170223.250,4308.5095,N,07727.5328,W,1,06,2.05,149.9,M,-34.4,M,,*59
$GPRMC,170223.500,A,4308.5097,N,07727.5355,W,29.02,276.80,050921,,,A*46
$GPGGA,170223.750,4308.5100,N,07727.5382,W,1,06,2.05,149.9,M,-34.4,M,,*51
$GPRMC,170224.000,A,4308.5103,N,07727.5409,W,29.17,277.11,050921,,,A*4B
$GPGGA,170224.250,4308.5105,N,07727.5437,W,1,06,2.05,149.9,M,-34.4,M,,*5F
$GPRMC,170224.500,A,4308.5107,N,07727.5464,W,29.13,276.75,050921,,,A*46
$GPGGA,170224.750,4308.5109,N,07727.5490,W,1,06,2.05,149.8,M,-34.4,M,,*5A
$GPRMC,170225.000,A,4308.5111,N,07727.5517,W,28.63,276.54,050921,,,A*45
$GPGGA,170225.250,4308.5113,N,07727.5544,W,1,06,2.05,149.9,M,-34.4,M,,*5C
$GPRMC,170225.500,A,4308.5115,N,07727.5570,W,28.43,275.78,050921,,,A*4A
$GPGGA,170225.750,4308.5117,N,07727.5597,W,1,06,2.05,149.8,M,-34.4,M,,*52
$GPRMC,170226.000,A,4308.5119,N,07727.5624,W,28.27,275.19,050921,,,A*47
$GPGGA,170226.250,4308.5122,N,07727.5651,W,1,06,2.05,149.6,M,-34.4,M,,*55
$GPRMC,170226.500,A,4308.5125,N,07727.5678,W,28.55,275.29,050921,,,A*42
$GPGGA,170226.750,4308.5128,N,07727.5706,W,1,06,2.05,149.6,M,-34.4,M,,*59
$GPRMC,170227.000,A,4308.5130,N,07727.5733,W,28.91,275.32,050921,,,A*4E
$GPGGA,170227.250,4308.5132,N,07727.5761,W,1,06,2.05,149.6,M,-34.4,M,,*57
$GPRMC,170227.500,A,4308.5135,N,07727.5790,W,29.21,274.86,050921,,,A*43
$GPGGA,170227.750,4308.5138,N,07727.5818,W,1,06,2.05,149.5,M,-34.4,M,,*5A
$GPRMC,170228.000,A,4308.5140,N,07727.5847,W,29.44,274.99,050921,,,A*43
$GPGGA,170228.250,4308.5143,N,07727.5875,W,1,06,2.05,149.6,M,-34.4,M,,*54
$GPRMC,170228.500,A,4308.5146,N,07727.5905,W,29.72,275.35,050921,,,A*45
$GPGGA,170228.750,4308.5149,N,07727.5934,W,1,06,2.05,149.5,M,-34.4,M,,*5C
$GPRMC,170229.000,A,4308.5152,N,07727.5963,W,29.80,275.37,050921,,,A*4B
$GPGGA,170229.250,4308.5156,N,07727.5992,W,1,06,2.05,149.3,M,-34.4,M,,*5C
$GPRMC,170229.500,A,4308.5159,N,07727.6021,W,30.01,275.30,050921,,,A*4F
$GPGGA,170229.750,4308.5162,N,07727.6050,W,1,06,1.52,149.2,M,-34.4,M,,*5A
$GPRMC,170230.000,A,4308.5164,N,07727.6078,W,30.02,275.34,050921,,,A*47
$GPGGA,170230.250,4308.5167,N,07727.6106,W,1,06,2.05,149.1,M,-34.4,M,,*52
$GPRMC,170230.500,A,4308.5170,N,07727.6134,W,29.57,274.88,050921,,,A*40
$GPGGA,170230.750,4308.5172,N,07727.6163,W,1,06,2.05,148.9,M,-34.4,M,,*59
$GPRMC,170231.000,A,4308.5175,N,07727.6191,W,29.60,274.46,050921,,,A*48
$GPGGA,170231.250,4308.5180,N,07727.6221,W,1,06,2.05,148.7,M,-34.4,M,,*5B
$GPRMC,170231.500,A,4308.5186,N,07727.6251,W,29.93,276.02,050921,,,A*40
$GPGGA,170231.750,4308.5191,N,07727.6281,W,1,06,2.05,148.3,M,-34.4,M,,*50
$GPRMC,170232.000,A,4308.5195,N,07727.6310,W,30.10,277.02,050921,,,A*42
$GPGGA,170232.250,4308.5201,N,07727.6340,W,1,06,2.05,147.9,M,-34.4,M,,*55
$GPRMC,170232.500,A,4308.5205,N,07727.6370,W,30.33,277.67,050921,,,A*49
$GPGGA,170232.750,4308.5211,N,07727.6399,W,1,06,2.05,147.3,M,-34.4,M,,*5F
$GPRMC,170233.000,A,4308.5215,N,07727.6428,W,30.27,277.77,050921,,,A*42
$GPGGA,170233.250,4308.5219,N,07727.6456,W,1,06,2.05,147.0,M,-34.4,M,,*54
$GPRMC,170233.500,A,4308.5222,N,07727.6484,W,30.00,277.59,050921,,,A*4C
$GPGGA,170233.750,4308.5226,N,07727.6512,W,1,06,2.05,146.9,M,-34.4,M,,*54
$GPRMC,170234.000,A,4308.5229,N,07727.6540,W,29.66,276.87,050921,,,A*46
$GPGGA,170234.250,4308.5232,N,07727.6567,W,1,06,2.05,146.9,M,-34.4,M,,*51
$GPRMC,170234.500,A,4308.5236,N,07727.6596,W,29.45,276.38,050921,,,A*43
$GPGGA,170234.750,4308.5239,N,07727.6623,W,1,06,1.52,146.9,M,-34.4,M,,*5D
$GPRMC,170235.000,A,4308.5242,N,07727.6650,W,29.03,276.17,050921,,,A*42
$GPGGA,170235.250,4308.5246,N,07727.6678,W,1,06,2.05,146.8,M,-34.4,M,,*5F
$GPRMC,170235.500,A,4308.5249,N,07727.6706,W,29.00,275.70,050921,,,A*4F
$GPGGA,170235.750,4308.5252,N,07727.6734,W,1,06,2.05,146.7,M,-34.4,M,,*59
$GPRMC,170236.000,A,4308.5254,N,07727.6762,W,29.22,275.51,050921,,,A*44
$GPGGA,170236.250,4308.5257,N,07727.6789,W,1,06,2.05,146.6,M,-34.4,M,,*5D
$GPRMC,170236.500,A,4308.5259,N,07727.6817,W,29.42,275.23,050921,,,A*42
$GPGGA,170236.750,4308.5261,N,07727.6845,W,1,06,2.05,146.4,M,-34.4,M,,*50
$GPRMC,170237.000,A,4308.5265,N,07727.6873,W,29.42,275.21,050921,,,A*49
$GPGGA,170237.250,4308.5267,N,07727.6901,W,1,06,2.05,146.3,M,-34.4,M,,*54
$GPRMC,170237.500,A,4308.5270,N,07727.6929,W,29.23,274.64,050921,,,A*41
$GPGGA,170237.750,4308.5273,N,07727.6957,W,1,06,2.05,146.1,M,-34.4,M,,*55
$GPRMC,170238.000,A,4308.5276,N,07727.6985,W,28.96,274.39,050921,,,A*4C
$GPGGA,170238.250,4308.5278,N,07727.7013,W,1,06,2.05,145.8,M,-34.4,M,,*56
$GPRMC,170238.500,A,4308.5280,N,07727.7040,W,28.47,274.07,050921,,,A*40
$GPGGA,170238.750,4308.5282,N,07727.7067,W,1,06,2.05,145.6,M,-34.4,M,,*5B
$GPRMC,170239.000,A,4308.5283,N,07727.7093,W,28.05,274.04,050921,,,A*4C
$GPGGA,170239.250,4308.5285,N,07727.7120,W,1,06,2.05,145.4,M,-34.4,M,,*58
$GPRMC,170239.500,A,4308.5288,N,07727.7146,W,27.65,273.87,050921,,,A*4E
$GPGGA,170239.750,4308.5290,N,07727.7173,W,1,06,1.52,145.2,M,-34.4,M,,*58
$GPRMC,170240.000,A,4308.5291,N,07727.7198,W,27.48,273.65,050921,,,A*4D
$GPGGA,170240.250,4308.5293,N,07727.7223,W,1,06,2.05,145.1,M,-34.4,M,,*54
$GPRMC,170240.500,A,4308.5295,N,07727.7248,W,26.64,273.37,050921,,,A*4A
$GPGGA,170240.750,4308.5297,N,07727.7274,W,1,06,2.05,144.7,M,-34.4,M,,*50
$GPRMC,170241.000,A,4308.5300,N,07727.7299,W,26.21,274.14,050921,,,A*48
$GPGGA,170241.250,4308.5301,N,07727.7323,W,1,06,2.05,144.5,M,-34.4,M,,*5B
$GPRMC,170241.500,A,4308.5303,N,07727.7347,W,25.76,274.99,050921,,,A*48
$GPGGA,170241.750,4308.5305,N,07727.7371,W,1,06,2.05,144.4,M,-34.4,M,,*5C
$GPRMC,170242.000,A,4308.5307,N,07727.7395,W,25.56,275.14,050921,,,A*43
$GPGGA,170242.250,4308.5309,N,07727.7419,W,1,06,2.05,144.4,M,-34.4,M,,*5F
$GPRMC,170242.500,A,4308.5311,N,07727.7443,W,25.32,275.20,050921,,,A*48
$GPGGA,170242.750,4308.5314,N,07727.7467,W,1,06,2.05,144.2,M,-34.4,M,,*59
$GPRMC,170243.000,A,4308.5316,N,07727.7491,W,25.13,275.39,050921,,,A*4F
$GPGGA,170243.250,4308.5318,N,07727.7514,W,1,06,2.05,143.8,M,-34.4,M,,*59
$GPRMC,170243.500,A,4308.5320,N,07727.7538,W,24.62,274.98,050921,,,A*40
$GPGGA,170243.750,4308.5322,N,07727.7561,W,1,06,2.05,143.3,M,-34.4,M,,*5C
$GPRMC,170244.000,A,4308.5325,N,07727.7584,W,24.24,275.11,050921,,,A*42
$GPGGA,170244.250,4308.5326,N,07727.7607,W,1,06,2.05,142.8,M,-34.4,M,,*53
$GPRMC,170244.500,A,4308.5328,N,07727.7630,W,24.13,274.70,050921,,,A*44
$GPGGA,170244.750,4308.5330,N,07727.7653,W,1,06,2.05,142.7,M,-34.4,M,,*5F
$GPRMC,170245.000,A,4308.5331,N,07727.7675,W,24.02,274.80,050921,,,A*46
$GPGGA,170245.250,4308.5333,N,07727.7697,W,1,06,2.05,142.6,M,-34.4,M,,*51
$GPRMC,170245.500,A,4308.5334,N,07727.7719,W,23.56,274.42,050921,,,A*45
$GPGGA,170245.750,4308.5335,N,07727.7741,W,1,06,2.05,142.6,M,-34.4,M,,*58
$GPRMC,170246.000,A,4308.5336,N,07727.7763,W,23.17,274.36,050921,,,A*4A
$GPGGA,170246.250,4308.5338,N,07727.7784,W,1,06,2.05,142.5,M,-34.4,M,,*59
$GPRMC,170246.500,A,4308.5339,N,07727.7806,W,22.88,274.48,050921,,,A*42
$GPGGA,170246.750,4308.5340,N,07727.7827,W,1,06,2.05,142.4,M,-34.4,M,,*54
$GPRMC,170247.000,A,4308.5342,N,07727.7848,W,22.52,274.25,050921,,,A*4C
