Vers 81
USE_SERIAL_FEEDBACK=true
DEVELOPMENT_MODE=false
USE_RMC_ONLY=false

$GPRMC,154657.750,A,3554.7333,N,08403.5188,W,0.57,343.25,270721,,,A*72
$GPGGA,154658.000,3554.7335,N,08403.5191,W,1,03,4.32,182.1,M,-32.1,M,,*52
$GPRMC,154658.250,A,3554.7338,N,08403.5193,W,0.54,339.75,270721,,,A*72
$GPGGA,154658.500,3554.7339,N,08403.5195,W,1,03,4.33,182.1,M,-32.1,M,,*5E
$GPRMC,154658.750,A,3554.7340,N,08403.5197,W,0.44,330.62,270721,,,A*72
$GPGGA,154659.000,3554.7341,N,08403.5198,W,1,03,4.32,182.1,M,-32.1,M,,*59
$GPRMC,154659.250,A,3554.7343,N,08403.5200,W,0.44,343.04,270721,,,A*7C
$GPGGA,154659.500,3554.7345,N,08403.5202,W,1,03,4.33,182.1,M,-32.1,M,,*59
$GPRMC,154659.750,A,3554.7347,N,08403.5203,W,0.34,339.92,270721,,,A*7B
$GPGGA,154700.000,3554.7349,N,08403.5204,W,1,03,4.33,182.1,M,-32.1,M,,*5B
$GPRMC,154700.250,A,3554.7351,N,08403.5206,W,0.34,324.44,270721,,,A*76
$GPGGA,154700.500,3554.7352,N,08403.5207,W,1,03,4.33,182.1,M,-32.1,M,,*57
$GPRMC,154700.750,A,3554.7353,N,08403.5209,W,0.30,316.55,270721,,,A*7B
$GPGGA,154701.000,3554.7354,N,08403.5210,W,1,03,4.33,182.1,M,-32.1,M,,*53
$GPRMC,154701.250,A,3554.7354,N,08403.5211,W,0.31,315.81,270721,,,A*7A
$GPGGA,154701.500,3554.7354,N,08403.5212,W,1,03,4.33,182.1,M,-32.1,M,,*54
$GPRMC,154701.750,A,3554.7354,N,08403.5213,W,0.30,313.40,270721,,,A*77
$GPGGA,154702.000,3554.7351,N,08403.5215,W,1,03,4.33,182.1,M,-32.1,M,,*50
$GPGGA,154702.500,3554.7347,N,08403.5217,W,1,03,4.33,182.1,M,-32.1,M,,*50
$GPRMC,154702.500,A,3554.7347,N,08403.5217,W,0.25,255.02,270721,,A*74
$GPGGA,154702.750,3554.7346,N,08403.5218,W,1,03,4.33,182.1,M,-32.1,M,,*59
$GPRMC,154702.750,A,3554.7346,N,08403.5218,W,0.20,247.07,270721$GPGGA,154703.000,3554.7345,N,08403.5219,W,1,03,4.33,182.1,M,-32.1,M,,*58
$GPRMC,154703.250,A,3554.7343,N,08403.5221,W,0.24,257.46,270721,,,A*75
$GPGGA,154703.500,3554.7342,N,08403.5221,W,1,03,4.33,182.1,M,-32.1,M,,*51
$GPRMC,154703.750,A,3554.7341,N,08403.5222,W,0.21,252.06,270721,,,A*75
$GPGGA,154704.000,3554.7340,N,08403.5222,W,1,03,4.33,182.1,M,-32.1,M,,*52
$GPRMC,154704.250,A,3554.7339,N,08403.5223,W,0.26,255.56,270721,,,A*7C
$GPGGA,154704.500,3554.7338,N,08403.5224,W,1,03,4.34,182.1,M,-32.1,M,,*59
$GPRMC,154704.750,A,3554.7337,N,08403.5225,W,0.30,259.58,270721,,,A*74
$GPGGA,154705.000,3554.7337,N,08403.5226,W,1,03,4.33,182.1,M,-32.1,M,,*57
$GPRMC,154705.250,A,3554.7336,N,08403.5226,W,0.31,254.90,270721,,,A*7A
$GPGGA,154705.500,3554.7335,N,08403.5226,W,1,03,4.34,182.1,M,-32.1,M,,*57
$GPRMC,154705.750,A,3554.7335,N,08403.5226,W,0.32,254.55,270721,,,A*76
$GPGGA,154706.000,3554.7335,N,08403.5227,W,1,03,4.34,182.1,M,-32.1,M,,*50
$GPRMC,154706.250,A,3554.7335,N,08403.5228,W,0.30,260.77,270721,,,A*7B
$GPGGA,154706.500,3554.7333,N,08403.5228,W,1,03,4.34,182.1,M,-32.1,M,,*5C
$GPRMC,154706.750,A,3554.7331,N,08403.5229,W,0.36,241.16,270721,,,A*79
$GPGGA,154707.000,3554.7331,N,08403.5229,W,1,03,4.34,182.1,M,-32.1,M,,*5B
$GPRMC,154707.250,A,3554.7330,N,08403.5229,W,0.38,238.48,270721,,,A*77
$GPGGA,154707.500,3554.7330,N,08403.5230,W,1,03,4.34,182.1,M,-32.1,M,,*57
$GPRMC,154707.750,A,3554.7329,N,08403.5231,W,0.42,233.12,270721,,,A*7A
$GPGGA,154708.000,3554.7328,N,08403.5232,W,1,03,4.34,182.1,M,-32.1,M,,*56
$GPGGA,154708.145,3554.7327,N,08403.5233,W,1,03,4.34,182.1,M,-32.1,M,,*58
$GPRMC,154708.145,A,3554.7327,N,08403.5233,W,0.45,231.42,270721,,,A*7B
$GPGGA,154708.500,3554.7326,N,08403.5234,W,1,03,4.34,182.1,M,-32.1,M,,*5B
$GPRMC,154708.500,A,3554.7326,N,08403.5234,W,0.44,233.01,270721,,,A*7C
$GPGGA,154708.750,3554.7325,N,08403.5235,W,1,03,4.34,182.1,M,-32.1,M,,*5E
$GPRMC,154708.750,A,3554.7325,N,08403.5235,W,0.43,235.71,270721,,A*7F
$GPGGA,154709.000,3554.7324,N,08403.5235,W,1,03,4.34,182.1,M,-32.1,M,,*5C
$GPRMC,154709.000,A,3554.7324,N,08403.5235,W,0.41,234.57,270721,,A*7A
$GPGGA,154709.250,3554.7324,N,08403.5236,W,1,03,4.34,182.1,M,-32.1,M,,*58
$GPRMC,154709.250,A,3554.7324,N,08403.5236,W,0.42,235.44,270721,,A*7E
$GPGGA,154709.500,3554.7323,N,08403.5238,W,1,03,4.34,182.1,M,-32.1,M,,*53
$GPRMC,154709.500,A,3554.7323,N,08403.5238,W,0.44,239.46,270721,,,A*7D
$GPGGA,154709.750,3554.7322,N,08403.5238,W,1,03,4.34,182.1,M,-32.1,M,,*55
$GPRMC,154709.750,A,3554.7322,N,08403.5238,W,0.42,236.73,270721$GPGGA,154710.000,3554.7321,N,08403.5238,W,1,03,4.34,182.1,M,-32.1,M,,*5C
$GPRMC,154710.250,A,3554.7320,N,08403.5238,W,0.37,229.22,270721,,,A*73
$GPGGA,154710.500,3554.7318,N,08403.5238,W,1,03,4.34,182.1,M,-32.1,M,,*53
$GPRMC,154710.750,A,3554.7317,N,08403.5239,W,0.34,227.45,270721,,,A*7F
$GPGGA,154711.000,3554.7316,N,08403.5239,W,1,03,4.34,182.1,M,-32.1,M,,*58
$GPRMC,154711.250,A,3554.7314,N,08403.5239,W,0.34,219.74,270721,,,A*77
$GPGGA,154711.500,3554.7313,N,08403.5239,W,1,03,4.35,182.1,M,-32.1,M,,*59
$GPRMC,154711.750,A,3554.7311,N,08403.5239,W,0.35,214.69,270721,,,A*77
$GPGGA,154712.000,3554.7309,N,08403.5239,W,1,03,4.34,182.1,M,-32.1,M,,*55
$GPRMC,154712.250,A,3554.7307,N,08403.5240,W,0.36,203.04,270721,,,A*76
$GPGGA,154712.500,3554.7306,N,08403.5241,W,1,03,4.35,182.1,M,-32.1,M,,*51
$GPRMC,154712.750,A,3554.7306,N,08403.5242,W,0.34,214.16,270721,,,A*77
$GPGGA,154713.000,3554.7304,N,08403.5242,W,1,03,4.34,182.1,M,-32.1,M,,*55
$GPRMC,154713.250,A,3554.7303,N,08403.5243,W,0.35,214.51,270721,,,A*75
$GPGGA,154713.500,3554.7302,N,08403.5243,W,1,03,4.35,182.1,M,-32.1,M,,*56
$GPRMC,154713.750,A,3554.7301,N,08403.5243,W,0.32,200.17,270721,,,A*72
$GPGGA,154714.000,3554.7299,N,08403.5243,W,1,03,4.35,182.1,M,-32.1,M,,*57
$GPGGA,154714.152,3554.7297,N,08403.5243,W,1,03,4.35,182.1,M,-32.1,M,,*5F
$GPRMC,154714.152,A,3554.7297,N,08403.5243,W,0.32,190.72,270721,,,A*76
$GPGGA,154714.500,3554.7295,N,08403.5244,W,1,03,4.35,182.1,M,-32.1,M,,*59
$GPRMC,154714.500,A,3554.7295,N,08403.5244,W,0.32,198.78,270721$GPGGA,154714.750,3554.7293,N,08403.5244,W,1,03,4.35,182.1,M,-32.1,M,,*58
$GPRMC,154715.000,A,3554.7291,N,08403.5244,W,0.31,191.86,270721,,,A*79
$GPGGA,154715.250,3554.7290,N,08403.5243,W,1,03,4.35,182.1,M,-32.1,M,,*58
$GPRMC,154715.500,A,3554.7288,N,08403.5243,W,0.32,187.12,270721,,,A*7A
$GPGGA,154715.750,3554.7287,N,08403.5244,W,1,03,4.35,182.1,M,-32.1,M,,*5C
$GPRMC,154716.000,A,3554.7286,N,08403.5244,W,0.34,195.56,270721,,,A*70
$GPGGA,154716.250,3554.7284,N,08403.5244,W,1,03,4.35,182.1,M,-32.1,M,,*59
$GPRMC,154716.500,A,3554.7282,N,08403.5245,W,0.38,199.30,270721,,,A*70
$GPGGA,154716.750,3554.7281,N,08403.5245,W,1,03,4.35,182.1,M,-32.1,M,,*58
$GPRMC,154717.000,A,3554.7279,N,08403.5245,W,0.40,186.87,270721,,,A*7D
$GPGGA,154717.250,3554.7277,N,08403.5245,W,1,03,4.35,182.1,M,-32.1,M,,*55
$GPRMC,154717.500,A,3554.7276,N,08403.5245,W,0.45,187.84,270721,,,A*70
$GPGGA,154717.750,3554.7275,N,08403.5245,W,1,03,4.36,182.1,M,-32.1,M,,*51
$GPRMC,154718.000,A,3554.7273,N,08403.5246,W,0.49,184.54,270721,,,A*7E
$GPGGA,154718.250,3554.7271,N,08403.5246,W,1,03,4.36,182.1,M,-32.1,M,,*5C
$GPRMC,154718.500,A,3554.7268,N,08403.5247,W,0.57,183.28,270721,,,A*73
$GPGGA,154718.750,3554.7263,N,08403.5247,W,1,03,4.35,182.1,M,-32.1,M,,*58
$GPRMC,154719.000,A,3554.7260,N,08403.5248,W,0.65,182.32,270721,,,A*7B
$GPGGA,154719.250,3554.7254,N,08403.5250,W,1,03,4.36,182.1,M,-32.1,M,,*5D
$GPRMC,154719.500,A,3554.7251,N,08403.5250,W,0.75,186.10,270721,,,A*70
$GPGGA,154719.750,3554.7248,N,08403.5251,W,1,03,4.36,182.1,M,-32.1,M,,*54
$GPRMC,154720.000,A,3554.7243,N,08403.5253,W,0.84,191.76,270721,,,A*77
$GPGGA,154720.085,3554.7240,N,08403.5254,W,1,03,4.36,182.1,M,-31,M,,*5C
$GPGGA,154720.500,3554.7235,N,08403.5255,W,1,03,4.36,182.1,M,-32.1,M,,*57
$GPRMC,154720.500,A,3554.7235,N,08403.5255,W,0.93,192.48,270721,,A*7D
$GPGGA,154720.750,3554.7231,N,08403.5256,W,1,03,4.36,182.1,M,-32.1,M,,*57
$GPRMC,154720.750,A,3554.7231,N,08403.5256,W,0.98,192.09,270721,,A*73
$GPGGA,154721.000,3554.7227,N,08403.5256,W,1,03,4.36,182.1,M,-32.1,M,,*53
$GPRMC,154721.000,A,3554.7227,N,08403.5256,W,1.02,190.31,270721$GPGGA,154721.250,3554.7223,N,08403.5255,W,1,03,4.36,182.1,M,-32.1,M,,*53
$GPRMC,154721.500,A,3554.7220,N,08403.5255,W,1.13,182.47,270721,,,A*7F
$GPGGA,154721.750,3554.7217,N,08403.5255,W,1,03,4.37,182.1,M,-32.1,M,,*50
$GPRMC,154722.000,A,3554.7214,N,08403.5256,W,1.22,180.79,270721,,,A*70
$GPGGA,154722.250,3554.7212,N,08403.5256,W,1,03,4.37,182.1,M,-32.1,M,,*50
$GPRMC,154722.500,A,3554.7209,N,08403.5257,W,1.24,186.72,270721,,,A*73
$GPGGA,154722.750,3554.7206,N,08403.5258,W,1,03,4.36,182.1,M,-32.1,M,,*5F
$GPRMC,154723.000,A,3554.7202,N,08403.5258,W,1.32,187.04,270721,,,A*74
$GPGGA,154723.250,3554.7201,N,08403.5259,W,1,03,4.36,182.1,M,-32.1,M,,*5D
$GPRMC,154723.500,A,3554.7200,N,08403.5259,W,1.34,189.89,270721,,,A*7F
$GPGGA,154723.750,3554.7198,N,08403.5259,W,1,03,4.36,182.1,M,-32.1,M,,*5B
$GPRMC,154724.000,A,3554.7197,N,08403.5260,W,1.38,190.18,270721,,,A*76
$GPGGA,154724.250,3554.7196,N,08403.5259,W,1,03,4.37,182.1,M,-32.1,M,,*56
$GPRMC,154724.500,A,3554.7195,N,08403.5259,W,1.38,189.06,270721,,,A*7C
$GPGGA,154724.750,3554.7193,N,08403.5259,W,1,03,4.37,182.1,M,-32.1,M,,*56
$GPRMC,154725.000,A,3554.7192,N,08403.5259,W,1.40,189.46,270721,,,A*74
$GPGGA,154725.250,3554.7191,N,08403.5259,W,1,03,4.37,182.1,M,-32.1,M,,*50
$GPRMC,154725.500,A,3554.7189,N,08403.5259,W,1.40,189.68,270721,,,A*77
$GPGGA,154725.750,3554.7190,N,08403.5258,W,1,03,4.37,182.1,M,-32.1,M,,*55
$GPRMC,154726.000,A,3554.7189,N,08403.5258,W,1.35,187.76,270721,,,A*73
$GPGGA,154726.085,3554.7189,N,08403.5257,W,1,03,4.37,182.1,M,-3A,3554.7189,N,08403.5257,W,1.35,187.44,270721,,,A*70
$GPGGA,154726.500,3554.7190,N,08403.5257,W,1,03,4.37,182.1,M,-32.1,M,,*5E
$GPRMC,154726.500,A,3554.7190,N,08403.5257,W,1.32,186.44,270721,,A*76
$GPGGA,154726.750,3554.7191,N,08403.5256,W,1,03,4.37,182.1,M,-32.1,M,,*59
$GPRMC,154726.750,A,3554.7191,N,08403.5256,W,1.30,184.68,270721,,A*7F
$GPGGA,154727.000,3554.7192,N,08403.5255,W,1,03,4.37,182.1,M,-32.1,M,,*5A
$GPRMC,154727.000,A,3554.7192,N,08403.5255,W,1.27,184.09,270721,,,A*7D
$GPGGA,154727.250,3554.7193,N,08403.5255,W,1,03,4.37,182.1,M,-32.1,M,,*5C
$GPRMC,154727.250,A,3554.7193,N,08403.5255,W,1.25,183.29,270721,,,A*7C
$GPGGA,154727.500,3554.7194,N,08403.5254,W,1,03,4.37,182.1,M,-32.1,M,,*58
$GPRMC,154727.500,A,3554.7194,N,08403.5254,W,1.22,183.98,2707215
$GPGGA,154727.750,3554.7195,N,08403.5253,W,1,03,4.37,182.1,M,-32.1,M,,*59
$GPRMC,154727.750,A,3554.7195,N,08403.5253,W,1.19,184.32,270721,,A*7B
$GPGGA,154728.000,3554.7196,N,08403.5253,W,1,03,4.37,182.1,M,-32.1,M,,*57
$GPRMC,154728.000,A,3554.7196,N,08403.5253,W,1.17,184.18,270721$GPGGA,154728.250,3554.7198,N,08403.5252,W,1,03,4.37,182.1,M,-32.1,M,,*5F
$GPRMC,154728.500,A,3554.7199,N,08403.5251,W,1.11,183.53,270721,,,A*75
$GPGGA,154728.750,3554.7201,N,08403.5249,W,1,03,4.38,182.1,M,-32.1,M,,*5C
$GPRMC,154729.000,A,3554.7202,N,08403.5247,W,1.06,176.71,270721,,,A*7B
$GPGGA,154729.250,3554.7203,N,08403.5246,W,1,03,4.37,182.1,M,-32.1,M,,*5A
$GPRMC,154729.500,A,3554.7205,N,08403.5245,W,1.01,173.42,270721,,,A*79
$GPGGA,154729.750,3554.7205,N,08403.5244,W,1,03,4.37,182.1,M,-32.1,M,,*5B
$GPRMC,154730.000,A,3554.7205,N,08403.5245,W,0.97,179.06,270721,,,A*70
$GPGGA,154730.250,3554.7205,N,08403.5245,W,1,03,4.38,182.1,M,-32.1,M,,*58
$GPRMC,154730.500,A,3554.7205,N,08403.5244,W,0.95,182.44,270721,,,A*74
$GPGGA,154730.750,3554.7203,N,08403.5244,W,1,03,4.38,182.1,M,-32.1,M,,*5A
$GPRMC,154731.000,A,3554.7201,N,08403.5244,W,0.96,182.42,270721,,,A*71
$GPGGA,154731.250,3554.7199,N,08403.5243,W,1,03,4.38,182.1,M,-32.1,M,,*59
$GPRMC,154731.500,A,3554.7197,N,08403.5243,W,0.99,179.75,270721,,,A*70
$GPGGA,154731.750,3554.7195,N,08403.5242,W,1,03,4.38,182.1,M,-32.1,M,,*51
$GPRMC,154732.000,A,3554.7193,N,08403.5242,W,1.00,178.07,270721,,,A*76
$GPGGA,154732.085,3554.7191,N,08403.5242,W,1,03,4.38,182.1,M,-31,M,,*59
$GPRMC,154732.500,A,3554.7188,N,08403.5242,W,1.05,179.26,270721,,,A*7E
$GPGGA,154732.750,3554.7186,N,08403.5242,W,1,03,4.38,182.1,M,-32.1,M,,*50
$GPRMC,154733.000,A,3554.7183,N,08403.5242,W,1.07,182.61,270721,,,A*74
$GPGGA,154733.250,3554.7181,N,08403.5242,W,1,03,4.38,182.1,M,-32.1,M,,*53
$GPRMC,154733.500,A,3554.7179,N,08403.5240,W,1.13,176.39,270721,,,A*75
$GPGGA,154733.750,3554.7178,N,08403.5238,W,1,03,4.38,182.1,M,-32.1,M,,*5D
$GPRMC,154734.000,A,3554.7177,N,08403.5238,W,1.14,173.77,270721,,,A*7E
$GPGGA,154734.250,3554.7175,N,08403.5238,W,1,03,4.38,182.1,M,-32.1,M,,*52
$GPRMC,154734.500,A,3554.7173,N,08403.5238,W,1.16,176.80,270721,,,A*70
$GPGGA,154734.750,3554.7172,N,08403.5237,W,1,03,4.38,182.1,M,-32.1,M,,*5F
$GPRMC,154735.000,A,3554.7172,N,08403.5237,W,1.15,176.29,270721,,,A*7A
$GPGGA,154735.250,3554.7171,N,08403.5237,W,1,03,4.38,182.1,M,-32.1,M,,*58
$GPRMC,154735.500,A,3554.7171,N,08403.5236,W,1.13,176.77,270721,,,A*70
$GPGGA,154735.750,3554.7172,N,08403.5236,W,1,03,4.38,182.1,M,-32.1,M,,*5F
$GPRMC,154736.000,A,3554.7172,N,08403.5235,W,1.07,177.80,270721,,,A*7A
$GPGGA,154736.250,3554.7174,N,08403.5235,W,1,03,4.39,182.1,M,-32.1,M,,*5D
$GPRMC,154736.500,A,3554.7177,N,08403.5234,W,0.97,178.91,270721,,,A*7C
$GPGGA,154736.750,3554.7181,N,08403.5232,W,1,03,4.39,182.1,M,-32.1,M,,*55
$GPRMC,154737.000,A,3554.7185,N,08403.5230,W,0.86,172.25,270721,,,A*74
$GPGGA,154737.250,3554.7187,N,08403.5228,W,1,03,4.39,182.1,M,-32.1,M,,*5C
$GPRMC,154737.500,A,3554.7190,N,08403.5226,W,0.82,160.22,270721,,,A*72
$GPGGA,154737.750,3554.7193,N,08403.5225,W,1,03,4.39,182.1,M,-32.1,M,,*51
$GPRMC,154738.000,A,3554.7196,N,08403.5224,W,0.71,157.29,270721,,,A*7F
$GPGGA,154738.083,3554.7201,N,08403.5222,W,1,03,4.39,182.1,M,-31,M,,*58
$GPRMC,154738.500,A,3554.7203,N,08403.5222,W,0.61,153.18,270721,,,A*74
$GPGGA,154738.750,3554.7208,N,08403.5222,W,1,03,4.39,182.1,M,-32.1,M,,*58
$GPRMC,154739.000,A,3554.7215,N,08403.5220,W,0.34,153.31,270721,,,A*7E
$GPGGA,154739.250,3554.7223,N,08403.5218,W,1,03,4.39,181.7,M,-32.1,M,,*59
$GPRMC,154739.500,A,3554.7230,N,08403.5215,W,0.34,91.14,270721,,,A*42
$GPGGA,154739.750,3554.7238,N,08403.5212,W,1,03,4.39,181.3,M,-32.1,M,,*58
$GPRMC,154740.000,A,3554.7245,N,08403.5210,W,0.43,66.21,270721,,,A*40
$GPGGA,154740.250,3554.7252,N,08403.5209,W,1,03,4.39,180.9,M,-32.1,M,,*5E
$GPRMC,154740.500,A,3554.7260,N,08403.5207,W,0.50,52.65,270721,,,A*41
$GPGGA,154740.750,3554.7268,N,08403.5207,W,1,03,4.39,180.5,M,-32.1,M,,*50
$GPRMC,154741.000,A,3554.7276,N,08403.5205,W,0.68,32.09,270721,,,A*47
$GPGGA,154741.250,3554.7285,N,08403.5204,W,1,03,4.39,180.2,M,-32.1,M,,*53
$GPRMC,154741.500,A,3554.7293,N,08403.5203,W,0.69,26.52,270721,,,A*45
$GPGGA,154741.750,3554.7302,N,08403.5202,W,1,03,4.39,180.2,M,-32.1,M,,*5E
$GPRMC,154742.000,A,3554.7311,N,08403.5202,W,0.83,17.58,270721,,,A*45
$GPGGA,154742.250,3554.7320,N,08403.5202,W,1,03,4.39,180.1,M,-32.1,M,,*5B
$GPRMC,154742.500,A,3554.7327,N,08403.5202,W,0.99,11.05,270721,,,A*40
$GPGGA,154742.750,3554.7332,N,08403.5201,W,1,03,53.00,180.0,M,-32.1,M,,*67
$GPRMC,154743.000,A,3554.7338,N,08403.5201,W,0.99,11.77,270721,,,A*4C
$GPGGA,154743.250,3554.7344,N,08403.5200,W,1,03,53.00,179.6,M,-32.1,M,,*63
$GPRMC,154743.500,A,3554.7349,N,08403.5199,W,1.12,9.08,270721,,,A*7E
$GPGGA,154743.750,3554.7353,N,08403.5198,W,1,03,53.00,179.0,M,-32.1,M,,*64
$GPRMC,154744.000,A,3554.7356,N,08403.5198,W,1.14,5.44,270721,,,A*71
$GPGGA,154744.095,3554.7357,N,08403.5198,W,1,03,53.00,178.1,M,-2.1,M,,*69
$GPRMC,154744.500,A,3554.7357,N,08403.5197,W,1.07,358.80,270721,,,A*7B
$GPGGA,154744.750,3554.7358,N,08403.5198,W,1,03,53.00,177.2,M,-32.1,M,,*64
$GPRMC,154745.000,A,3554.7360,N,08403.5198,W,1.01,352.11,270721,,,A*70
$GPGGA,154745.250,3554.7362,N,08403.5197,W,1,03,53.00,176.5,M,-32.1,M,,*60
$GPRMC,154745.500,A,3554.7363,N,08403.5197,W,0.99,354.17,270721,,,A*79
$GPGGA,154745.750,3554.7366,N,08403.5197,W,1,03,53.00,176.0,M,-32.1,M,,*64
$GPRMC,154746.000,A,3554.7367,N,08403.5197,W,1.05,352.46,270721,,,A*7D
$GPGGA,154746.250,3554.7369,N,08403.5197,W,1,03,53.00,175.6,M,-32.1,M,,*68
$GPRMC,154746.500,A,3554.7370,N,08403.5197,W,1.03,352.57,270721,,,A*78
$GPGGA,154746.750,3554.7372,N,08403.5197,W,1,03,53.01,175.2,M,-32.1,M,,*62
$GPRMC,154747.000,A,3554.7373,N,08403.5197,W,1.04,353.47,270721,,,A*78
$GPGGA,154747.250,3554.7375,N,08403.5197,W,1,03,53.01,174.9,M,-32.1,M,,*6B
$GPRMC,154747.500,A,3554.7376,N,08403.5198,W,1.08,348.20,270721,,,A*70
$GPGGA,154747.750,3554.7378,N,08403.5199,W,1,03,53.01,174.7,M,-32.1,M,,*63
$GPRMC,154748.000,A,3554.7378,N,08403.5200,W,1.09,345.09,270721,,,A*71
$GPGGA,154748.250,3554.7376,N,08403.5201,W,1,03,53.01,174.4,M,-32.1,M,,*66
$GPRMC,154748.500,A,3554.7376,N,08403.5201,W,0.96,346.36,270721,,,A*73
$GPGGA,154748.750,3554.7378,N,08403.5201,W,1,03,53.01,174.2,M,-32.1,M,,*6B
$GPRMC,154749.000,A,3554.7379,N,08403.5202,W,1.02,347.09,270721,,,A*7A
$GPGGA,154749.250,3554.7380,N,08403.5203,W,1,03,53.01,174.0,M,-32.1,M,,*68
$GPRMC,154749.500,A,3554.7379,N,08403.5203,W,0.94,349.79,270721,,,A*79
$GPGGA,154749.750,3554.7379,N,08403.5203,W,1,03,53.01,173.8,M,-32.1,M,,*64
$GPRMC,154750.000,A,3554.7378,N,08403.5203,W,0.91,355.43,270721,,,A*74
$GPGGA,154750.095,3554.7377,N,08403.5204,W,1,03,53.01,173.7,M,-.1,M,,*64
$GPRMC,154750.500,A,3554.7377,N,08403.5206,W,0.83,351.41,270721,,,A*7E
$GPGGA,154750.750,3554.7376,N,08403.5207,W,1,03,53.02,173.5,M,-32.1,M,,*69
$GPRMC,154751.000,A,3554.7376,N,08403.5207,W,0.81,354.80,270721,,,A*70
$GPGGA,154751.250,3554.7376,N,08403.5208,W,1,03,53.02,173.4,M,-32.1,M,,*63
$GPRMC,154751.500,A,3554.7375,N,08403.5209,W,0.79,352.79,270721,,,A*7F
$GPGGA,154751.750,3554.7375,N,08403.5210,W,1,03,53.02,173.3,M,-32.1,M,,*6B
$GPRMC,154752.000,A,3554.7375,N,08403.5211,W,0.79,350.45,270721,,,A*7D
$GPGGA,154752.250,3554.7374,N,08403.5212,W,1,03,53.02,173.3,M,-32.1,M,,*6E
$GPRMC,154752.500,A,3554.7374,N,08403.5213,W,0.75,347.58,270721,,,A*7D
$GPGGA,154752.750,3554.7373,N,08403.5214,W,1,03,53.02,173.2,M,-32.1,M,,*6B
$GPRMC,154753.000,A,3554.7372,N,08403.5215,W,0.71,349.41,270721,,,A*7B
$GPGGA,154753.250,3554.7371,N,08403.5216,W,1,03,53.02,173.2,M,-32.1,M,,*6F
$GPRMC,154753.500,A,3554.7369,N,08403.5218,W,0.65,341.29,270721,,,A*7A
$GPGGA,154753.750,3554.7367,N,08403.5220,W,1,03,4.42,173.2,M,-32.1,M,,*5E
$GPRMC,154754.000,A,3554.7365,N,08403.5221,W,0.60,335.83,270721,,,A*78
$GPGGA,154754.250,3554.7363,N,08403.5222,W,1,03,4.42,173.2,M,-32.1,M,,*5A
$GPRMC,154754.500,A,3554.7362,N,08403.5222,W,0.53,337.07,270721,,,A*77
$GPGGA,154754.750,3554.7359,N,08403.5223,W,1,03,4.42,173.2,M,-32.1,M,,*57
$GPRMC,154755.000,A,3554.7357,N,08403.5224,W,0.42,331.66,270721,,,A*72
$GPGGA,154755.250,3554.7356,N,08403.5225,W,1,03,4.42,173.2,M,-32.1,M,,*5A
$GPRMC,154755.500,A,3554.7354,N,08403.5226,W,0.37,334.22,270721,,,A*71
$GPGGA,154755.750,3554.7353,N,08403.5226,W,1,03,4.42,173.3,M,-32.1,M,,*58
$GPRMC,154756.000,A,3554.7351,N,08403.5227,W,0.30,344.74,270721,,,A*70
$GPGGA,154756.085,3554.7354,N,08403.5235,W,1,04,3.71,174.4,M,-35,A,3554.7354,N,08403.5235,W,0.40,331.17,270721,,,A*7B
$GPGGA,154756.500,3554.7357,N,08403.5242,W,1,04,3.71,175.3,M,-32.1,M,,*5C
$GPRMC,154756.500,A,3554.7357,N,08403.5242,W,0.51,326.27,270721,,A*75
$GPGGA,154756.750,3554.7361,N,08403.5249,W,1,04,3.72,176.1,M,-32.1,M,,*57
$GPRMC,154756.750,A,3554.7361,N,08403.5249,W,0.59,323.66,270721,,A*74
$GPGGA,154757.000,3554.7375,N,08403.5264,W,1,04,3.72,178.0,M,-32.1,M,,*51
$GPRMC,154757.000,A,3554.7375,N,08403.5264,W,0.72,322.86,270721$GPGGA,154757.250,3554.7387,N,08403.5278,W,1,04,3.71,179.8,M,-32.1,M,,*5C
$GPRMC,154757.500,A,3554.7397,N,08403.5290,W,0.85,320.26,270721,,,A*79
$GPGGA,154757.750,3554.7408,N,08403.5300,W,1,04,3.71,182.8,M,-32.1,M,,*53
$GPRMC,154758.000,A,3554.7416,N,08403.5309,W,0.93,326.09,270721,,,A*70
$GPGGA,154758.250,3554.7424,N,08403.5318,W,1,04,3.71,185.2,M,-32.1,M,,*53
$GPRMC,154758.500,A,3554.7430,N,08403.5325,W,0.94,327.17,270721,,,A*76
$GPGGA,154758.750,3554.7436,N,08403.5332,W,1,04,3.71,187.3,M,-32.1,M,,*5E
$GPRMC,154759.000,A,3554.7441,N,08403.5338,W,0.90,329.61,270721,,,A*73
$GPGGA,154759.250,3554.7446,N,08403.5343,W,1,04,3.71,189.1,M,-32.1,M,,*57
$GPRMC,154759.500,A,3554.7451,N,08403.5349,W,0.93,333.39,270721,,,A*74
$GPGGA,154759.750,3554.7456,N,08403.5354,W,1,04,3.71,190.6,M,-32.1,M,,*5A
$GPRMC,154800.000,A,3554.7460,N,08403.5358,W,0.92,335.13,270721,,,A*7F
$GPGGA,154800.250,3554.7464,N,08403.5361,W,1,04,3.72,191.9,M,-32.1,M,,*56
$GPRMC,154800.500,A,3554.7468,N,08403.5365,W,0.90,340.61,270721,,,A*79
$GPGGA,154800.750,3554.7472,N,08403.5368,W,1,04,3.72,193.1,M,-32.1,M,,*57
$GPRMC,154801.000,A,3554.7474,N,08403.5372,W,0.90,340.71,270721,,,A*77
$GPGGA,154801.250,3554.7476,N,08403.5375,W,1,04,3.72,194.1,M,-32.1,M,,*5C
$GPRMC,154801.500,A,3554.7478,N,08403.5377,W,0.79,340.48,270721,,,A*76
$GPGGA,154801.750,3554.7481,N,08403.5380,W,1,04,3.72,195.0,M,-32.1,M,,*5B
$GPRMC,154802.000,A,3554.7483,N,08403.5382,W,0.73,348.34,270721,,,A*77
$GPGGA,154802.250,3554.7485,N,08403.5383,W,1,04,3.87,195.8,M,-32.1,M,,*58
$GPRMC,154802.500,A,3554.7487,N,08403.5385,W,0.73,353.53,270721,,,A*7A
$GPGGA,154802.750,3554.7489,N,08403.5387,W,1,04,3.87,196.5,M,-32.1,M,,*5B
$GPRMC,154803.000,A,3554.7491,N,08403.5388,W,0.75,353.42,270721,,,A*72
$GPGGA,154803.250,3554.7493,N,08403.5390,W,1,04,3.87,197.1,M,-32.1,M,,*57
$GPRMC,154803.500,A,3554.7494,N,08403.5390,W,0.77,358.67,270721,,,A*75
$GPGGA,154803.750,3554.7495,N,08403.5392,W,1,04,3.87,197.8,M,-32.1,M,,*5F
$GPRMC,154804.000,A,3554.7495,N,08403.5393,W,0.75,359.34,270721,,,A*70
$GPGGA,154804.250,3554.7496,N,08403.5394,W,1,04,3.87,198.3,M,-32.1,M,,*5C
$GPRMC,154804.500,A,3554.7497,N,08403.5395,W,0.79,0.00,270721,,,A*75
$GPGGA,154804.750,3554.7497,N,08403.5396,W,1,04,3.87,198.9,M,-32.1,M,,*50
$GPRMC,154805.000,A,3554.7499,N,08403.5397,W,0.83,353.03,270721,,,A*7E
$GPGGA,154805.250,3554.7500,N,08403.5399,W,1,04,3.87,199.4,M,-32.1,M,,*58
$GPRMC,154805.500,A,3554.7501,N,08403.5400,W,0.88,349.74,270721,,,A*72
$GPGGA,154805.750,3554.7501,N,08403.5401,W,1,04,3.87,199.8,M,-32.1,M,,*56
$GPRMC,154806.000,A,3554.7501,N,08403.5401,W,0.82,350.37,270721,,,A*70
$GPGGA,154806.250,3554.7501,N,08403.5402,W,1,04,3.87,200.3,M,-32.1,M,,*5B
$GPRMC,154806.500,A,3554.7501,N,08403.5402,W,0.70,354.85,270721,,,A*76
$GPGGA,154806.750,3554.7501,N,08403.5403,W,1,04,3.87,200.8,M,-32.1,M,,*54
$GPRMC,154807.000,A,3554.7500,N,08403.5403,W,0.58,1.16,270721,,,A*71
$GPGGA,154807.250,3554.7500,N,08403.5403,W,1,04,3.88,201.3,M,-32.1,M,,*54
$GPRMC,154807.500,A,3554.7501,N,08403.5404,W,0.53,359.84,270721,,,A*7C
$GPGGA,154807.750,3554.7501,N,08403.5405,W,1,04,3.87,201.8,M,-32.1,M,,*52
$GPRMC,154808.000,A,3554.7501,N,08403.5406,W,0.50,350.52,270721,,,A*75
$GPGGA,154808.250,3554.7501,N,08403.5407,W,1,04,3.87,202.3,M,-32.1,M,,*52
$GPRMC,154808.500,A,3554.7500,N,08403.5408,W,0.37,349.94,270721,,,A*7C
$GPGGA,154808.750,3554.7500,N,08403.5409,W,1,04,3.87,202.8,M,-32.1,M,,*53
$GPRMC,154809.000,A,3554.7500,N,08403.5409,W,0.31,345.88,270721,,,A*7E
$GPGGA,154809.250,3554.7499,N,08403.5411,W,1,04,3.87,203.4,M,-32.1,M,,*52
$GPRMC,154809.500,A,3554.7498,N,08403.5412,W,0.25,309.77,270721,,,A*7C
$GPGGA,154809.750,3554.7497,N,08403.5413,W,1,04,3.73,203.9,M,-32.1,M,,*5D
$GPRMC,154810.000,A,3554.7497,N,08403.5414,W,0.18,288.18,270721,,,A*77
$GPGGA,154810.250,3554.7497,N,08403.5414,W,1,04,3.73,204.5,M,-32.1,M,,*5C
$GPRMC,154810.500,A,3554.7497,N,08403.5414,W,0.12,288.30,270721,,,A*72
$GPGGA,154810.750,3554.7497,N,08403.5414,W,1,04,3.73,204.5,M,-32.1,M,,*59
$GPRMC,154811.000,A,3554.7497,N,08403.5414,W,0.07,323.12,270721,,,A*72
$GPGGA,154811.250,3554.7497,N,08403.5414,W,1,04,3.73,204.5,M,-32.1,M,,*5D
$GPRMC,154811.500,A,3554.7497,N,08403.5414,W,0.08,1.07,270721,,,A*7F
$GPGGA,154811.750,3554.7497,N,08403.5414,W,1,04,3.87,204.5,M,-32.1,M,,*53
$GPRMC,154812.000,A,3554.7497,N,08403.5414,W,0.12,333.29,270721,,,A*7C
$GPGGA,154812.250,3554.7497,N,08403.5414,W,1,04,3.73,204.5,M,-32.1,M,,*5E
$GPRMC,154812.500,A,3554.7498,N,08403.5415,W,0.08,343.02,270721,,,A*72
$GPGGA,154812.750,3554.7498,N,08403.5415,W,1,04,3.73,204.5,M,-32.1,M,,*55
$GPRMC,154813.000,A,3554.7498,N,08403.5415,W,0.08,307.25,270721,,,A*73
$GPGGA,154813.250,3554.7498,N,08403.5415,W,1,04,3.73,204.6,M,-32.1,M,,*52
$GPRMC,154813.500,A,3554.7498,N,08403.5415,W,0.12,258.20,270721,,,A*73
$GPGGA,154813.750,3554.7498,N,08403.5415,W,1,04,3.73,204.6,M,-32.1,M,,*57
$GPRMC,154814.000,A,3554.7498,N,08403.5415,W,0.13,266.30,270721,,,A*7C
$GPGGA,154814.250,3554.7498,N,08403.5415,W,1,04,3.73,204.6,M,-32.1,M,,*55
$GPRMC,154814.500,A,3554.7498,N,08403.5415,W,0.23,305.18,270721,,,A*74
$GPGGA,154814.750,3554.7498,N,08403.5415,W,1,04,3.73,204.6,M,-32.1,M,,*50
$GPRMC,154815.000,A,3554.7498,N,08403.5416,W,0.25,315.10,270721,,,A*7C
$GPGGA,154815.250,3554.7498,N,08403.5416,W,1,04,3.73,204.6,M,-32.1,M,,*57
$GPRMC,154815.500,A,3554.7498,N,08403.5416,W,0.28,308.34,270721,,,A*7E
$GPGGA,154815.750,3554.7498,N,08403.5416,W,1,04,3.73,204.6,M,-32.1,M,,*52
$GPRMC,154816.000,A,3554.7498,N,08403.5416,W,0.20,281.28,270721,,,A*7D
$GPGGA,154816.250,3554.7498,N,08403.5416,W,1,04,3.73,204.6,M,-32.1,M,,*54
$GPRMC,154816.500,A,3554.7498,N,08403.5417,W,0.19,289.98,270721,,,A*70
$GPGGA,154816.750,3554.7499,N,08403.5417,W,1,04,3.73,204.6,M,-32.1,M,,*51
$GPRMC,154817.000,A,3554.7499,N,08403.5417,W,0.21,308.24,270721,,,A*71
$GPGGA,154817.250,3554.7499,N,08403.5417,W,1,04,3.73,204.7,M,-32.1,M,,*54
$GPRMC,154817.500,A,3554.7499,N,08403.5417,W,0.23,327.41,270721,,,A*78
$GPGGA,154817.750,3554.7499,N,08403.5417,W,1,04,3.73,204.7,M,-32.1,M,,*51
$GPRMC,154818.000,A,3554.7499,N,08403.5417,W,0.28,322.87,270721,,,A*76
$GPGGA,154818.250,3554.7499,N,08403.5417,W,1,04,3.73,204.7,M,-32.1,M,,*5B
$GPRMC,154818.500,A,3554.7499,N,08403.5418,W,0.30,328.41,270721,,,A*75
$GPGGA,154818.750,3554.7500,N,08403.5418,W,1,04,3.73,204.7,M,-32.1,M,,*50
$GPRMC,154819.000,A,3554.7500,N,08403.5418,W,0.24,345.80,270721,,,A*73
$GPGGA,154819.250,3554.7500,N,08403.5418,W,1,04,3.87,204.7,M,-32.1,M,,*5F
$GPRMC,154819.500,A,3554.7500,N,08403.5418,W,0.33,344.13,270721,,,A*7B
$GPGGA,154819.750,3554.7500,N,08403.5418,W,1,04,3.74,204.7,M,-32.1,M,,*56
$GPRMC,154820.000,A,3554.7501,N,08403.5418,W,0.38,343.14,270721,,,A*7E
$GPGGA,154820.250,3554.7501,N,08403.5418,W,1,04,3.74,204.7,M,-32.1,M,,*58
$GPRMC,154820.500,A,3554.7501,N,08403.5418,W,0.28,6.92,270721,,,A*76
$GPGGA,154820.750,3554.7501,N,08403.5418,W,1,04,3.88,204.8,M,-32.1,M,,*51
$GPRMC,154821.000,A,3554.7502,N,08403.5418,W,0.31,12.57,270721,,,A*45
$GPGGA,154821.250,3554.7502,N,08403.5418,W,1,04,3.88,204.8,M,-32.1,M,,*56
$GPRMC,154821.500,A,3554.7502,N,08403.5418,W,0.27,23.41,270721,,,A*42
$GPGGA,154821.750,3554.7502,N,08403.5418,W,1,04,3.74,204.8,M,-32.1,M,,*50
$GPRMC,154822.000,A,3554.7502,N,08403.5418,W,0.23,22.56,270721,,,A*47
$GPGGA,154822.250,3554.7502,N,08403.5418,W,1,04,3.74,204.8,M,-32.1,M,,*56
$GPRMC,154822.500,A,3554.7502,N,08403.5417,W,0.30,64.71,270721,,,A*48
$GPGGA,154822.750,3554.7503,N,08403.5417,W,1,04,3.74,204.8,M,-32.1,M,,*5D
$GPRMC,154823.000,A,3554.7503,N,08403.5417,W,0.36,63.21,270721,,,A*49
$GPGGA,154823.250,3554.7503,N,08403.5417,W,1,04,3.74,204.8,M,-32.1,M,,*59
$GPRMC,154823.500,A,3554.7503,N,08403.5416,W,0.29,66.40,270721,,,A*41
$GPGGA,154823.750,3554.7503,N,08403.5416,W,1,04,3.74,204.8,M,-32.1,M,,*5D
$GPRMC,154824.000,A,3554.7503,N,08403.5416,W,0.21,83.22,270721,,,A*44
$GPGGA,154824.250,3554.7503,N,08403.5416,W,1,04,3.74,204.8,M,-32.1,M,,*5F
$GPRMC,154824.500,A,3554.7503,N,08403.5415,W,0.28,90.16,270721,,,A*4E
$GPGGA,154824.750,3554.7503,N,08403.5415,W,1,04,3.74,204.9,M,-32.1,M,,*58
$GPRMC,154825.000,A,3554.7503,N,08403.5415,W,0.32,88.69,270721,,,A*40
$GPGGA,154825.250,3554.7503,N,08403.5415,W,1,04,3.74,204.9,M,-32.1,M,,*5C
$GPRMC,154825.500,A,3554.7503,N,08403.5414,W,0.32,88.46,270721,,,A*49
$GPGGA,154825.750,3554.7503,N,08403.5414,W,1,04,3.74,204.9,M,-32.1,M,,*58
$GPRMC,154826.000,A,3554.7503,N,08403.5414,W,0.33,99.58,270721,,,A*41
$GPGGA,154826.250,3554.7503,N,08403.5413,W,1,05,2.05,204.9,M,-32.1,M,,*5F
$GPRMC,154826.500,A,3554.7503,N,08403.5413,W,0.39,91.13,270721,,,A*4E
$GPGGA,154826.750,3554.7503,N,08403.5413,W,1,05,2.05,204.9,M,-32.1,M,,*5A
$GPRMC,154827.000,A,3554.7503,N,08403.5412,W,0.37,85.56,270721,,,A*41
$GPGGA,154827.250,3554.7503,N,08403.5412,W,1,05,2.05,204.9,M,-32.1,M,,*5F
$GPRMC,154827.500,A,3554.7503,N,08403.5412,W,0.42,95.99,270721,,,A*44
$GPGGA,154827.750,3554.7503,N,08403.5411,W,1,05,2.05,204.9,M,-32.1,M,,*59
$GPRMC,154828.000,A,3554.7503,N,08403.5411,W,0.43,103.70,270721,,,A*75
$GPGGA,154828.250,3554.7502,N,08403.5411,W,1,05,2.05,204.9,M,-32.1,M,,*52
$GPRMC,154828.500,A,3554.7502,N,08403.5410,W,0.36,107.91,270721,,,A*79
$GPGGA,154828.750,3554.7502,N,08403.5410,W,1,05,2.05,204.9,M,-32.1,M,,*56
$GPRMC,154829.000,A,3554.7502,N,08403.5410,W,0.38,111.32,270721,,,A*7D
$GPGGA,154829.250,3554.7502,N,08403.5409,W,1,05,2.05,204.9,M,-32.1,M,,*5A
$GPRMC,154829.500,A,3554.7502,N,08403.5409,W,0.42,110.55,270721,,,A*7D
$GPGGA,154829.750,3554.7502,N,08403.5409,W,1,05,2.05,204.9,M,-32.1,M,,*5F
$GPRMC,154830.000,A,3554.7502,N,08403.5408,W,0.37,125.76,270721,,,A*74
$GPGGA,154830.250,3554.7502,N,08403.5408,W,1,05,2.05,205.0,M,-32.1,M,,*5B
$GPRMC,154830.500,A,3554.7501,N,08403.5408,W,0.26,132.72,270721,,,A*70
$GPGGA,154830.750,3554.7501,N,08403.5408,W,1,05,2.05,205.0,M,-32.1,M,,*5D
$GPRMC,154831.000,A,3554.7501,N,08403.5408,W,0.28,145.26,270721,,,A*7B
$GPGGA,154831.250,3554.7501,N,08403.5407,W,1,05,2.05,205.0,M,-32.1,M,,*56
$GPRMC,154831.500,A,3554.7501,N,08403.5407,W,0.30,150.03,270721,,,A*7B
$GPGGA,154831.750,3554.7501,N,08403.5407,W,1,05,2.05,205.0,M,-32.1,M,,*53
$GPRMC,154832.000,A,3554.7500,N,08403.5407,W,0.21,172.37,270721,,,A*7B
$GPGGA,154832.250,3554.7500,N,08403.5407,W,1,05,2.05,205.0,M,-32.1,M,,*54
$GPRMC,154832.500,A,3554.7500,N,08403.5407,W,0.21,162.13,270721,,,A*79
$GPGGA,154832.750,3554.7500,N,08403.5407,W,1,05,2.05,205.0,M,-32.1,M,,*51
$GPRMC,154833.000,A,3554.7500,N,08403.5407,W,0.21,158.60,270721,,,A*70
$GPGGA,154833.250,3554.7500,N,08403.5407,W,1,05,2.05,205.0,M,-32.1,M,,*55
$GPRMC,154833.500,A,3554.7500,N,08403.5407,W,0.21,168.69,270721,,,A*7F
$GPGGA,154833.750,3554.7499,N,08403.5407,W,1,05,2.05,205.0,M,-32.1,M,,*51
$GPRMC,154834.000,A,3554.7499,N,08403.5407,W,0.22,170.93,270721,,,A*73
$GPGGA,154834.250,3554.7499,N,08403.5407,W,1,05,2.05,205.0,M,-32.1,M,,*53
$GPRMC,154834.500,A,3554.7499,N,08403.5407,W,0.25,147.68,270721,,,A*71
$GPGGA,154834.750,3554.7499,N,08403.5406,W,1,05,2.05,205.0,M,-32.1,M,,*57
$GPRMC,154835.000,A,3554.7499,N,08403.5406,W,0.29,135.67,270721,,,A*72
$GPGGA,154835.250,3554.7499,N,08403.5406,W,1,05,2.05,205.0,M,-32.1,M,,*53
$GPRMC,154835.500,A,3554.7498,N,08403.5406,W,0.26,138.65,270721,,,A*76
$GPGGA,154835.750,3554.7498,N,08403.5406,W,1,05,2.05,205.0,M,-32.1,M,,*57
$GPRMC,154836.000,A,3554.7498,N,08403.5406,W,0.22,168.42,270721,,,A*74
$GPGGA,154836.250,3554.7498,N,08403.5406,W,1,05,2.05,205.1,M,-32.1,M,,*50
$GPRMC,154836.500,A,3554.7498,N,08403.5406,W,0.19,151.51,270721,,,A*71
$GPGGA,154836.750,3554.7498,N,08403.5406,W,1,05,2.05,205.1,M,-32.1,M,,*55
$GPRMC,154837.000,A,3554.7498,N,08403.5405,W,0.10,156.66,270721,,,A*7C
$GPGGA,154837.250,3554.7498,N,08403.5405,W,1,05,2.05,205.1,M,-32.1,M,,*52
$GPRMC,154837.500,A,3554.7498,N,08403.5405,W,0.08,165.03,270721,,,A*73
$GPGGA,154837.750,3554.7498,N,08403.5405,W,1,05,2.05,205.1,M,-32.1,M,,*57
$GPRMC,154838.000,A,3554.7498,N,08403.5405,W,0.03,241.62,270721,,,A*70
$GPGGA,154838.250,3554.7498,N,08403.5405,W,1,05,2.05,205.1,M,-32.1,M,,*5D
$GPRMC,154838.500,A,3554.7498,N,08403.5406,W,0.10,331.74,270721,,,A*75
$GPGGA,154838.750,3554.7498,N,08403.5406,W,1,05,2.05,205.1,M,-32.1,M,,*5B
$GPRMC,154839.000,A,3554.7498,N,08403.5406,W,0.11,355.66,270721,,,A*71
$GPGGA,154839.250,3554.7498,N,08403.5406,W,1,05,2.85,205.1,M,-32.1,M,,*57
$GPRMC,154839.500,A,3554.7498,N,08403.5406,W,0.15,355.46,270721,,,A*72
$GPGGA,154839.750,3554.7498,N,08403.5406,W,1,05,2.85,205.1,M,-32.1,M,,*52
$GPRMC,154840.000,A,3554.7498,N,08403.5406,W,0.20,327.84,270721,,,A*74
$GPGGA,154840.250,3554.7499,N,08403.5406,W,1,05,2.05,205.1,M,-32.1,M,,*50
$GPRMC,154840.500,A,3554.7499,N,08403.5406,W,0.23,320.18,270721,,,A*71
$GPGGA,154840.750,3554.7499,N,08403.5406,W,1,05,2.05,205.2,M,-32.1,M,,*56
$GPRMC,154841.000,A,3554.7499,N,08403.5406,W,0.20,326.20,270721,,,A*7B
$GPGGA,154841.250,3554.7499,N,08403.5406,W,1,05,2.05,205.2,M,-32.1,M,,*52
$GPRMC,154841.500,A,3554.7499,N,08403.5406,W,0.13,0.57,270721,,,A*79
$GPGGA,154841.750,3554.7499,N,08403.5406,W,1,05,2.85,205.2,M,-32.1,M,,*5F
$GPRMC,154842.000,A,3554.7499,N,08403.5406,W,0.14,1.36,270721,,,A*7E
$GPGGA,154842.250,3554.7499,N,08403.5406,W,1,05,2.85,205.2,M,-32.1,M,,*59
$GPRMC,154842.500,A,3554.7500,N,08403.5406,W,0.19,9.97,270721,,,A*74
$GPGGA,154842.750,3554.7500,N,08403.5406,W,1,05,2.85,205.2,M,-32.1,M,,*5D
$GPRMC,154843.000,A,3554.7500,N,08403.5406,W,0.17,8.00,270721,,,A*71
$GPGGA,154843.250,3554.7500,N,08403.5406,W,1,05,2.85,205.2,M,-32.1,M,,*59
$GPRMC,154843.500,A,3554.7500,N,08403.5406,W,0.12,10.23,270721,,,A*49
$GPGGA,154843.750,3554.7500,N,08403.5406,W,1,05,2.85,205.2,M,-32.1,M,,*5C
$GPRMC,154844.000,A,3554.7500,N,08403.5406,W,0.10,351.64,270721,,,A*7C
$GPGGA,154844.250,3554.7500,N,08403.5406,W,1,05,2.85,205.2,M,-32.1,M,,*5E
$GPRMC,154844.500,A,3554.7500,N,08403.5406,W,0.11,332.64,270721,,,A*7D
$GPGGA,154844.750,3554.7500,N,08403.5406,W,1,05,2.05,205.2,M,-32.1,M,,*53
$GPRMC,154845.000,A,3554.7500,N,08403.5406,W,0.13,328.15,270721,,,A*76
$GPGGA,154845.250,3554.7501,N,08403.5406,W,1,05,2.05,205.2,M,-32.1,M,,*56
$GPRMC,154845.500,A,3554.7501,N,08403.5406,W,0.09,321.55,270721,,,A*74
$GPGGA,154845.750,3554.7501,N,08403.5406,W,1,05,2.05,205.2,M,-32.1,M,,*53
$GPRMC,154846.000,A,3554.7501,N,08403.5407,W,0.10,329.23,270721,,,A*72
$GPGGA,154846.250,3554.7501,N,08403.5407,W,1,05,2.05,205.2,M,-32.1,M,,*54
$GPRMC,154846.500,A,3554.7501,N,08403.5407,W,0.16,335.08,270721,,,A*75
$GPGGA,154846.750,3554.7501,N,08403.5407,W,1,05,2.05,205.2,M,-32.1,M,,*51
$GPRMC,154847.000,A,3554.7501,N,08403.5407,W,0.16,336.86,270721,,,A*74
$GPGGA,154847.250,3554.7501,N,08403.5407,W,1,05,2.05,205.2,M,-32.1,M,,*55
$GPRMC,154847.500,A,3554.7501,N,08403.5407,W,0.19,311.19,270721,,,A*7D
$GPGGA,154847.750,3554.7501,N,08403.5407,W,1,05,2.05,205.2,M,-32.1,M,,*50
$GPRMC,154848.000,A,3554.7501,N,08403.5407,W,0.19,296.68,270721,,,A*7F
$GPGGA,154848.250,3554.7501,N,08403.5407,W,1,05,2.05,205.2,M,-32.1,M,,*5A
$GPRMC,154848.500,A,3554.7502,N,08403.5407,W,0.08,317.06,270721,,,A*79
$GPGGA,154848.750,3554.7502,N,08403.5407,W,1,05,2.05,205.2,M,-32.1,M,,*5C
$GPRMC,154849.000,A,3554.7502,N,08403.5407,W,0.06,252.87,270721,,,A*7A
$GPGGA,154849.250,3554.7502,N,08403.5407,W,1,05,2.05,205.2,M,-32.1,M,,*58
$GPRMC,154849.500,A,3554.7502,N,08403.5407,W,0.04,311.38,270721,,,A*7F
$GPGGA,154849.750,3554.7502,N,08403.5408,W,1,05,2.05,205.2,M,-32.1,M,,*52
$GPRMC,154850.000,A,3554.7502,N,08403.5407,W,0.05,49.74,270721,,,A*45
$GPGGA,154850.250,3554.7502,N,08403.5407,W,1,05,2.05,205.2,M,-32.1,M,,*50
$GPRMC,154850.500,A,3554.7502,N,08403.5407,W,0.10,43.10,270721,,,A*4C
$GPGGA,154850.750,3554.7502,N,08403.5407,W,1,05,2.05,205.2,M,-32.1,M,,*55
$GPRMC,154851.000,A,3554.7502,N,08403.5407,W,0.18,41.84,270721,,,A*4F
$GPGGA,154851.250,3554.7502,N,08403.5407,W,1,05,2.05,205.2,M,-32.1,M,,*51
$GPRMC,154851.500,A,3554.7502,N,08403.5407,W,0.22,31.52,270721,,,A*4F
$GPGGA,154851.750,3554.7502,N,08403.5407,W,1,05,2.05,205.2,M,-32.1,M,,*54
$GPRMC,154852.000,A,3554.7502,N,08403.5407,W,0.22,29.33,270721,,,A*47
$GPGGA,154852.250,3554.7502,N,08403.5407,W,1,05,2.05,205.2,M,-32.1,M,,*52
$GPRMC,154852.500,A,3554.7503,N,08403.5407,W,0.21,34.07,270721,,,A*4B
$GPGGA,154852.750,3554.7503,N,08403.5406,W,1,05,2.05,205.3,M,-32.1,M,,*56
$GPRMC,154853.000,A,3554.7503,N,08403.5406,W,0.34,6.94,270721,,,A*71
$GPGGA,154853.250,3554.7503,N,08403.5406,W,1,05,2.86,205.3,M,-32.1,M,,*59
$GPRMC,154853.500,A,3554.7503,N,08403.5406,W,0.36,11.18,270721,,,A*44
$GPGGA,154853.750,3554.7504,N,08403.5406,W,1,05,2.86,205.3,M,-32.1,M,,*5B
$GPRMC,154854.000,A,3554.7504,N,08403.5406,W,0.25,14.21,270721,,,A*4C
$GPGGA,154854.250,3554.7504,N,08403.5406,W,1,05,2.86,205.3,M,-32.1,M,,*59
$GPRMC,154854.500,A,3554.7504,N,08403.5406,W,0.25,15.98,270721,,,A*4A
$GPGGA,154854.750,3554.7504,N,08403.5406,W,1,05,2.05,205.3,M,-32.1,M,,*57
$GPRMC,154855.000,A,3554.7505,N,08403.5406,W,0.29,11.76,270721,,,A*47
$GPGGA,154855.250,3554.7505,N,08403.5406,W,1,05,2.86,205.3,M,-32.1,M,,*59
$GPRMC,154855.500,A,3554.7505,N,08403.5406,W,0.20,17.90,270721,,,A*45
$GPGGA,154855.750,3554.7505,N,08403.5406,W,1,05,2.05,205.3,M,-32.1,M,,*57
$GPRMC,154856.000,A,3554.7505,N,08403.5406,W,0.19,20.04,270721,,,A*40
$GPGGA,154856.250,3554.7505,N,08403.5406,W,1,05,2.05,205.3,M,-32.1,M,,*51
$GPRMC,154856.500,A,3554.7505,N,08403.5406,W,0.24,27.09,270721,,,A*41
$GPGGA,154856.750,3554.7506,N,08403.5405,W,1,05,2.05,205.3,M,-32.1,M,,*54
$GPRMC,154857.000,A,3554.7506,N,08403.5405,W,0.22,21.40,270721,,,A*48
$GPGGA,154857.250,3554.7506,N,08403.5405,W,1,05,2.05,205.3,M,-32.1,M,,*50
$GPRMC,154857.500,A,3554.7506,N,08403.5405,W,0.16,4.69,270721,,,A*76
$GPGGA,154857.750,3554.7506,N,08403.5405,W,1,05,2.87,205.3,M,-32.1,M,,*5F
$GPRMC,154858.000,A,3554.7506,N,08403.5405,W,0.20,4.71,270721,,,A*70
$GPGGA,154858.250,3554.7506,N,08403.5405,W,1,05,2.87,205.3,M,-32.1,M,,*55
$GPRMC,154858.500,A,3554.7507,N,08403.5405,W,0.29,345.72,270721,,,A*78
$GPGGA,154858.750,3554.7507,N,08403.5405,W,1,05,2.87,205.3,M,-32.1,M,,*51
$GPRMC,154859.000,A,3554.7507,N,08403.5405,W,0.28,350.06,270721,,,A*7A
$GPGGA,154859.250,3554.7507,N,08403.5405,W,1,05,2.86,205.3,M,-32.1,M,,*54
$GPRMC,154859.500,A,3554.7507,N,08403.5406,W,0.24,346.52,270721,,,A*76
$GPGGA,154859.750,3554.7508,N,08403.5406,W,1,05,2.87,205.3,M,-32.1,M,,*5C
$GPRMC,154900.000,A,3554.7508,N,08403.5406,W,0.19,353.07,270721,,,A*7B
$GPGGA,154900.250,3554.7508,N,08403.5406,W,1,05,2.87,205.3,M,-32.1,M,,*54
$GPRMC,154900.500,A,3554.7508,N,08403.5406,W,0.23,5.23,270721,,,A*71
$GPGGA,154900.750,3554.7508,N,08403.5406,W,1,05,2.87,205.3,M,-32.1,M,,*51
$GPRMC,154901.000,A,3554.7508,N,08403.5406,W,0.21,6.12,270721,,,A*76
$GPGGA,154901.250,3554.7508,N,08403.5406,W,1,05,2.87,205.3,M,-32.1,M,,*55
$GPRMC,154901.500,A,3554.7508,N,08403.5406,W,0.20,11.79,270721,,,A*49
$GPGGA,154901.750,3554.7509,N,08403.5405,W,1,05,2.87,205.3,M,-32.1,M,,*52
$GPRMC,154902.000,A,3554.7509,N,08403.5405,W,0.20,359.84,270721,,,A*70
$GPGGA,154902.250,3554.7509,N,08403.5405,W,1,05,2.87,205.3,M,-32.1,M,,*54
$GPRMC,154902.500,A,3554.7509,N,08403.5405,W,0.14,2.79,270721,,,A*7D
$GPGGA,154902.750,3554.7509,N,08403.5405,W,1,05,2.87,205.3,M,-32.1,M,,*51
$GPRMC,154903.000,A,3554.7509,N,08403.5405,W,0.11,13.28,270721,,,A*48
$GPGGA,154903.250,3554.7509,N,08403.5405,W,1,05,2.87,205.3,M,-32.1,M,,*55
$GPRMC,154903.500,A,3554.7509,N,08403.5405,W,0.12,45.30,270721,,,A*44
$GPGGA,154903.750,3554.7509,N,08403.5405,W,1,05,2.05,205.3,M,-32.1,M,,*5A
$GPRMC,154904.000,A,3554.7509,N,08403.5405,W,0.16,52.40,270721,,,A*43
$GPGGA,154904.250,3554.7509,N,08403.5405,W,1,05,2.05,205.3,M,-32.1,M,,*58
$GPRMC,154904.500,A,3554.7509,N,08403.5405,W,0.27,74.84,270721,,,A*48
$GPGGA,154904.750,3554.7510,N,08403.5405,W,1,05,2.05,205.4,M,-32.1,M,,*52
$GPRMC,154905.000,A,3554.7510,N,08403.5405,W,0.28,70.91,270721,,,A*4B
$GPGGA,154905.250,3554.7510,N,08403.5404,W,1,05,2.05,205.4,M,-32.1,M,,*57
$GPRMC,154905.500,A,3554.7510,N,08403.5404,W,0.53,82.11,270721,,,A*46
$GPGGA,154905.750,3554.7510,N,08403.5404,W,1,05,2.05,205.4,M,-32.1,M,,*52
$GPRMC,154906.000,A,3554.7510,N,08403.5403,W,0.64,79.37,270721,,,A*43
$GPGGA,154906.250,3554.7511,N,08403.5402,W,1,05,2.05,205.6,M,-32.1,M,,*51
$GPRMC,154906.500,A,3554.7513,N,08403.5402,W,0.75,74.51,270721,,,A*49
$GPGGA,154906.750,3554.7514,N,08403.5403,W,1,05,2.05,205.8,M,-32.1,M,,*5E
$GPRMC,154907.000,A,3554.7516,N,08403.5404,W,0.73,70.91,270721,,,A*40
$GPGGA,154907.250,3554.7518,N,08403.5404,W,1,05,2.05,206.1,M,-32.1,M,,*5B
$GPRMC,154907.500,A,3554.7520,N,08403.5403,W,0.87,71.31,270721,,,A*47
$GPGGA,154907.750,3554.7519,N,08403.5402,W,1,05,2.05,206.4,M,-32.1,M,,*5C
$GPRMC,154908.000,A,3554.7520,N,08403.5400,W,0.98,75.02,270721,,,A*44
$GPGGA,154908.250,3554.7522,N,08403.5399,W,1,05,2.05,206.5,M,-32.1,M,,*5A
$GPRMC,154908.500,A,3554.7523,N,08403.5397,W,1.12,71.79,270721,,,A*40
$GPGGA,154908.750,3554.7522,N,08403.5395,W,1,05,2.05,206.7,M,-32.1,M,,*51
$GPRMC,154909.000,A,3554.7521,N,08403.5393,W,1.22,77.84,270721,,,A*45
$GPGGA,154909.250,3554.7519,N,08403.5390,W,1,05,2.05,206.7,M,-32.1,M,,*58
$GPRMC,154909.500,A,3554.7518,N,08403.5388,W,1.54,89.89,270721,,,A*4D
$GPGGA,154909.750,3554.7518,N,08403.5385,W,1,05,2.05,206.6,M,-32.1,M,,*59
$GPRMC,154910.000,A,3554.7518,N,08403.5381,W,1.66,90.44,270721,,,A*41
$GPGGA,154910.250,3554.7518,N,08403.5377,W,1,05,2.05,206.5,M,-32.1,M,,*5A
$GPRMC,154910.500,A,3554.7519,N,08403.5374,W,1.68,84.55,270721,,,A*44
$GPGGA,154910.750,3554.7520,N,08403.5371,W,1,05,2.05,206.4,M,-32.1,M,,*53
$GPRMC,154911.000,A,3554.7521,N,08403.5369,W,1.58,79.54,270721,,,A*47
$GPGGA,154911.250,3554.7522,N,08403.5367,W,1,05,2.05,206.3,M,-32.1,M,,*55
$GPRMC,154911.500,A,3554.7524,N,08403.5366,W,1.30,73.79,270721,,,A*43
$GPGGA,154911.750,3554.7526,N,08403.5364,W,1,05,2.05,206.4,M,-32.1,M,,*50
$GPRMC,154912.000,A,3554.7527,N,08403.5362,W,1.21,67.55,270721,,,A*49
$GPGGA,154912.250,3554.7529,N,08403.5361,W,1,05,2.05,206.6,M,-32.1,M,,*5E
$GPRMC,154912.500,A,3554.7530,N,08403.5359,W,1.10,61.36,270721,,,A*43
$GPGGA,154912.750,3554.7530,N,08403.5358,W,1,05,2.05,206.7,M,-32.1,M,,*58
$GPRMC,154913.000,A,3554.7528,N,08403.5358,W,0.95,61.57,270721,,,A*44
$GPGGA,154913.250,3554.7526,N,08403.5358,W,1,05,2.05,206.9,M,-32.1,M,,*55
$GPRMC,154913.500,A,3554.7525,N,08403.5360,W,0.65,65.47,270721,,,A*4D
$GPGGA,154913.750,3554.7523,N,08403.5366,W,1,05,2.05,207.1,M,-32.1,M,,*51
$GPRMC,154914.000,A,3554.7523,N,08403.5370,W,0.19,355.78,270721,,,A*7F
$GPGGA,154914.250,3554.7526,N,08403.5374,W,1,05,2.88,207.2,M,-32.1,M,,*53
$GPRMC,154914.500,A,3554.7530,N,08403.5376,W,0.83,319.94,270721,,,A*77
$GPGGA,154914.750,3554.7531,N,08403.5378,W,1,05,2.05,207.5,M,-32.1,M,,*5E
$GPRMC,154915.000,A,3554.7531,N,08403.5380,W,1.57,305.97,270721,,,A*7D
$GPGGA,154915.250,3554.7531,N,08403.5383,W,1,05,2.05,207.8,M,-32.1,M,,*53
$GPRMC,154915.500,A,3554.7534,N,08403.5386,W,2.29,295.84,270721,,,A*7B
$GPGGA,154915.750,3554.7535,N,08403.5390,W,1,05,2.05,208.2,M,-32.1,M,,*55
$GPRMC,154916.000,A,3554.7538,N,08403.5395,W,3.11,302.58,270721,,,A*77
$GPGGA,154916.250,3554.7542,N,08403.5400,W,1,05,2.05,208.5,M,-32.1,M,,*5A
$GPRMC,154916.500,A,3554.7544,N,08403.5405,W,4.14,306.11,270721,,,A*7C
$GPGGA,154916.750,3554.7549,N,08403.5411,W,1,05,2.88,208.7,M,-32.1,M,,*53
$GPRMC,154917.000,A,3554.7552,N,08403.5417,W,5.19,306.99,270721,,,A*70
$GPGGA,154917.250,3554.7554,N,08403.5422,W,1,05,2.89,208.9,M,-32.1,M,,*54
$GPRMC,154917.500,A,3554.7557,N,08403.5428,W,5.44,306.88,270721,,,A*74
$GPGGA,154917.750,3554.7557,N,08403.5434,W,1,05,2.88,209.1,M,-32.1,M,,*5D
$GPRMC,154918.000,A,3554.7556,N,08403.5438,W,5.47,299.30,270721,,,A*79
$GPGGA,154918.250,3554.7557,N,08403.5444,W,1,05,2.88,209.1,M,-32.1,M,,*50
$GPRMC,154918.500,A,3554.7557,N,08403.5449,W,5.76,295.41,270721,,,A*73
$GPGGA,154918.750,3554.7558,N,08403.5455,W,1,05,2.89,209.0,M,-32.1,M,,*5A
$GPRMC,154919.000,A,3554.7560,N,08403.5461,W,6.06,294.70,270721,,,A*7E
$GPGGA,154919.250,3554.7560,N,08403.5467,W,1,05,2.88,209.3,M,-32.1,M,,*56
$GPRMC,154919.500,A,3554.7560,N,08403.5473,W,6.91,296.53,270721,,,A*75
$GPGGA,154919.750,3554.7560,N,08403.5479,W,1,05,2.89,209.6,M,-32.1,M,,*58
$GPRMC,154920.000,A,3554.7560,N,08403.5484,W,7.32,295.59,270721,,,A*73
$GPGGA,154920.250,3554.7559,N,08403.5489,W,1,05,2.89,209.5,M,-32.1,M,,*51
$GPRMC,154920.500,A,3554.7561,N,08403.5493,W,7.17,294.76,270721,,,A*7A
$GPGGA,154920.750,3554.7564,N,08403.5498,W,1,05,2.89,210.1,M,-32.1,M,,*56
$GPRMC,154921.000,A,3554.7565,N,08403.5502,W,7.06,293.29,270721,,,A*7E
$GPGGA,154921.250,3554.7570,N,08403.5508,W,1,05,2.89,210.4,M,-32.1,M,,*5A
$GPRMC,154921.500,A,3554.7572,N,08403.5514,W,7.22,292.60,270721,,,A*70
$GPGGA,154921.750,3554.7572,N,08403.5520,W,1,05,2.89,211.0,M,-32.1,M,,*52
$GPRMC,154922.000,A,3554.7571,N,08403.5525,W,6.87,284.88,270721,,,A*78
$GPGGA,154922.250,3554.7572,N,08403.5532,W,1,05,2.89,211.5,M,-32.1,M,,*52
$GPRMC,154922.500,A,3554.7573,N,08403.5539,W,6.89,282.59,270721,,,A*76
$GPGGA,154922.750,3554.7573,N,08403.5544,W,1,05,2.89,211.8,M,-32.1,M,,*5A
$GPRMC,154923.000,A,3554.7572,N,08403.5549,W,6.35,275.93,270721,,,A*7D
$GPGGA,154923.250,3554.7572,N,08403.5554,W,1,05,2.89,212.1,M,-32.1,M,,*54
$GPRMC,154923.500,A,3554.7570,N,08403.5559,W,6.07,264.02,270721,,,A*72
$GPGGA,154923.750,3554.7569,N,08403.5563,W,1,05,2.89,212.4,M,-32.1,M,,*5A
$GPRMC,154924.000,A,3554.7567,N,08403.5568,W,5.84,257.15,270721,,,A*7A
$GPGGA,154924.250,3554.7561,N,08403.5570,W,1,05,2.89,212.9,M,-32.1,M,,*5F
$GPRMC,154924.500,A,3554.7554,N,08403.5574,W,5.48,242.08,270721,,,A*7A
$GPGGA,154924.750,3554.7550,N,08403.5577,W,1,05,2.89,213.4,M,-32.1,M,,*53
$GPRMC,154925.000,A,3554.7547,N,08403.5580,W,4.92,238.92,270721,,,A*7F
$GPGGA,154925.250,3554.7545,N,08403.5583,W,1,05,2.89,213.7,M,-32.1,M,,*5B
$GPRMC,154925.500,A,3554.7542,N,08403.5585,W,4.21,233.69,270721,,,A*7D
$GPGGA,154925.750,3554.7540,N,08403.5586,W,1,05,2.89,214.0,M,-32.1,M,,*5E
$GPRMC,154926.000,A,3554.7539,N,08403.5588,W,3.34,229.86,270721,,,A*73
$GPGGA,154926.250,3554.7537,N,08403.5589,W,1,05,2.05,214.3,M,-32.1,M,,*50
$GPRMC,154926.500,A,3554.7537,N,08403.5590,W,2.85,228.31,270721,,,A*77
$GPGGA,154926.750,3554.7537,N,08403.5592,W,1,05,2.05,214.7,M,-32.1,M,,*5B
$GPRMC,154927.000,A,3554.7536,N,08403.5595,W,3.39,238.22,270721,,,A*72
$GPGGA,154927.250,3554.7536,N,08403.5598,W,1,05,2.05,215.0,M,-32.1,M,,*52
$GPRMC,154927.500,A,3554.7536,N,08403.5602,W,3.74,243.56,270721,,,A*7C
$GPGGA,154927.750,3554.7532,N,08403.5605,W,1,05,2.05,215.5,M,-32.1,M,,*51
$GPRMC,154928.000,A,3554.7531,N,08403.5609,W,4.21,243.16,270721,,,A*79
$GPGGA,154928.250,3554.7530,N,08403.5612,W,1,05,2.89,216.0,M,-32.1,M,,*5D
$GPRMC,154928.500,A,3554.7529,N,08403.5616,W,4.73,247.92,270721,,,A*74
$GPGGA,154928.750,3554.7528,N,08403.5621,W,1,05,2.90,216.4,M,-32.1,M,,*5D
$GPRMC,154929.000,A,3554.7528,N,08403.5625,W,5.19,249.80,270721,,,A*71
$GPGGA,154929.250,3554.7527,N,08403.5629,W,1,05,2.89,216.8,M,-32.1,M,,*5A
$GPRMC,154929.500,A,3554.7524,N,08403.5634,W,5.35,251.33,270721,,,A*77
$GPGGA,154929.750,3554.7525,N,08403.5641,W,1,05,2.90,217.2,M,-32.1,M,,*50
$GPRMC,154930.000,A,3554.7527,N,08403.5648,W,6.35,263.32,270721,,,A*71
$GPGGA,154930.250,3554.7530,N,08403.5654,W,1,05,2.90,217.6,M,-32.1,M,,*59
$GPRMC,154930.500,A,3554.7536,N,08403.5661,W,7.71,282.03,270721,,,A*73
$GPGGA,154930.750,3554.7538,N,08403.5668,W,1,05,2.90,218.0,M,-32.1,M,,*52
$GPRMC,154931.000,A,3554.7540,N,08403.5675,W,8.31,285.04,270721,,,A*78
$GPGGA,154931.250,3554.7541,N,08403.5682,W,1,05,2.90,218.4,M,-32.1,M,,*58
$GPRMC,154931.500,A,3554.7543,N,08403.5691,W,9.02,286.32,270721,,,A*73
$GPGGA,154931.750,3554.7544,N,08403.5700,W,1,05,2.90,218.7,M,-32.1,M,,*50
$GPRMC,154932.000,A,3554.7546,N,08403.5708,W,9.24,288.24,270721,,,A*7C
$GPGGA,154932.250,3554.7562,N,08403.5720,W,1,06,2.78,219.6,M,-32.1,M,,*55
$GPRMC,154932.500,A,3554.7578,N,08403.5733,W,10.69,296.58,270721,,,A*49
$GPGGA,154932.750,3554.7590,N,08403.5745,W,1,06,2.77,221.3,M,-32.1,M,,*5F
$GPRMC,154933.000,A,3554.7600,N,08403.5755,W,11.28,300.08,270721,,,A*4E
$GPGGA,154933.250,3554.7610,N,08403.5766,W,1,06,2.78,222.5,M,-32.1,M,,*5B
$GPRMC,154933.500,A,3554.7618,N,08403.5775,W,11.55,302.86,270721,,,A*4E
$GPGGA,154933.750,3554.7627,N,08403.5785,W,1,06,2.78,223.3,M,-32.1,M,,*50
$GPRMC,154934.000,A,3554.7635,N,08403.5795,W,12.04,304.85,270721,,,A*4F
$GPGGA,154934.250,3554.7643,N,08403.5804,W,1,06,2.78,224.0,M,-32.1,M,,*52
$GPRMC,154934.500,A,3554.7649,N,08403.5814,W,12.54,305.72,270721,,,A*4B
$GPGGA,154934.750,3554.7658,N,08403.5824,W,1,06,2.78,224.8,M,-32.1,M,,*57
$GPRMC,154935.000,A,3554.7670,N,08403.5834,W,13.08,310.38,270721,,,A*45
$GPGGA,154935.250,3554.7680,N,08403.5843,W,1,06,1.78,225.5,M,-32.1,M,,*58
$GPRMC,154935.500,A,3554.7693,N,08403.5851,W,13.47,316.60,270721,,,A*4E
$GPGGA,154935.750,3554.7706,N,08403.5859,W,1,06,1.78,226.2,M,-32.1,M,,*5D
$GPRMC,154936.000,A,3554.7717,N,08403.5867,W,13.96,321.99,270721,,,A*4E
$GPGGA,154936.250,3554.7730,N,08403.5874,W,1,06,1.78,226.7,M,-32.1,M,,*54
$GPRMC,154936.500,A,3554.7743,N,08403.5881,W,14.75,325.81,270721,,,A*45
$GPGGA,154936.750,3554.7754,N,08403.5888,W,1,06,2.78,227.2,M,-32.1,M,,*57
$GPRMC,154937.000,A,3554.7765,N,08403.5896,W,14.98,326.40,270721,,,A*4E
$GPGGA,154937.250,3554.7775,N,08403.5903,W,1,06,1.78,227.7,M,-32.1,M,,*54
$GPRMC,154937.500,A,3554.7786,N,08403.5910,W,15.40,327.72,270721,,,A*4D
$GPGGA,154937.750,3554.7798,N,08403.5917,W,1,06,1.78,228.0,M,-32.1,M,,*5F
$GPRMC,154938.000,A,3554.7807,N,08403.5923,W,15.76,328.97,270721,,,A*40
$GPGGA,154938.250,3554.7817,N,08403.5930,W,1,06,1.78,228.2,M,-32.1,M,,*5A
$GPRMC,154938.500,A,3554.7827,N,08403.5937,W,15.82,329.69,270721,,,A*49
$GPGGA,154938.750,3554.7838,N,08403.5944,W,1,06,1.78,228.5,M,-32.1,M,,*56
$GPRMC,154939.000,A,3554.7849,N,08403.5950,W,15.94,330.43,270721,,,A*43
$GPGGA,154939.250,3554.7859,N,08403.5957,W,1,06,1.78,228.7,M,-32.1,M,,*55
$GPRMC,154939.500,A,3554.7871,N,08403.5963,W,16.22,331.29,270721,,,A*4E
$GPGGA,154939.750,3554.7883,N,08403.5970,W,1,06,1.78,229.0,M,-32.1,M,,*54
$GPRMC,154940.000,A,3554.7894,N,08403.5976,W,16.45,332.47,270721,,,A*40
$GPGGA,154940.250,3554.7905,N,08403.5982,W,1,06,1.78,229.3,M,-32.1,M,,*5E
$GPRMC,154940.500,A,3554.7918,N,08403.5988,W,16.91,334.11,270721,,,A*4D
$GPGGA,154940.750,3554.7930,N,08403.5994,W,1,06,1.78,229.6,M,-32.1,M,,*5F
$GPRMC,154941.000,A,3554.7942,N,08403.6001,W,17.22,334.69,270721,,,A*4B
$GPGGA,154941.250,3554.7954,N,08403.6007,W,1,06,1.78,229.9,M,-32.1,M,,*56
$GPRMC,154941.500,A,3554.7968,N,08403.6013,W,17.71,335.63,270721,,,A*48
$GPGGA,154941.750,3554.7983,N,08403.6020,W,1,06,1.78,230.4,M,-32.1,M,,*59
$GPRMC,154942.000,A,3554.7997,N,08403.6027,W,18.04,335.77,270721,,,A*41
$GPGGA,154942.250,3554.8011,N,08403.6034,W,1,06,1.78,230.8,M,-32.1,M,,*5B
$GPRMC,154942.500,A,3554.8028,N,08403.6041,W,18.70,336.54,270721,,,A*47
$GPGGA,154942.750,3554.8045,N,08403.6048,W,1,06,2.79,231.4,M,-32.1,M,,*5B
$GPRMC,154943.000,A,3554.8061,N,08403.6054,W,19.81,337.98,270721,,,A*44
$GPGGA,154943.250,3554.8074,N,08403.6060,W,1,06,2.79,232.0,M,-32.1,M,,*50
$GPRMC,154943.500,A,3554.8088,N,08403.6067,W,20.10,339.29,270721,,,A*40
$GPGGA,154943.750,3554.8102,N,08403.6073,W,1,06,2.79,232.6,M,-32.1,M,,*51
$GPRMC,154944.000,A,3554.8115,N,08403.6080,W,20.23,339.84,270721,,,A*49
$GPGGA,154944.250,3554.8128,N,08403.6086,W,1,06,1.78,233.0,M,-32.1,M,,*54
$GPRMC,154944.500,A,3554.8141,N,08403.6093,W,20.47,340.40,270721,,,A*4B
$GPGGA,154944.750,3554.8154,N,08403.6099,W,1,06,2.79,233.3,M,-32.1,M,,*55
$GPRMC,154945.000,A,3554.8171,N,08403.6104,W,20.96,342.15,270721,,,A*4D
$GPGGA,154945.250,3554.8189,N,08403.6109,W,1,06,1.78,233.8,M,-32.1,M,,*50
$GPRMC,154945.500,A,3554.8209,N,08403.6113,W,21.84,344.48,270721,,,A*4E
$GPGGA,154945.750,3554.8229,N,08403.6117,W,1,06,2.79,234.4,M,-32.1,M,,*5A
$GPRMC,154946.000,A,3554.8248,N,08403.6121,W,22.28,345.84,270721,,,A*48
$GPGGA,154946.250,3554.8265,N,08403.6126,W,1,06,2.79,235.0,M,-32.1,M,,*53
$GPRMC,154946.500,A,3554.8281,N,08403.6131,W,22.09,346.02,270721,,,A*47
$GPGGA,154946.750,3554.8300,N,08403.6135,W,1,06,2.79,235.6,M,-32.1,M,,*50
$GPRMC,154947.000,A,3554.8317,N,08403.6139,W,22.08,346.55,270721,,,A*46
$GPGGA,154947.250,3554.8334,N,08403.6143,W,1,06,2.79,236.2,M,-32.1,M,,*55
$GPRMC,154947.500,A,3554.8351,N,08403.6148,W,21.77,347.21,270721,,,A*4E
$GPGGA,154947.750,3554.8367,N,08403.6153,W,1,06,2.79,236.8,M,-32.1,M,,*5D
$GPRMC,154948.000,A,3554.8383,N,08403.6157,W,21.52,347.43,270721,,,A*46
$GPGGA,154948.250,3554.8397,N,08403.6161,W,1,06,2.79,237.3,M,-32.1,M,,*53
$GPRMC,154948.500,A,3554.8409,N,08403.6165,W,21.02,347.69,270721,,,A*4A
$GPGGA,154948.750,3554.8419,N,08403.6169,W,1,06,2.79,238.0,M,-32.1,M,,*53
$GPRMC,154949.000,A,3554.8432,N,08403.6173,W,20.31,347.06,270721,,,A*49
$GPGGA,154949.250,3554.8447,N,08403.6177,W,1,06,2.79,238.5,M,-32.1,M,,*56
$GPRMC,154949.500,A,3554.8460,N,08403.6182,W,19.99,346.39,270721,,,A*40
$GPGGA,154949.750,3554.8473,N,08403.6186,W,1,06,2.79,239.0,M,-32.1,M,,*5E
$GPRMC,154950.000,A,3554.8488,N,08403.6190,W,19.68,346.12,270721,,,A*4F
$GPGGA,154950.250,3554.8502,N,08403.6193,W,1,06,2.79,239.4,M,-32.1,M,,*54
$GPRMC,154950.500,A,3554.8516,N,08403.6197,W,19.44,346.44,270721,,,A*46
$GPGGA,154950.750,3554.8530,N,08403.6201,W,1,06,2.80,239.9,M,-32.1,M,,*53
$GPRMC,154951.000,A,3554.8544,N,08403.6204,W,19.19,346.27,270721,,,A*41
$GPGGA,154951.250,3554.8555,N,08403.6208,W,1,06,2.80,240.4,M,-32.1,M,,*5E
$GPRMC,154951.500,A,3554.8567,N,08403.6212,W,18.28,346.04,270721,,,A*40
$GPGGA,154951.750,3554.8578,N,08403.6215,W,1,06,2.80,240.9,M,-32.1,M,,*55
$GPRMC,154952.000,A,3554.8589,N,08403.6218,W,17.63,346.54,270721,,,A*49
$GPGGA,154952.250,3554.8600,N,08403.6222,W,1,06,2.80,241.6,M,-32.1,M,,*55
$GPRMC,154952.500,A,3554.8613,N,08403.6224,W,17.09,347.39,270721,,,A*45
$GPGGA,154952.750,3554.8623,N,08403.6228,W,1,06,2.80,242.0,M,-32.1,M,,*5E
$GPRMC,154953.000,A,3554.8634,N,08403.6231,W,16.79,347.63,270721,,,A*49
$GPGGA,154953.250,3554.8646,N,08403.6233,W,1,06,2.80,242.3,M,-32.1,M,,*50
$GPRMC,154953.500,A,3554.8655,N,08403.6236,W,16.06,348.02,270721,,,A*4C
$GPGGA,154953.750,3554.8665,N,08403.6239,W,1,06,2.80,242.6,M,-32.1,M,,*5B
$GPRMC,154954.000,A,3554.8673,N,08403.6242,W,15.27,348.10,270721,,,A*4A
$GPGGA,154954.250,3554.8681,N,08403.6244,W,1,06,2.80,242.8,M,-32.1,M,,*57
$GPRMC,154954.500,A,3554.8688,N,08403.6246,W,14.25,349.41,270721,,,A*49
$GPGGA,154954.750,3554.8695,N,08403.6248,W,1,06,2.80,243.1,M,-32.1,M,,*53
$GPRMC,154955.000,A,3554.8703,N,08403.6249,W,13.42,350.85,270721,,,A*46
$GPGGA,154955.250,3554.8709,N,08403.6251,W,1,06,2.80,243.4,M,-32.1,M,,*5E
$GPRMC,154955.500,A,3554.8715,N,08403.6253,W,12.26,350.28,270721,,,A*4B
$GPGGA,154955.750,3554.8722,N,08403.6255,W,1,06,2.80,243.6,M,-32.1,M,,*54
$GPRMC,154956.000,A,3554.8728,N,08403.6256,W,11.28,348.65,270721,,,A*4B
$GPGGA,154956.250,3554.8733,N,08403.6257,W,1,06,2.80,243.9,M,-32.1,M,,*5F
$GPRMC,154956.500,A,3554.8740,N,08403.6257,W,9.97,350.68,270721,,,A*78
$GPGGA,154956.750,3554.8746,N,08403.6259,W,1,06,2.80,244.0,M,-32.1,M,,*58
$GPRMC,154957.000,A,3554.8753,N,08403.6260,W,9.37,349.24,270721,,,A*70
$GPGGA,154957.250,3554.8758,N,08403.6263,W,1,06,2.80,244.2,M,-32.1,M,,*58
$GPRMC,154957.500,A,3554.8766,N,08403.6264,W,8.88,342.42,270721,,,A*79
$GPGGA,154957.750,3554.8774,N,08403.6265,W,1,06,2.80,244.7,M,-32.1,M,,*50
$GPRMC,154958.000,A,3554.8781,N,08403.6267,W,8.33,341.48,270721,,,A*70
$GPGGA,154958.250,3554.8787,N,08403.6269,W,1,06,1.78,245.1,M,-32.1,M,,*59
$GPRMC,154958.500,A,3554.8794,N,08403.6270,W,7.92,344.40,270721,,,A*7E
$GPGGA,154958.750,3554.8804,N,08403.6271,W,1,06,2.81,245.5,M,-32.1,M,,*50
$GPRMC,154959.000,A,3554.8813,N,08403.6271,W,8.76,352.11,270721,,,A*7D
$GPGGA,154959.250,3554.8818,N,08403.6271,W,1,06,2.81,245.9,M,-32.1,M,,*55
$GPRMC,154959.500,A,3554.8816,N,08403.6268,W,7.62,2.26,270721,,,A*7D
$GPGGA,154959.750,3554.8818,N,08403.6265,W,1,06,2.81,247.0,M,-32.1,M,,*5E
$GPRMC,155000.000,A,3554.8823,N,08403.6264,W,7.57,7.76,270721,,,A*70
$GPGGA,155000.250,3554.8825,N,08403.6261,W,1,06,2.80,247.5,M,-32.1,M,,*51
$GPRMC,155000.500,A,3554.8832,N,08403.6257,W,8.67,13.84,270721,,,A*41
$GPGGA,155000.750,3554.8836,N,08403.6251,W,1,06,2.81,248.4,M,-32.1,M,,*5A
$GPRMC,155001.000,A,3554.8840,N,08403.6247,W,9.40,21.45,270721,,,A*49
$GPGGA,155001.250,3554.8843,N,08403.6241,W,1,06,1.78,249.2,M,-32.1,M,,*5F
$GPRMC,155001.500,A,3554.8849,N,08403.6235,W,10.19,27.83,270721,,,A*78
$GPGGA,155001.750,3554.8855,N,08403.6229,W,1,06,2.81,249.8,M,-32.1,M,,*5C
$GPRMC,155002.000,A,3554.8863,N,08403.6222,W,11.37,31.94,270721,,,A*7C
$GPGGA,155002.250,3554.8871,N,08403.6215,W,1,06,2.81,250.5,M,-32.1,M,,*56
$GPRMC,155002.500,A,3554.8879,N,08403.6208,W,12.49,35.89,270721,,,A*78
$GPGGA,155002.750,3554.8887,N,08403.6201,W,1,06,2.81,251.3,M,-32.1,M,,*58
$GPRMC,155003.000,A,3554.8893,N,08403.6193,W,13.31,38.32,270721,,,A*7A
$GPGGA,155003.250,3554.8899,N,08403.6185,W,1,06,2.81,252.1,M,-32.1,M,,*5D
$GPRMC,155003.500,A,3554.8909,N,08403.6177,W,14.52,40.01,270721,,,A*7A
$GPGGA,155003.750,3554.8917,N,08403.6169,W,1,06,2.81,252.8,M,-32.1,M,,*54
$GPRMC,155004.000,A,3554.8926,N,08403.6160,W,15.01,40.31,270721,,,A*77
$GPGGA,155004.250,3554.8934,N,08403.6151,W,1,06,2.81,253.5,M,-32.1,M,,*50
$GPRMC,155004.500,A,3554.8943,N,08403.6142,W,15.44,39.58,270721,,,A*71
$GPGGA,155004.750,3554.8953,N,08403.6133,W,1,06,2.81,254.0,M,-32.1,M,,*52
$GPRMC,155005.000,A,3554.8961,N,08403.6124,W,15.41,39.78,270721,,,A*72
$GPGGA,155005.250,3554.8969,N,08403.6115,W,1,06,2.81,254.6,M,-32.1,M,,*5D
$GPRMC,155005.500,A,3554.8978,N,08403.6106,W,15.14,39.34,270721,,,A*77
$GPGGA,155005.750,3554.8987,N,08403.6097,W,1,06,2.81,255.1,M,-32.1,M,,*55
$GPRMC,155006.000,A,3554.8996,N,08403.6088,W,15.10,38.37,270721,,,A*70
$GPGGA,155006.250,3554.9004,N,08403.6080,W,1,06,2.81,255.7,M,-32.1,M,,*50
$GPRMC,155006.500,A,3554.9011,N,08403.6071,W,15.02,37.20,270721,,,A*7E
$GPGGA,155006.750,3554.9019,N,08403.6063,W,1,06,2.81,256.4,M,-32.1,M,,*54
$GPRMC,155007.000,A,3554.9026,N,08403.6055,W,14.92,35.92,270721,,,A*7B
$GPGGA,155007.250,3554.9034,N,08403.6047,W,1,06,2.81,257.0,M,-32.1,M,,*5C
$GPRMC,155007.500,A,3554.9042,N,08403.6040,W,14.80,34.93,270721,,,A*7B
$GPGGA,155007.750,3554.9050,N,08403.6033,W,1,06,2.82,257.5,M,-32.1,M,,*5E
$GPRMC,155008.000,A,3554.9057,N,08403.6026,W,14.52,34.24,270721,,,A*76
$GPGGA,155008.250,3554.9065,N,08403.6019,W,1,06,2.82,257.9,M,-32.1,M,,*56
$GPRMC,155008.500,A,3554.9071,N,08403.6012,W,14.12,33.60,270721,,,A*73
$GPGGA,155008.750,3554.9079,N,08403.6006,W,1,06,2.82,258.4,M,-32.1,M,,*52
$GPRMC,155009.000,A,3554.9086,N,08403.5999,W,14.10,33.87,270721,,,A*7D
$GPGGA,155009.250,3554.9092,N,08403.5993,W,1,06,2.82,258.8,M,-32.1,M,,*59
$GPRMC,155009.500,A,3554.9099,N,08403.5986,W,14.35,33.58,270721,,,A*7D
$GPGGA,155009.750,3554.9106,N,08403.5980,W,1,06,2.82,259.2,M,-32.1,M,,*59
$GPRMC,155010.000,A,3554.9113,N,08403.5974,W,13.98,33.81,270721,,,A*7A
$GPGGA,155010.250,3554.9119,N,08403.5968,W,1,06,2.82,259.5,M,-32.1,M,,*5B
$GPRMC,155010.500,A,3554.9125,N,08403.5962,W,13.29,33.96,270721,,,A*71
$GPGGA,155010.750,3554.9130,N,08403.5956,W,1,06,2.82,259.9,M,-32.1,M,,*54
$GPRMC,155011.000,A,3554.9136,N,08403.5950,W,12.49,33.82,270721,,,A*74
$GPGGA,155011.250,3554.9142,N,08403.5945,W,1,06,2.82,260.3,M,-32.1,M,,*57
$GPRMC,155011.500,A,3554.9147,N,08403.5939,W,11.69,34.12,270721,,,A*77
$GPGGA,155011.750,3554.9152,N,08403.5934,W,1,06,2.82,260.7,M,-32.1,M,,*51
$GPRMC,155012.000,A,3554.9157,N,08403.5929,W,10.70,32.45,270721,,,A*7C
$GPGGA,155012.250,3554.9162,N,08403.5925,W,1,06,2.82,261.1,M,-32.1,M,,*53
$GPRMC,155012.500,A,3554.9166,N,08403.5921,W,9.43,30.47,270721,,,A*4B
$GPGGA,155012.750,3554.9171,N,08403.5917,W,1,06,2.82,261.6,M,-32.1,M,,*52
$GPRMC,155013.000,A,3554.9175,N,08403.5914,W,8.51,29.96,270721,,,A*4D
$GPGGA,155013.250,3554.9178,N,08403.5910,W,1,06,2.82,262.0,M,-32.1,M,,*5D
$GPRMC,155013.500,A,3554.9181,N,08403.5907,W,7.56,28.43,270721,,,A*40
$GPGGA,155013.750,3554.9184,N,08403.5904,W,1,06,2.82,262.5,M,-32.1,M,,*5B
$GPRMC,155014.000,A,3554.9188,N,08403.5902,W,6.87,27.29,270721,,,A*40
$GPGGA,155014.250,3554.9190,N,08403.5900,W,1,06,2.82,262.9,M,-32.1,M,,*54
$GPRMC,155014.500,A,3554.9193,N,08403.5898,W,5.74,22.14,270721,,,A*49
$GPGGA,155014.750,3554.9195,N,08403.5897,W,1,06,2.82,263.2,M,-32.1,M,,*51
$GPRMC,155015.000,A,3554.9197,N,08403.5895,W,4.76,19.78,270721,,,A*45
$GPGGA,155015.250,3554.9199,N,08403.5895,W,1,06,2.82,263.4,M,-32.1,M,,*5D
$GPRMC,155015.500,A,3554.9201,N,08403.5894,W,3.69,14.42,270721,,,A*40
$GPGGA,155015.750,3554.9202,N,08403.5893,W,1,06,2.83,263.8,M,-32.1,M,,*52
$GPRMC,155016.000,A,3554.9204,N,08403.5892,W,2.85,11.63,270721,,,A*40
$GPGGA,155016.250,3554.9204,N,08403.5892,W,1,06,2.83,264.1,M,-32.1,M,,*5D
$GPRMC,155016.500,A,3554.9205,N,08403.5891,W,2.07,11.63,270721,,,A*4D
$GPGGA,155016.750,3554.9204,N,08403.5891,W,1,06,2.83,264.4,M,-32.1,M,,*5E
$GPRMC,155017.000,A,3554.9204,N,08403.5891,W,1.16,11.63,270721,,,A*4B
$GPGGA,155017.250,3554.9203,N,08403.5891,W,1,06,2.83,264.7,M,-32.1,M,,*5E
$GPRMC,155017.500,A,3554.9202,N,08403.5891,W,0.72,11.63,270721,,,A*4B
$GPGGA,155017.750,3554.9202,N,08403.5890,W,1,06,2.82,264.9,M,-32.1,M,,*54
$GPRMC,155018.000,A,3554.9202,N,08403.5890,W,0.61,11.63,270721,,,A*42
$GPGGA,155018.250,3554.9202,N,08403.5888,W,1,06,2.83,265.2,M,-32.1,M,,*5C
