Vers 81
USE_SERIAL_FEEDBACK=true
DEVELOPMENT_MODE=false
USE_RMC_ONLY=false

$GPRMC,184603.500,A,4308.3080,N,07726.2636,W,0.13,249.33,190721,,,A*71
$GPGGA,184603.750,4308.3079,N,07726.2636,W,1,05,1.89,166.0,M,-34.4,M,,*59
$GPRMC,184604.000,A,4308.3078,N,07726.2636,W,0.05,301.13,190721,,,A*7C
$GPGGA,184604.250,4308.3077,N,07726.2636,W,1,05,1.89,164.9,M,-34.4,M,,*5E
$GPRMC,184604.500,A,4308.3076,N,07726.2636,W,0.03,249.09,190721,,,A*77
$GPGGA,184604.750,4308.3076,N,07726.2637,W,1,05,1.89,163.9,M,-34.4,M,,*5C
$GPRMC,184605.000,A,4308.3075,N,07726.2637,W,0.07,18.21,190721,,,A*49
$GPGGA,184605.250,4308.3074,N,07726.2637,W,1,05,1.89,163.2,M,-34.4,M,,*51
$GPRMC,184605.500,A,4308.3073,N,07726.2637,W,0.05,56.58,190721,,,A*4C
$GPGGA,184605.750,4308.3072,N,07726.2637,W,1,05,1.89,162.7,M,-34.4,M,,*56
$GPRMC,184606.000,A,4308.3070,N,07726.2637,W,0.01,157.20,190721,,,A*72
$GPGGA,184606.250,4308.3070,N,07726.2637,W,1,05,1.89,162.3,M,-34.4,M,,*56
$GPRMC,184606.500,A,4308.3069,N,07726.2637,W,0.05,22.41,190721,,,A*4F
$GPGGA,184606.750,4308.3068,N,07726.2638,W,1,05,1.89,162.2,M,-34.4,M,,*54
$GPRMC,184607.000,A,4308.3068,N,07726.2638,W,0.05,27.98,190721,,,A*44
$GPGGA,184607.250,4308.3068,N,07726.2637,W,1,05,1.89,161.9,M,-34.4,M,,*57
$GPRMC,184607.500,A,4308.3067,N,07726.2637,W,0.03,22.49,190721,,,A*4E
$GPGGA,184607.750,4308.3067,N,07726.2637,W,1,05,1.89,161.8,M,-34.4,M,,*5C
$GPRMC,184608.000,A,4308.3067,N,07726.2637,W,0.03,20.09,190721,,,A*42
$GPGGA,184608.250,4308.3066,N,07726.2637,W,1,05,1.89,161.7,M,-34.4,M,,*58
$GPRMC,184608.500,A,4308.3066,N,07726.2637,W,0.02,255.68,190721,,,A*70
$GPGGA,184608.750,4308.3065,N,07726.2638,W,1,05,1.89,161.7,M,-34.4,M,,*51
$GPRMC,184609.000,A,4308.3065,N,07726.2638,W,0.10,40.91,190721,,,A*4B
$GPGGA,184609.250,4308.3064,N,07726.2638,W,1,05,1.89,161.7,M,-34.4,M,,*54
$GPRMC,184609.500,A,4308.3064,N,07726.2638,W,0.04,65.23,190721,,,A*44
$GPGGA,184609.750,4308.3063,N,07726.2638,W,1,05,1.90,161.7,M,-34.4,M,,*5E
$GPRMC,184610.000,A,4308.3063,N,07726.2638,W,0.06,13.45,190721,,,A*4D
$GPGGA,184610.250,4308.3062,N,07726.2638,W,1,05,2.01,161.7,M,-34.4,M,,*59
$GPRMC,184610.500,A,4308.3061,N,07726.2639,W,0.05,30.75,190721,,,A*4A
$GPGGA,184610.750,4308.3060,N,07726.2639,W,1,05,1.90,161.7,M,-34.4,M,,*54
$GPRMC,184611.000,A,4308.3060,N,07726.2639,W,0.01,71.43,190721,,,A*4B
$GPGGA,184611.250,4308.3059,N,07726.2639,W,1,05,1.90,161.8,M,-34.4,M,,*55
$GPRMC,184611.500,A,4308.3059,N,07726.2639,W,0.03,113.23,190721,,,A*75
$GPGGA,184611.750,4308.3059,N,07726.2639,W,1,05,1.90,161.9,M,-34.4,M,,*51
$GPRMC,184612.000,A,4308.3058,N,07726.2639,W,0.05,347.06,190721,,,A*70
$GPGGA,184612.250,4308.3057,N,07726.2639,W,1,05,2.01,161.8,M,-34.4,M,,*53
$GPRMC,184612.500,A,4308.3057,N,07726.2639,W,0.02,117.06,190721,,,A*7A
$GPGGA,184612.750,4308.3056,N,07726.2639,W,1,05,1.90,161.9,M,-34.4,M,,*5D
$GPRMC,184613.000,A,4308.3056,N,07726.2640,W,0.05,23.72,190721,,,A*43
$GPGGA,184613.250,4308.3055,N,07726.2640,W,1,05,1.90,161.9,M,-34.4,M,,*54
$GPRMC,184613.500,A,4308.3055,N,07726.2640,W,0.04,359.45,190721,,,A*7E
$GPGGA,184613.750,4308.3055,N,07726.2640,W,1,05,2.01,162.0,M,-34.4,M,,*50
$GPRMC,184614.000,A,4308.3054,N,07726.2641,W,0.02,11.70,190721,,,A*43
$GPGGA,184614.250,4308.3054,N,07726.2641,W,1,05,2.01,162.1,M,-34.4,M,,*53
$GPRMC,184614.500,A,4308.3054,N,07726.2641,W,0.03,159.98,190721,,,A*7C
$GPGGA,184614.750,4308.3053,N,07726.2642,W,1,05,1.90,162.3,M,-34.4,M,,*5B
$GPRMC,184615.000,A,4308.3053,N,07726.2642,W,0.02,67.31,190721,,,A*42
$GPGGA,184615.250,4308.3052,N,07726.2642,W,1,05,1.90,162.4,M,-34.4,M,,*59
$GPRMC,184615.500,A,4308.3052,N,07726.2643,W,0.02,242.86,190721,,,A*7E
$GPGGA,184615.750,4308.3051,N,07726.2643,W,1,05,1.90,162.5,M,-34.4,M,,*5F
$GPRMC,184616.000,A,4308.3051,N,07726.2643,W,0.03,72.46,190721,,,A*47
$GPGGA,184616.250,4308.3051,N,07726.2644,W,1,05,1.90,162.5,M,-34.4,M,,*5E
$GPRMC,184616.500,A,4308.3051,N,07726.2644,W,0.02,313.43,190721,,,A*75
$GPGGA,184616.750,4308.3050,N,07726.2644,W,1,05,1.90,162.6,M,-34.4,M,,*59
$GPRMC,184617.000,A,4308.3050,N,07726.2644,W,0.02,132.16,190721,,,A*71
$GPGGA,184617.250,4308.3050,N,07726.2644,W,1,05,1.90,162.6,M,-34.4,M,,*5D
$GPRMC,184617.500,A,4308.3049,N,07726.2645,W,0.06,54.28,190721,,,A*45
$GPGGA,184617.750,4308.3049,N,07726.2645,W,1,05,1.90,162.7,M,-34.4,M,,*50
$GPRMC,184618.000,A,4308.3049,N,07726.2645,W,0.07,6.75,190721,,,A*71
$GPGGA,184618.250,4308.3049,N,07726.2645,W,1,05,2.01,162.8,M,-34.4,M,,*5E
$GPRMC,184618.500,A,4308.3049,N,07726.2645,W,0.02,158.13,190721,,,A*7B
$GPGGA,184618.750,4308.3049,N,07726.2645,W,1,05,1.90,162.8,M,-34.4,M,,*50
$GPRMC,184619.000,A,4308.3048,N,07726.2645,W,0.07,131.92,190721,,,A*7D
$GPGGA,184619.250,4308.3048,N,07726.2646,W,1,05,1.90,162.8,M,-34.4,M,,*56
$GPRMC,184619.500,A,4308.3048,N,07726.2646,W,0.01,253.56,190721,,,A*72
$GPGGA,184619.750,4308.3048,N,07726.2646,W,1,05,1.90,162.8,M,-34.4,M,,*53
$GPRMC,184620.000,A,4308.3048,N,07726.2646,W,0.02,348.67,190721,,,A*77
$GPGGA,184620.250,4308.3048,N,07726.2647,W,1,05,2.02,162.8,M,-34.4,M,,*55
$GPRMC,184620.500,A,4308.3048,N,07726.2647,W,0.05,36.91,190721,,,A*47
$GPGGA,184620.750,4308.3047,N,07726.2647,W,1,05,1.90,162.7,M,-34.4,M,,*58
$GPRMC,184621.000,A,4308.3047,N,07726.2647,W,0.03,33.32,190721,,,A*46
$GPGGA,184621.250,4308.3047,N,07726.2647,W,1,05,1.90,162.7,M,-34.4,M,,*5C
$GPRMC,184621.500,A,4308.3047,N,07726.2648,W,0.06,34.89,190721,,,A*4E
$GPGGA,184621.750,4308.3047,N,07726.2648,W,1,05,1.90,162.6,M,-34.4,M,,*57
$GPRMC,184622.000,A,4308.3047,N,07726.2648,W,0.02,236.69,190721,,,A*72
$GPGGA,184622.250,4308.3048,N,07726.2648,W,1,05,1.90,162.6,M,-34.4,M,,*5E
$GPRMC,184622.500,A,4308.3048,N,07726.2648,W,0.02,200.85,190721,,,A*7F
$GPGGA,184622.750,4308.3048,N,07726.2648,W,1,05,1.90,162.5,M,-34.4,M,,*58
$GPRMC,184623.000,A,4308.3048,N,07726.2648,W,0.05,105.98,190721,,,A*76
$GPGGA,184623.250,4308.3048,N,07726.2648,W,1,05,1.90,162.4,M,-34.4,M,,*5D
$GPRMC,184623.500,A,4308.3048,N,07726.2648,W,0.04,11.34,190721,,,A*40
$GPGGA,184623.750,4308.3048,N,07726.2648,W,1,05,2.02,162.3,M,-34.4,M,,*57
$GPRMC,184624.000,A,4308.3049,N,07726.2648,W,0.01,337.70,190721,,,A*71
$GPGGA,184624.250,4308.3049,N,07726.2648,W,1,05,1.90,162.2,M,-34.4,M,,*5D
$GPRMC,184624.500,A,4308.3049,N,07726.2648,W,0.02,238.01,190721,,,A*7F
$GPGGA,184624.750,4308.3049,N,07726.2648,W,1,05,1.90,162.1,M,-34.4,M,,*5B
$GPRMC,184625.000,A,4308.3049,N,07726.2648,W,0.04,29.77,190721,,,A*4E
$GPGGA,184625.250,4308.3049,N,07726.2648,W,1,05,1.90,162.0,M,-34.4,M,,*5E
$GPRMC,184625.500,A,4308.3050,N,07726.2648,W,0.00,159.10,190721,,,A*70
$GPGGA,184625.750,4308.3050,N,07726.2648,W,1,05,1.90,161.9,M,-34.4,M,,*59
$GPRMC,184626.000,A,4308.3050,N,07726.2648,W,0.01,75.10,190721,,,A*48
$GPGGA,184626.250,4308.3051,N,07726.2648,W,1,05,1.90,161.7,M,-34.4,M,,*50
$GPRMC,184626.500,A,4308.3051,N,07726.2648,W,0.02,278.84,190721,,,A*7D
$GPGGA,184626.750,4308.3051,N,07726.2648,W,1,05,1.90,161.6,M,-34.4,M,,*54
$GPRMC,184627.000,A,4308.3052,N,07726.2648,W,0.01,226.10,190721,,,A*7F
$GPGGA,184627.250,4308.3052,N,07726.2648,W,1,05,1.90,161.5,M,-34.4,M,,*50
$GPRMC,184627.500,A,4308.3052,N,07726.2648,W,0.01,57.50,190721,,,A*4A
$GPGGA,184627.750,4308.3053,N,07726.2648,W,1,05,1.90,161.4,M,-34.4,M,,*55
$GPRMC,184628.000,A,4308.3053,N,07726.2648,W,0.02,234.16,190721,,,A*77
$GPGGA,184628.250,4308.3054,N,07726.2648,W,1,05,1.90,161.3,M,-34.4,M,,*5F
$GPRMC,184628.500,A,4308.3054,N,07726.2648,W,0.05,142.14,190721,,,A*72
$GPGGA,184628.750,4308.3054,N,07726.2648,W,1,05,1.90,161.2,M,-34.4,M,,*5B
$GPRMC,184629.000,A,4308.3055,N,07726.2648,W,0.03,86.12,190721,,,A*4E
$GPGGA,184629.250,4308.3055,N,07726.2648,W,1,05,1.90,161.1,M,-34.4,M,,*5D
$GPRMC,184629.500,A,4308.3056,N,07726.2648,W,0.04,348.77,190721,,,A*7D
$GPGGA,184629.750,4308.3056,N,07726.2648,W,1,05,2.02,161.1,M,-34.4,M,,*53
$GPRMC,184630.000,A,4308.3057,N,07726.2648,W,0.04,36.19,190721,,,A*43
$GPGGA,184630.250,4308.3057,N,07726.2648,W,1,05,1.90,161.1,M,-34.4,M,,*57
$GPRMC,184630.500,A,4308.3057,N,07726.2648,W,0.01,105.28,190721,,,A*70
$GPGGA,184630.750,4308.3058,N,07726.2648,W,1,05,1.90,161.1,M,-34.4,M,,*5D
$GPRMC,184631.000,A,4308.3058,N,07726.2648,W,0.01,264.46,190721,,,A*77
$GPGGA,184631.250,4308.3058,N,07726.2648,W,1,05,1.90,161.0,M,-34.4,M,,*58
$GPRMC,184631.500,A,4308.3059,N,07726.2648,W,0.04,51.82,190721,,,A*4A
$GPGGA,184631.750,4308.3059,N,07726.2648,W,1,05,1.90,161.0,M,-34.4,M,,*5C
$GPRMC,184632.000,A,4308.3060,N,07726.2647,W,0.05,32.61,190721,,,A*40
$GPGGA,184632.250,4308.3060,N,07726.2647,W,1,05,1.90,160.9,M,-34.4,M,,*57
$GPRMC,184632.500,A,4308.3061,N,07726.2647,W,0.04,344.38,190721,,,A*7B
$GPGGA,184632.750,4308.3061,N,07726.2647,W,1,05,1.90,160.9,M,-34.4,M,,*53
$GPRMC,184633.000,A,4308.3061,N,07726.2647,W,0.03,152.92,190721,,,A*7D
$GPGGA,184633.250,4308.3062,N,07726.2647,W,1,05,1.90,160.8,M,-34.4,M,,*55
$GPRMC,184633.500,A,4308.3062,N,07726.2647,W,0.02,79.87,190721,,,A*46
$GPGGA,184633.750,4308.3063,N,07726.2647,W,1,05,1.90,160.8,M,-34.4,M,,*51
$GPRMC,184634.000,A,4308.3063,N,07726.2647,W,0.02,302.20,190721,,,A*77
$GPGGA,184634.250,4308.3063,N,07726.2647,W,1,05,1.90,160.7,M,-34.4,M,,*5C
$GPRMC,184634.500,A,4308.3064,N,07726.2647,W,0.06,42.89,190721,,,A*45
$GPGGA,184634.750,4308.3064,N,07726.2647,W,1,05,1.90,160.6,M,-34.4,M,,*5F
$GPRMC,184635.000,A,4308.3064,N,07726.2647,W,0.02,307.60,190721,,,A*70
$GPGGA,184635.250,4308.3065,N,07726.2647,W,1,05,1.90,160.6,M,-34.4,M,,*5A
$GPRMC,184635.500,A,4308.3065,N,07726.2647,W,0.03,68.76,190721,,,A*48
$GPGGA,184635.750,4308.3065,N,07726.2647,W,1,05,1.90,160.6,M,-34.4,M,,*5F
$GPRMC,184636.000,A,4308.3065,N,07726.2647,W,0.02,291.61,190721,,,A*7D
$GPGGA,184636.250,4308.3065,N,07726.2647,W,1,05,1.91,160.6,M,-34.4,M,,*58
$GPRMC,184636.500,A,4308.3065,N,07726.2647,W,0.02,167.96,190721,,,A*7A
$GPGGA,184636.750,4308.3065,N,07726.2647,W,1,05,1.91,160.6,M,-34.4,M,,*5D
$GPRMC,184637.000,A,4308.3065,N,07726.2647,W,0.02,141.83,190721,,,A*7E
$GPGGA,184637.250,4308.3065,N,07726.2647,W,1,05,1.91,160.6,M,-34.4,M,,*59
$GPRMC,184637.500,A,4308.3065,N,07726.2647,W,0.02,261.30,190721,,,A*72
$GPGGA,184637.750,4308.3065,N,07726.2647,W,1,05,1.91,160.6,M,-34.4,M,,*5C
$GPRMC,184638.000,A,4308.3065,N,07726.2647,W,0.02,353.46,190721,,,A*79
$GPGGA,184638.250,4308.3065,N,07726.2647,W,1,05,2.02,160.6,M,-34.4,M,,*5F
$GPRMC,184638.500,A,4308.3065,N,07726.2647,W,0.04,114.12,190721,,,A*7A
$GPGGA,184638.750,4308.3065,N,07726.2647,W,1,05,1.91,160.6,M,-34.4,M,,*53
$GPRMC,184639.000,A,4308.3065,N,07726.2647,W,0.02,118.19,190721,,,A*7F
$GPGGA,184639.250,4308.3065,N,07726.2647,W,1,05,1.91,160.6,M,-34.4,M,,*57
$GPRMC,184639.500,A,4308.3065,N,07726.2647,W,0.05,171.94,190721,,,A*77
$GPGGA,184639.750,4308.3065,N,07726.2647,W,1,05,1.91,160.6,M,-34.4,M,,*52
$GPRMC,184640.000,A,4308.3065,N,07726.2647,W,0.05,188.06,190721,,,A*71
$GPGGA,184640.250,4308.3065,N,07726.2647,W,1,05,1.91,160.6,M,-34.4,M,,*59
$GPRMC,184640.500,A,4308.3065,N,07726.2647,W,0.03,117.02,190721,,,A*70
$GPGGA,184640.750,4308.3065,N,07726.2647,W,1,05,1.91,160.6,M,-34.4,M,,*5C
$GPRMC,184641.000,A,4308.3065,N,07726.2647,W,0.04,40.83,190721,,,A*49
$GPGGA,184641.250,4308.3065,N,07726.2647,W,1,05,1.91,160.6,M,-34.4,M,,*58
$GPRMC,184641.500,A,4308.3065,N,07726.2647,W,0.01,183.82,190721,,,A*76
$GPGGA,184641.750,4308.3065,N,07726.2647,W,1,05,1.91,160.6,M,-34.4,M,,*5D
$GPRMC,184642.000,A,4308.3065,N,07726.2647,W,0.04,268.20,190721,,,A*7B
$GPGGA,184642.250,4308.3065,N,07726.2647,W,1,05,1.91,160.6,M,-34.4,M,,*5B
$GPRMC,184642.500,A,4308.3065,N,07726.2647,W,0.03,211.43,190721,,,A*72
$GPGGA,184642.750,4308.3065,N,07726.2647,W,1,05,1.91,160.6,M,-34.4,M,,*5E
$GPRMC,184643.000,A,4308.3065,N,07726.2647,W,0.05,145.32,190721,,,A*74
$GPGGA,184643.250,4308.3065,N,07726.2647,W,1,05,1.91,160.6,M,-34.4,M,,*5A
$GPRMC,184643.500,A,4308.3065,N,07726.2647,W,0.04,182.55,190721,,,A*7A
$GPGGA,184643.750,4308.3065,N,07726.2647,W,1,05,1.91,160.6,M,-34.4,M,,*5F
$GPRMC,184644.000,A,4308.3065,N,07726.2647,W,0.01,296.96,190721,,,A*74
$GPGGA,184644.250,4308.3065,N,07726.2647,W,1,05,1.91,160.6,M,-34.4,M,,*5D
$GPRMC,184644.500,A,4308.3065,N,07726.2647,W,0.01,326.49,190721,,,A*79
$GPGGA,184644.750,4308.3065,N,07726.2647,W,1,05,1.91,160.6,M,-34.4,M,,*58
$GPRMC,184645.000,A,4308.3065,N,07726.2647,W,0.00,165.22,190721,,,A*74
$GPGGA,184645.250,4308.3065,N,07726.2647,W,1,05,1.91,160.6,M,-34.4,M,,*5C
$GPRMC,184645.500,A,4308.3065,N,07726.2647,W,0.01,4.82,190721,,,A*7C
$GPGGA,184645.750,4308.3065,N,07726.2647,W,1,05,2.03,160.6,M,-34.4,M,,*51
$GPRMC,184646.000,A,4308.3065,N,07726.2647,W,0.03,24.44,190721,,,A*40
$GPGGA,184646.250,4308.3065,N,07726.2647,W,1,05,1.91,160.6,M,-34.4,M,,*5F
$GPRMC,184646.500,A,4308.3065,N,07726.2647,W,0.01,107.11,190721,,,A*77
$GPGGA,184646.750,4308.3065,N,07726.2647,W,1,05,1.91,160.5,M,-34.4,M,,*59
$GPRMC,184647.000,A,4308.3065,N,07726.2647,W,0.04,237.00,190721,,,A*76
$GPGGA,184647.250,4308.3065,N,07726.2647,W,1,05,1.91,160.5,M,-34.4,M,,*5D
$GPRMC,184647.500,A,4308.3065,N,07726.2647,W,0.03,4.58,190721,,,A*7B
$GPGGA,184647.750,4308.3065,N,07726.2647,W,1,05,2.03,160.5,M,-34.4,M,,*50
$GPRMC,184648.000,A,4308.3065,N,07726.2647,W,0.02,148.53,190721,,,A*72
$GPGGA,184648.250,4308.3065,N,07726.2647,W,1,05,1.91,160.5,M,-34.4,M,,*52
$GPRMC,184648.500,A,4308.3065,N,07726.2647,W,0.03,332.73,190721,,,A*7B
$GPGGA,184648.750,4308.3065,N,07726.2647,W,1,05,1.91,160.5,M,-34.4,M,,*57
$GPRMC,184649.000,A,4308.3065,N,07726.2647,W,0.08,10.61,190721,,,A*44
$GPGGA,184649.250,4308.3065,N,07726.2647,W,1,05,2.03,160.5,M,-34.4,M,,*5B
$GPRMC,184649.500,A,4308.3065,N,07726.2647,W,0.03,214.27,190721,,,A*7E
$GPGGA,184649.750,4308.3065,N,07726.2647,W,1,05,1.91,160.5,M,-34.4,M,,*56
$GPRMC,184650.000,A,4308.3065,N,07726.2647,W,0.00,147.13,190721,,,A*72
$GPGGA,184650.250,4308.3065,N,07726.2647,W,1,05,1.91,160.5,M,-34.4,M,,*5B
$GPRMC,184650.500,A,4308.3065,N,07726.2647,W,0.02,17.78,190721,,,A*4C
$GPGGA,184650.750,4308.3065,N,07726.2647,W,1,05,1.91,160.5,M,-34.4,M,,*5E
$GPRMC,184651.000,A,4308.3065,N,07726.2647,W,0.02,104.09,190721,,,A*7D
$GPGGA,184651.250,4308.3065,N,07726.2647,W,1,05,1.91,160.5,M,-34.4,M,,*5A
$GPRMC,184651.500,A,4308.3065,N,07726.2647,W,0.02,221.00,190721,,,A*75
$GPGGA,184651.750,4308.3065,N,07726.2647,W,1,05,1.91,160.5,M,-34.4,M,,*5F
$GPRMC,184652.000,A,4308.3065,N,07726.2647,W,0.03,118.28,190721,,,A*71
$GPGGA,184652.250,4308.3065,N,07726.2647,W,1,05,1.91,160.5,M,-34.4,M,,*59
$GPRMC,184652.500,A,4308.3065,N,07726.2647,W,0.02,70.46,190721,,,A*42
$GPGGA,184652.750,4308.3065,N,07726.2647,W,1,05,1.91,160.5,M,-34.4,M,,*5C
$GPRMC,184653.000,A,4308.3065,N,07726.2647,W,0.02,192.27,190721,,,A*7C
$GPGGA,184653.250,4308.3065,N,07726.2647,W,1,05,1.91,160.5,M,-34.4,M,,*58
$GPRMC,184653.500,A,4308.3065,N,07726.2647,W,0.03,241.76,190721,,,A*71
$GPGGA,184653.750,4308.3065,N,07726.2647,W,1,05,1.91,160.5,M,-34.4,M,,*5D
$GPRMC,184654.000,A,4308.3065,N,07726.2647,W,0.03,67.73,190721,,,A*40
$GPGGA,184654.250,4308.3065,N,07726.2647,W,1,05,1.91,160.5,M,-34.4,M,,*5F
$GPRMC,184654.500,A,4308.3065,N,07726.2647,W,0.07,68.65,190721,,,A*49
$GPGGA,184654.750,4308.3065,N,07726.2647,W,1,05,1.91,160.5,M,-34.4,M,,*5A
$GPRMC,184655.000,A,4308.3064,N,07726.2647,W,0.04,75.18,190721,,,A*49
$GPGGA,184655.250,4308.3064,N,07726.2647,W,1,05,1.91,160.5,M,-34.4,M,,*5F
$GPRMC,184655.500,A,4308.3065,N,07726.2647,W,0.00,150.17,190721,,,A*70
$GPGGA,184655.750,4308.3065,N,07726.2647,W,1,05,1.91,160.5,M,-34.4,M,,*5B
$GPRMC,184656.000,A,4308.3065,N,07726.2647,W,0.02,207.65,190721,,,A*70
$GPGGA,184656.250,4308.3065,N,07726.2647,W,1,05,1.91,160.5,M,-34.4,M,,*5D
$GPRMC,184656.500,A,4308.3065,N,07726.2647,W,0.01,276.06,190721,,,A*75
$GPGGA,184656.750,4308.3065,N,07726.2647,W,1,05,1.91,160.5,M,-34.4,M,,*58
$GPRMC,184657.000,A,4308.3065,N,07726.2647,W,0.05,114.33,190721,,,A*74
$GPGGA,184657.250,4308.3064,N,07726.2647,W,1,05,1.91,160.5,M,-34.4,M,,*5D
$GPRMC,184657.500,A,4308.3064,N,07726.2647,W,0.02,300.45,190721,,,A*71
$GPGGA,184657.750,4308.3064,N,07726.2647,W,1,05,1.91,160.5,M,-34.4,M,,*58
$GPRMC,184658.000,A,4308.3064,N,07726.2647,W,0.04,241.41,190721,,,A*7D
$GPGGA,184658.250,4308.3064,N,07726.2647,W,1,05,1.91,160.5,M,-34.4,M,,*52
$GPRMC,184658.500,A,4308.3064,N,07726.2647,W,0.02,47.42,190721,,,A*49
$GPGGA,184658.750,4308.3064,N,07726.2647,W,1,05,1.91,160.5,M,-34.4,M,,*57
$GPRMC,184659.000,A,4308.3064,N,07726.2647,W,0.02,359.93,190721,,,A*7D
$GPGGA,184659.250,4308.3064,N,07726.2647,W,1,05,2.03,160.5,M,-34.4,M,,*5B
$GPRMC,184659.500,A,4308.3064,N,07726.2647,W,0.04,223.33,190721,,,A*78
$GPGGA,184659.750,4308.3064,N,07726.2647,W,1,05,1.91,160.5,M,-34.4,M,,*56
$GPRMC,184700.000,A,4308.3064,N,07726.2647,W,0.04,40.43,190721,,,A*40
$GPGGA,184700.250,4308.3064,N,07726.2647,W,1,05,1.91,160.5,M,-34.4,M,,*5E
$GPRMC,184700.500,A,4308.3064,N,07726.2647,W,0.05,159.22,190721,,,A*7A
$GPGGA,184700.750,4308.3064,N,07726.2647,W,1,05,1.91,160.5,M,-34.4,M,,*5B
$GPRMC,184701.000,A,4308.3064,N,07726.2647,W,0.01,122.85,190721,,,A*7B
$GPGGA,184701.250,4308.3064,N,07726.2647,W,1,05,1.91,160.5,M,-34.4,M,,*5F
$GPRMC,184701.500,A,4308.3064,N,07726.2647,W,0.03,205.92,190721,,,A*7C
$GPGGA,184701.750,4308.3064,N,07726.2647,W,1,05,1.91,160.5,M,-34.4,M,,*5A
$GPRMC,184702.000,A,4308.3064,N,07726.2647,W,0.04,16.28,190721,,,A*4C
$GPGGA,184702.250,4308.3064,N,07726.2647,W,1,05,1.91,160.5,M,-34.4,M,,*5C
$GPRMC,184702.500,A,4308.3064,N,07726.2647,W,0.01,129.47,190721,,,A*78
$GPGGA,184702.750,4308.3064,N,07726.2647,W,1,05,1.92,160.5,M,-34.4,M,,*5A
$GPRMC,184703.000,A,4308.3064,N,07726.2647,W,0.04,0.55,190721,,,A*70
$GPGGA,184703.250,4308.3064,N,07726.2647,W,1,05,2.03,160.5,M,-34.4,M,,*55
$GPRMC,184703.500,A,4308.3064,N,07726.2647,W,0.02,19.09,190721,,,A*42
$GPGGA,184703.750,4308.3064,N,07726.2647,W,1,05,1.92,160.5,M,-34.4,M,,*5B
$GPRMC,184704.000,A,4308.3064,N,07726.2647,W,0.02,311.51,190721,,,A*76
$GPGGA,184704.250,4308.3064,N,07726.2647,W,1,05,1.92,160.5,M,-34.4,M,,*59
$GPRMC,184704.500,A,4308.3064,N,07726.2647,W,0.07,176.61,190721,,,A*76
$GPGGA,184704.750,4308.3064,N,07726.2647,W,1,05,1.92,160.5,M,-34.4,M,,*5C
$GPRMC,184705.000,A,4308.3064,N,07726.2647,W,0.03,19.76,190721,,,A*48
$GPGGA,184705.250,4308.3064,N,07726.2647,W,1,05,1.92,160.5,M,-34.4,M,,*58
$GPRMC,184705.500,A,4308.3064,N,07726.2647,W,0.03,104.93,190721,,,A*7B
$GPGGA,184705.750,4308.3064,N,07726.2647,W,1,05,1.92,160.5,M,-34.4,M,,*5D
$GPRMC,184706.000,A,4308.3064,N,07726.2647,W,0.03,236.16,190721,,,A*72
$GPGGA,184706.250,4308.3064,N,07726.2647,W,1,05,1.92,160.5,M,-34.4,M,,*5B
$GPRMC,184706.500,A,4308.3064,N,07726.2647,W,0.01,274.08,190721,,,A*7C
$GPGGA,184706.750,4308.3064,N,07726.2647,W,1,05,1.92,160.5,M,-34.4,M,,*5E
$GPRMC,184707.000,A,4308.3064,N,07726.2647,W,0.04,174.35,190721,,,A*70
$GPGGA,184707.250,4308.3064,N,07726.2647,W,1,05,1.92,160.5,M,-34.4,M,,*5A
$GPRMC,184707.500,A,4308.3064,N,07726.2647,W,0.01,97.45,190721,,,A*4B
$GPGGA,184707.750,4308.3064,N,07726.2647,W,1,05,1.92,160.5,M,-34.4,M,,*5F
$GPRMC,184708.000,A,4308.3064,N,07726.2647,W,0.03,223.01,190721,,,A*7E
$GPGGA,184708.250,4308.3064,N,07726.2647,W,1,05,1.92,160.5,M,-34.4,M,,*55
$GPRMC,184708.500,A,4308.3064,N,07726.2647,W,0.00,81.68,190721,,,A*4D
$GPGGA,184708.750,4308.3064,N,07726.2647,W,1,05,1.92,160.5,M,-34.4,M,,*50
$GPRMC,184709.000,A,4308.3064,N,07726.2647,W,0.02,21.33,190721,,,A*4F
$GPGGA,184709.250,4308.3065,N,07726.2647,W,1,05,1.92,160.5,M,-34.4,M,,*55
$GPRMC,184709.500,A,4308.3064,N,07726.2647,W,0.02,114.37,190721,,,A*79
$GPGGA,184709.750,4308.3064,N,07726.2647,W,1,05,1.92,160.5,M,-34.4,M,,*51
$GPRMC,184710.000,A,4308.3064,N,07726.2647,W,0.03,140.34,190721,,,A*77
$GPGGA,184710.250,4308.3064,N,07726.2647,W,1,05,1.92,160.5,M,-34.4,M,,*5C
$GPRMC,184710.500,A,4308.3065,N,07726.2647,W,0.02,240.34,190721,,,A*71
$GPGGA,184710.750,4308.3065,N,07726.2647,W,1,05,1.92,160.4,M,-34.4,M,,*59
$GPRMC,184711.000,A,4308.3065,N,07726.2647,W,0.02,206.57,190721,,,A*72
$GPGGA,184711.250,4308.3065,N,07726.2647,W,1,05,1.92,160.4,M,-34.4,M,,*5D
$GPRMC,184711.500,A,4308.3065,N,07726.2647,W,0.01,90.12,190721,,,A*48
$GPGGA,184711.750,4308.3065,N,07726.2647,W,1,05,1.92,160.4,M,-34.4,M,,*58
$GPRMC,184712.000,A,4308.3065,N,07726.2647,W,0.06,219.65,190721,,,A*7A
$GPGGA,184712.250,4308.3065,N,07726.2647,W,1,05,1.92,160.4,M,-34.4,M,,*5E
$GPRMC,184712.500,A,4308.3065,N,07726.2647,W,0.03,351.34,190721,,,A*73
$GPGGA,184712.750,4308.3065,N,07726.2647,W,1,05,2.03,160.4,M,-34.4,M,,*50
$GPRMC,184713.000,A,4308.3065,N,07726.2647,W,0.03,183.08,190721,,,A*75
$GPGGA,184713.250,4308.3065,N,07726.2647,W,1,05,1.92,160.4,M,-34.4,M,,*5F
$GPRMC,184713.500,A,4308.3065,N,07726.2647,W,0.02,58.67,190721,,,A*4F
$GPGGA,184713.750,4308.3065,N,07726.2647,W,1,05,1.92,160.4,M,-34.4,M,,*5A
$GPRMC,184714.000,A,4308.3065,N,07726.2647,W,0.02,76.41,190721,,,A*45
$GPGGA,184714.250,4308.3065,N,07726.2647,W,1,05,1.92,160.4,M,-34.4,M,,*58
$GPRMC,184714.500,A,4308.3065,N,07726.2647,W,0.03,357.95,190721,,,A*78
$GPGGA,184714.750,4308.3065,N,07726.2647,W,1,05,2.04,160.4,M,-34.4,M,,*51
$GPRMC,184715.000,A,4308.3065,N,07726.2647,W,0.04,143.78,190721,,,A*7F
$GPGGA,184715.250,4308.3065,N,07726.2647,W,1,05,1.92,160.4,M,-34.4,M,,*59
$GPRMC,184715.500,A,4308.3065,N,07726.2647,W,0.03,22.59,190721,,,A*48
$GPGGA,184715.750,4308.3065,N,07726.2647,W,1,05,1.92,160.4,M,-34.4,M,,*5C
$GPRMC,184716.000,A,4308.3065,N,07726.2647,W,0.03,58.68,190721,,,A*41
$GPGGA,184716.250,4308.3065,N,07726.2647,W,1,05,1.92,160.4,M,-34.4,M,,*5A
$GPRMC,184716.500,A,4308.3065,N,07726.2647,W,0.01,4.00,190721,,,A*71
$GPGGA,184716.750,4308.3065,N,07726.2647,W,1,05,2.04,160.4,M,-34.4,M,,*53
$GPRMC,184717.000,A,4308.3065,N,07726.2647,W,0.04,46.46,190721,,,A*44
$GPGGA,184717.250,4308.3065,N,07726.2647,W,1,05,1.92,160.4,M,-34.4,M,,*5B
$GPRMC,184717.500,A,4308.3065,N,07726.2647,W,0.05,50.92,190721,,,A*4E
$GPGGA,184717.750,4308.3065,N,07726.2647,W,1,05,1.92,160.4,M,-34.4,M,,*5E
$GPRMC,184718.000,A,4308.3065,N,07726.2647,W,0.03,72.74,190721,,,A*4A
$GPGGA,184718.250,4308.3065,N,07726.2647,W,1,05,1.92,160.4,M,-34.4,M,,*54
$GPRMC,184718.500,A,4308.3065,N,07726.2647,W,0.03,232.28,190721,,,A*70
$GPGGA,184718.750,4308.3065,N,07726.2647,W,1,05,1.92,160.4,M,-34.4,M,,*51
$GPRMC,184719.000,A,4308.3065,N,07726.2647,W,0.07,6.26,190721,,,A*7B
$GPGGA,184719.250,4308.3065,N,07726.2647,W,1,05,2.04,160.4,M,-34.4,M,,*59
$GPRMC,184719.500,A,4308.3065,N,07726.2647,W,0.03,166.17,190721,,,A*7F
$GPGGA,184719.750,4308.3065,N,07726.2647,W,1,05,1.92,160.4,M,-34.4,M,,*50
$GPRMC,184720.000,A,4308.3065,N,07726.2647,W,0.02,75.08,190721,,,A*4C
$GPGGA,184720.250,4308.3065,N,07726.2647,W,1,05,1.92,160.4,M,-34.4,M,,*5F
$GPRMC,184720.500,A,4308.3065,N,07726.2647,W,0.00,198.96,190721,,,A*7E
$GPGGA,184720.750,4308.3065,N,07726.2647,W,1,05,1.92,160.4,M,-34.4,M,,*5A
$GPRMC,184721.000,A,4308.3065,N,07726.2647,W,0.03,79.42,190721,,,A*4E
$GPGGA,184721.250,4308.3065,N,07726.2647,W,1,05,1.92,160.4,M,-34.4,M,,*5E
$GPRMC,184721.500,A,4308.3065,N,07726.2646,W,0.03,72.62,190721,,,A*43
$GPGGA,184721.750,4308.3065,N,07726.2646,W,1,05,1.92,160.4,M,-34.4,M,,*5A
$GPRMC,184722.000,A,4308.3065,N,07726.2646,W,0.01,345.47,190721,,,A*77
$GPGGA,184722.250,4308.3065,N,07726.2646,W,1,05,2.04,160.4,M,-34.4,M,,*50
$GPRMC,184722.500,A,4308.3065,N,07726.2646,W,0.04,68.20,190721,,,A*4A
$GPGGA,184722.750,4308.3065,N,07726.2646,W,1,05,1.92,160.4,M,-34.4,M,,*59
$GPRMC,184723.000,A,4308.3065,N,07726.2646,W,0.05,242.14,190721,,,A*72
$GPGGA,184723.250,4308.3065,N,07726.2646,W,1,05,1.92,160.4,M,-34.4,M,,*5D
$GPRMC,184723.500,A,4308.3065,N,07726.2646,W,0.04,327.15,190721,,,A*75
$GPGGA,184723.750,4308.3065,N,07726.2646,W,1,05,1.92,160.4,M,-34.4,M,,*58
$GPRMC,184724.000,A,4308.3065,N,07726.2646,W,0.05,150.02,190721,,,A*72
$GPGGA,184724.250,4308.3065,N,07726.2646,W,1,05,1.92,160.4,M,-34.4,M,,*5A
$GPRMC,184724.500,A,4308.3065,N,07726.2646,W,0.04,43.25,190721,,,A*40
$GPGGA,184724.750,4308.3065,N,07726.2646,W,1,05,1.92,160.4,M,-34.4,M,,*5F
$GPRMC,184725.000,A,4308.3065,N,07726.2646,W,0.03,123.11,190721,,,A*73
$GPGGA,184725.250,4308.3065,N,07726.2646,W,1,05,1.92,160.4,M,-34.4,M,,*5B
$GPRMC,184725.500,A,4308.3065,N,07726.2646,W,0.01,86.41,190721,,,A*4F
$GPGGA,184725.750,4308.3065,N,07726.2646,W,1,05,1.92,160.4,M,-34.4,M,,*5E
$GPRMC,184726.000,A,4308.3065,N,07726.2646,W,0.01,43.30,190721,,,A*46
$GPGGA,184726.250,4308.3065,N,07726.2646,W,1,05,1.92,160.4,M,-34.4,M,,*58
$GPRMC,184726.500,A,4308.3065,N,07726.2646,W,0.02,247.79,190721,,,A*7B
$GPGGA,184726.750,4308.3065,N,07726.2646,W,1,05,1.92,160.4,M,-34.4,M,,*5D
$GPRMC,184727.000,A,4308.3065,N,07726.2646,W,0.02,252.21,190721,,,A*76
$GPGGA,184727.250,4308.3065,N,07726.2646,W,1,05,1.92,160.4,M,-34.4,M,,*59
$GPRMC,184727.500,A,4308.3065,N,07726.2646,W,0.01,209.43,190721,,,A*7A
$GPGGA,184727.750,4308.3065,N,07726.2646,W,1,05,1.92,160.4,M,-34.4,M,,*5C
$GPRMC,184728.000,A,4308.3065,N,07726.2646,W,0.01,25.47,190721,,,A*48
$GPGGA,184728.250,4308.3065,N,07726.2646,W,1,05,1.92,160.4,M,-34.4,M,,*56
$GPRMC,184728.500,A,4308.3065,N,07726.2646,W,0.06,198.80,190721,,,A*76
$GPGGA,184728.750,4308.3065,N,07726.2646,W,1,05,1.92,160.4,M,-34.4,M,,*53
$GPRMC,184729.000,A,4308.3065,N,07726.2646,W,0.02,71.34,190721,,,A*4F
$GPGGA,184729.250,4308.3065,N,07726.2646,W,1,05,1.92,160.4,M,-34.4,M,,*57
$GPRMC,184729.500,A,4308.3065,N,07726.2646,W,0.03,242.77,190721,,,A*7E
$GPGGA,184729.750,4308.3065,N,07726.2646,W,1,05,1.93,160.4,M,-34.4,M,,*53
$GPRMC,184730.000,A,4308.3065,N,07726.2646,W,0.02,145.78,190721,,,A*79
$GPGGA,184730.250,4308.3065,N,07726.2646,W,1,05,1.93,160.4,M,-34.4,M,,*5E
$GPRMC,184730.500,A,4308.3065,N,07726.2646,W,0.03,10.44,190721,,,A*43
$GPGGA,184730.750,4308.3065,N,07726.2646,W,1,05,2.04,160.4,M,-34.4,M,,*56
$GPRMC,184731.000,A,4308.3065,N,07726.2646,W,0.02,291.47,190721,,,A*7E
$GPGGA,184731.250,4308.3065,N,07726.2646,W,1,05,1.93,160.4,M,-34.4,M,,*5F
$GPRMC,184731.500,A,4308.3065,N,07726.2646,W,0.03,72.37,190721,,,A*42
$GPGGA,184731.750,4308.3065,N,07726.2646,W,1,05,1.93,160.4,M,-34.4,M,,*5A
$GPRMC,184732.000,A,4308.3065,N,07726.2646,W,0.05,61.40,190721,,,A*40
$GPGGA,184732.250,4308.3065,N,07726.2646,W,1,05,1.93,160.4,M,-34.4,M,,*5C
$GPRMC,184732.500,A,4308.3065,N,07726.2646,W,0.05,63.85,190721,,,A*4E
$GPGGA,184732.750,4308.3065,N,07726.2646,W,1,05,1.93,160.4,M,-34.4,M,,*59
$GPRMC,184733.000,A,4308.3065,N,07726.2646,W,0.02,6.18,190721,,,A*7A
$GPGGA,184733.250,4308.3065,N,07726.2646,W,1,05,2.04,160.4,M,-34.4,M,,*50
$GPRMC,184733.500,A,4308.3065,N,07726.2646,W,0.01,232.59,190721,,,A*7C
$GPGGA,184733.750,4308.3065,N,07726.2646,W,1,05,1.93,160.4,M,-34.4,M,,*58
$GPRMC,184734.000,A,4308.3065,N,07726.2646,W,0.01,151.49,190721,,,A*79
$GPGGA,184734.250,4308.3065,N,07726.2646,W,1,05,1.93,160.4,M,-34.4,M,,*5A
$GPRMC,184734.500,A,4308.3065,N,07726.2646,W,0.02,67.48,190721,,,A*4A
$GPGGA,184734.750,4308.3065,N,07726.2646,W,1,05,1.93,160.4,M,-34.4,M,,*5F
$GPRMC,184735.000,A,4308.3065,N,07726.2646,W,0.01,247.58,190721,,,A*7C
$GPGGA,184735.250,4308.3065,N,07726.2646,W,1,05,1.93,160.4,M,-34.4,M,,*5B
$GPRMC,184735.500,A,4308.3065,N,07726.2646,W,0.02,239.87,190721,,,A*71
$GPGGA,184735.750,4308.3065,N,07726.2646,W,1,05,1.93,160.4,M,-34.4,M,,*5E
$GPRMC,184736.000,A,4308.3065,N,07726.2646,W,0.03,35.39,190721,,,A*4D
$GPGGA,184736.250,4308.3065,N,07726.2646,W,1,05,1.93,160.4,M,-34.4,M,,*58
$GPRMC,184736.500,A,4308.3065,N,07726.2646,W,0.02,272.55,190721,,,A*72
$GPGGA,184736.750,4308.3065,N,07726.2646,W,1,05,1.93,160.4,M,-34.4,M,,*5D
$GPRMC,184737.000,A,4308.3065,N,07726.2646,W,0.04,26.00,190721,,,A*43
$GPGGA,184737.250,4308.3065,N,07726.2646,W,1,05,1.93,160.4,M,-34.4,M,,*59
$GPRMC,184737.500,A,4308.3065,N,07726.2646,W,0.02,77.13,190721,,,A*46
$GPGGA,184737.750,4308.3065,N,07726.2646,W,1,05,1.93,160.4,M,-34.4,M,,*5C
$GPRMC,184738.000,A,4308.3065,N,07726.2646,W,0.01,99.86,190721,,,A*43
$GPGGA,184738.250,4308.3065,N,07726.2646,W,1,05,1.93,160.4,M,-34.4,M,,*56
$GPRMC,184738.500,A,4308.3065,N,07726.2646,W,0.03,159.72,190721,,,A*72
$GPGGA,184738.750,4308.3065,N,07726.2646,W,1,05,1.93,160.4,M,-34.4,M,,*53
$GPRMC,184739.000,A,4308.3065,N,07726.2646,W,0.01,36.41,190721,,,A*4C
$GPGGA,184739.250,4308.3065,N,07726.2646,W,1,05,1.93,160.4,M,-34.4,M,,*57
$GPRMC,184739.500,A,4308.3065,N,07726.2646,W,0.01,15.34,190721,,,A*4A
$GPGGA,184739.750,4308.3065,N,07726.2646,W,1,05,1.93,160.4,M,-34.4,M,,*52
$GPRMC,184740.000,A,4308.3065,N,07726.2646,W,0.03,119.73,190721,,,A*7D
$GPGGA,184740.250,4308.3065,N,07726.2646,W,1,05,1.93,160.4,M,-34.4,M,,*59
$GPRMC,184740.500,A,4308.3065,N,07726.2646,W,0.01,110.78,190721,,,A*78
$GPGGA,184740.750,4308.3065,N,07726.2646,W,1,05,1.93,160.4,M,-34.4,M,,*5C
$GPRMC,184741.000,A,4308.3065,N,07726.2646,W,0.02,21.70,190721,,,A*44
$GPGGA,184741.250,4308.3065,N,07726.2646,W,1,05,1.93,160.4,M,-34.4,M,,*58
$GPRMC,184741.500,A,4308.3065,N,07726.2646,W,0.04,305.03,190721,,,A*76
$GPGGA,184741.750,4308.3065,N,07726.2646,W,1,05,1.93,160.4,M,-34.4,M,,*5D
$GPRMC,184742.000,A,4308.3065,N,07726.2646,W,0.02,294.25,190721,,,A*7B
$GPGGA,184742.250,4308.3065,N,07726.2646,W,1,05,1.93,160.4,M,-34.4,M,,*5B
$GPRMC,184742.500,A,4308.3065,N,07726.2646,W,0.03,207.47,190721,,,A*71
$GPGGA,184742.750,4308.3065,N,07726.2646,W,1,05,1.93,160.4,M,-34.4,M,,*5E
$GPRMC,184743.000,A,4308.3065,N,07726.2646,W,0.01,346.27,190721,,,A*75
$GPGGA,184743.250,4308.3065,N,07726.2646,W,1,05,2.05,160.4,M,-34.4,M,,*56
$GPRMC,184743.500,A,4308.3065,N,07726.2646,W,0.04,61.64,190721,,,A*44
$GPGGA,184743.750,4308.3065,N,07726.2646,W,1,05,1.93,160.4,M,-34.4,M,,*5F
$GPRMC,184744.000,A,4308.3065,N,07726.2646,W,0.02,195.58,190721,,,A*75
$GPGGA,184744.250,4308.3065,N,07726.2646,W,1,05,1.93,160.4,M,-34.4,M,,*5D
$GPRMC,184744.500,A,4308.3065,N,07726.2646,W,0.02,13.76,190721,,,A*43
$GPGGA,184744.750,4308.3065,N,07726.2646,W,1,05,2.05,160.4,M,-34.4,M,,*54
$GPRMC,184745.000,A,4308.3065,N,07726.2646,W,0.01,205.85,190721,,,A*7D
$GPGGA,184745.250,4308.3065,N,07726.2646,W,1,05,1.93,160.4,M,-34.4,M,,*5C
$GPRMC,184745.500,A,4308.3065,N,07726.2646,W,0.00,0.00,190721,,,A*73
$GPGGA,184745.750,4308.3065,N,07726.2646,W,1,05,2.05,160.4,M,-34.4,M,,*55
$GPRMC,184746.000,A,4308.3065,N,07726.2646,W,0.01,55.07,190721,,,A*43
$GPGGA,184746.250,4308.3065,N,07726.2646,W,1,05,1.93,160.4,M,-34.4,M,,*5F
$GPRMC,184746.500,A,4308.3065,N,07726.2646,W,0.03,173.39,190721,,,A*7C
$GPGGA,184746.750,4308.3065,N,07726.2646,W,1,05,1.93,160.4,M,-34.4,M,,*5A
$GPRMC,184747.000,A,4308.3065,N,07726.2646,W,0.02,51.05,190721,,,A*47
$GPGGA,184747.250,4308.3065,N,07726.2646,W,1,05,1.93,160.4,M,-34.4,M,,*5E
$GPRMC,184747.500,A,4308.3065,N,07726.2646,W,0.03,181.50,190721,,,A*7F
$GPGGA,184747.750,4308.3065,N,07726.2646,W,1,05,1.93,160.4,M,-34.4,M,,*5B
$GPRMC,184748.000,A,4308.3065,N,07726.2646,W,0.02,348.25,190721,,,A*71
$GPGGA,184748.250,4308.3065,N,07726.2646,W,1,05,2.05,160.4,M,-34.4,M,,*5D
$GPRMC,184748.500,A,4308.3065,N,07726.2646,W,0.03,178.87,190721,,,A*7C
$GPGGA,184748.750,4308.3065,N,07726.2646,W,1,05,1.93,160.4,M,-34.4,M,,*54
$GPRMC,184749.000,A,4308.3065,N,07726.2646,W,0.02,128.80,190721,,,A*7B
$GPGGA,184749.250,4308.3065,N,07726.2646,W,1,05,1.93,160.4,M,-34.4,M,,*50
$GPRMC,184749.500,A,4308.3065,N,07726.2646,W,0.02,207.97,190721,,,A*76
$GPGGA,184749.750,4308.3065,N,07726.2646,W,1,05,1.93,160.4,M,-34.4,M,,*55
$GPRMC,184750.000,A,4308.3065,N,07726.2646,W,0.02,148.66,190721,,,A*7D
$GPGGA,184750.250,4308.3065,N,07726.2646,W,1,05,1.93,160.4,M,-34.4,M,,*58
$GPRMC,184750.500,A,4308.3065,N,07726.2646,W,0.03,19.13,190721,,,A*4E
$GPGGA,184750.750,4308.3065,N,07726.2646,W,1,05,1.93,160.4,M,-34.4,M,,*5D
$GPRMC,184751.000,A,4308.3065,N,07726.2646,W,0.04,145.20,190721,,,A*75
$GPGGA,184751.250,4308.3065,N,07726.2646,W,1,05,1.93,160.4,M,-34.4,M,,*59
$GPRMC,184751.500,A,4308.3065,N,07726.2646,W,0.03,67.94,190721,,,A*49
$GPGGA,184751.750,4308.3065,N,07726.2646,W,1,05,1.93,160.4,M,-34.4,M,,*5C
$GPRMC,184752.000,A,4308.3065,N,07726.2646,W,0.02,293.21,190721,,,A*79
$GPGGA,184752.250,4308.3065,N,07726.2646,W,1,05,1.93,160.4,M,-34.4,M,,*5A
$GPRMC,184752.500,A,4308.3065,N,07726.2646,W,0.09,20.22,190721,,,A*4E
$GPGGA,184752.750,4308.3065,N,07726.2646,W,1,05,1.93,160.4,M,-34.4,M,,*5F
$GPRMC,184753.000,A,4308.3065,N,07726.2646,W,0.02,207.45,190721,,,A*77
$GPGGA,184753.250,4308.3065,N,07726.2646,W,1,05,1.94,160.4,M,-34.4,M,,*5C
$GPRMC,184753.500,A,4308.3065,N,07726.2646,W,0.02,287.90,190721,,,A*72
$GPGGA,184753.750,4308.3065,N,07726.2646,W,1,05,1.93,160.4,M,-34.4,M,,*5E
$GPRMC,184754.000,A,4308.3065,N,07726.2646,W,0.00,4.88,190721,,,A*72
$GPGGA,184754.250,4308.3065,N,07726.2646,W,1,05,2.05,160.4,M,-34.4,M,,*50
$GPRMC,184754.500,A,4308.3065,N,07726.2646,W,0.03,144.62,190721,,,A*75
$GPGGA,184754.750,4308.3065,N,07726.2646,W,1,05,1.94,160.4,M,-34.4,M,,*5E
$GPRMC,184755.000,A,4308.3065,N,07726.2646,W,0.02,55.83,190721,,,A*4E
$GPGGA,184755.250,4308.3065,N,07726.2646,W,1,05,1.93,160.4,M,-34.4,M,,*5D
$GPRMC,184755.500,A,4308.3065,N,07726.2646,W,0.03,48.12,190721,,,A*4E
$GPGGA,184755.750,4308.3065,N,07726.2646,W,1,05,1.94,160.4,M,-34.4,M,,*5F
$GPRMC,184756.000,A,4308.3065,N,07726.2646,W,0.05,124.44,190721,,,A*76
$GPGGA,184756.250,4308.3065,N,07726.2646,W,1,05,1.94,160.4,M,-34.4,M,,*59
$GPRMC,184756.500,A,4308.3065,N,07726.2646,W,0.06,21.37,190721,,,A*40
$GPGGA,184756.750,4308.3065,N,07726.2646,W,1,05,1.94,160.4,M,-34.4,M,,*5C
$GPRMC,184757.000,A,4308.3065,N,07726.2646,W,0.02,352.86,190721,,,A*7D
$GPGGA,184757.250,4308.3065,N,07726.2646,W,1,05,2.05,160.4,M,-34.4,M,,*53
$GPRMC,184757.500,A,4308.3065,N,07726.2646,W,0.03,9.80,190721,,,A*72
$GPGGA,184757.750,4308.3065,N,07726.2646,W,1,05,2.05,160.4,M,-34.4,M,,*56
$GPRMC,184758.000,A,4308.3065,N,07726.2646,W,0.05,23.66,190721,,,A*4E
$GPGGA,184758.250,4308.3065,N,07726.2646,W,1,05,1.94,160.4,M,-34.4,M,,*57
$GPRMC,184758.500,A,4308.3065,N,07726.2646,W,0.02,27.33,190721,,,A*48
$GPGGA,184758.750,4308.3065,N,07726.2646,W,1,05,1.94,160.4,M,-34.4,M,,*52
$GPRMC,184759.000,A,4308.3065,N,07726.2646,W,0.11,202.31,190721,,,A*79
$GPGGA,184759.250,4308.3065,N,07726.2646,W,1,05,1.94,160.4,M,-34.4,M,,*56
$GPRMC,184759.500,A,4308.3065,N,07726.2646,W,0.04,18.43,190721,,,A*44
$GPGGA,184759.750,4308.3065,N,07726.2646,W,1,05,1.94,160.4,M,-34.4,M,,*53
$GPRMC,184800.000,A,4308.3065,N,07726.2646,W,0.04,112.53,190721,,,A*78
$GPGGA,184800.250,4308.3065,N,07726.2646,W,1,05,1.94,160.4,M,-34.4,M,,*55
$GPRMC,184800.500,A,4308.3065,N,07726.2646,W,0.04,183.17,190721,,,A*75
$GPGGA,184800.750,4308.3065,N,07726.2646,W,1,05,1.94,160.4,M,-34.4,M,,*50
$GPRMC,184801.000,A,4308.3065,N,07726.2646,W,0.04,228.07,190721,,,A*72
$GPGGA,184801.250,4308.3065,N,07726.2646,W,1,05,1.94,160.4,M,-34.4,M,,*54
$GPRMC,184801.500,A,4308.3065,N,07726.2646,W,0.04,207.92,190721,,,A*76
$GPGGA,184801.750,4308.3065,N,07726.2646,W,1,05,1.94,160.4,M,-34.4,M,,*51
$GPRMC,184802.000,A,4308.3065,N,07726.2646,W,0.02,18.80,190721,,,A*49
$GPGGA,184802.250,4308.3065,N,07726.2646,W,1,05,1.94,160.4,M,-34.4,M,,*57
$GPRMC,184802.500,A,4308.3065,N,07726.2646,W,0.03,228.85,190721,,,A*79
$GPGGA,184802.750,4308.3065,N,07726.2646,W,1,05,1.94,160.4,M,-34.4,M,,*52
$GPRMC,184803.000,A,4308.3065,N,07726.2646,W,0.04,215.63,190721,,,A*7C
$GPGGA,184803.250,4308.3065,N,07726.2646,W,1,05,1.94,160.4,M,-34.4,M,,*56
$GPRMC,184803.500,A,4308.3065,N,07726.2646,W,0.04,146.51,190721,,,A*7D
$GPGGA,184803.750,4308.3065,N,07726.2646,W,1,05,1.94,160.4,M,-34.4,M,,*53
$GPRMC,184804.000,A,4308.3065,N,07726.2646,W,0.01,130.10,190721,,,A*7E
$GPGGA,184804.250,4308.3065,N,07726.2646,W,1,05,1.94,160.4,M,-34.4,M,,*51
$GPRMC,184804.500,A,4308.3065,N,07726.2646,W,0.06,32.61,190721,,,A*49
$GPGGA,184804.750,4308.3065,N,07726.2646,W,1,05,1.94,160.4,M,-34.4,M,,*54
$GPRMC,184805.000,A,4308.3065,N,07726.2646,W,0.03,192.12,190721,,,A*77
$GPGGA,184805.250,4308.3065,N,07726.2646,W,1,05,1.94,160.4,M,-34.4,M,,*50
$GPRMC,184805.500,A,4308.3065,N,07726.2646,W,0.02,200.90,190721,,,A*71
$GPGGA,184805.750,4308.3065,N,07726.2646,W,1,05,1.94,160.4,M,-34.4,M,,*55
$GPRMC,184806.000,A,4308.3065,N,07726.2646,W,0.02,22.88,190721,,,A*4C
$GPGGA,184806.250,4308.3065,N,07726.2646,W,1,05,1.94,160.4,M,-34.4,M,,*53
$GPRMC,184806.500,A,4308.3065,N,07726.2646,W,0.01,298.15,190721,,,A*7D
$GPGGA,184806.750,4308.3065,N,07726.2646,W,1,05,1.94,160.4,M,-34.4,M,,*56
$GPRMC,184807.000,A,4308.3065,N,07726.2646,W,0.01,263.56,190721,,,A*7A
$GPGGA,184807.250,4308.3065,N,07726.2646,W,1,05,1.94,160.4,M,-34.4,M,,*52
$GPRMC,184807.500,A,4308.3064,N,07726.2646,W,0.02,359.53,190721,,,A*70
$GPGGA,184807.750,4308.3064,N,07726.2646,W,1,05,2.06,160.4,M,-34.4,M,,*5E
$GPRMC,184808.000,A,4308.3064,N,07726.2646,W,0.02,215.33,190721,,,A*75
$GPGGA,184808.250,4308.3064,N,07726.2646,W,1,05,1.94,160.4,M,-34.4,M,,*5C
$GPRMC,184808.500,A,4308.3064,N,07726.2646,W,0.01,192.48,190721,,,A*73
$GPGGA,184808.750,4308.3064,N,07726.2646,W,1,05,1.94,160.4,M,-34.4,M,,*59
$GPRMC,184809.000,A,4308.3064,N,07726.2646,W,0.02,238.30,190721,,,A*78
$GPGGA,184809.250,4308.3064,N,07726.2646,W,1,05,1.94,160.4,M,-34.4,M,,*5D
$GPRMC,184809.500,A,4308.3064,N,07726.2646,W,0.03,31.08,190721,,,A*4C
$GPGGA,184809.750,4308.3064,N,07726.2646,W,1,05,1.94,160.4,M,-34.4,M,,*58
$GPRMC,184810.000,A,4308.3064,N,07726.2646,W,0.02,35.97,190721,,,A*42
$GPGGA,184810.250,4308.3064,N,07726.2646,W,1,05,1.94,160.4,M,-34.4,M,,*55
$GPRMC,184810.500,A,4308.3064,N,07726.2646,W,0.01,312.35,190721,,,A*7A
$GPGGA,184810.750,4308.3064,N,07726.2646,W,1,05,1.94,160.4,M,-34.4,M,,*50
$GPRMC,184811.000,A,4308.3064,N,07726.2646,W,0.02,196.60,190721,,,A*73
$GPGGA,184811.250,4308.3064,N,07726.2646,W,1,05,1.94,160.4,M,-34.4,M,,*54
$GPRMC,184811.500,A,4308.3064,N,07726.2646,W,0.01,248.09,190721,,,A*7A
$GPGGA,184811.750,4308.3064,N,07726.2646,W,1,05,1.94,160.4,M,-34.4,M,,*51
$GPRMC,184812.000,A,4308.3064,N,07726.2646,W,0.04,353.73,190721,,,A*7F
$GPGGA,184812.250,4308.3064,N,07726.2646,W,1,05,2.06,160.4,M,-34.4,M,,*5F
$GPRMC,184812.500,A,4308.3064,N,07726.2646,W,0.03,28.28,190721,,,A*4C
$GPGGA,184812.750,4308.3064,N,07726.2646,W,1,05,1.94,160.4,M,-34.4,M,,*52
$GPRMC,184813.000,A,4308.3064,N,07726.2646,W,0.05,43.88,190721,,,A*49
$GPGGA,184813.250,4308.3064,N,07726.2646,W,1,05,1.94,160.4,M,-34.4,M,,*56
$GPRMC,184813.500,A,4308.3064,N,07726.2646,W,0.00,76.66,190721,,,A*4F
$GPGGA,184813.750,4308.3064,N,07726.2646,W,1,05,1.94,160.4,M,-34.4,M,,*53
$GPRMC,184814.000,A,4308.3064,N,07726.2646,W,0.03,127.54,190721,,,A*7A
$GPGGA,184814.250,4308.3064,N,07726.2646,W,1,05,1.94,160.4,M,-34.4,M,,*51
$GPRMC,184814.500,A,4308.3064,N,07726.2646,W,0.02,68.50,190721,,,A*40
$GPGGA,184814.750,4308.3064,N,07726.2646,W,1,05,1.94,160.4,M,-34.4,M,,*54
$GPRMC,184815.000,A,4308.3064,N,07726.2646,W,0.04,74.09,190721,,,A*43
$GPGGA,184815.250,4308.3064,N,07726.2646,W,1,05,1.94,160.4,M,-34.4,M,,*50
$GPRMC,184815.500,A,4308.3064,N,07726.2646,W,0.02,46.05,190721,,,A*4D
$GPGGA,184815.750,4308.3064,N,07726.2646,W,1,05,1.94,160.4,M,-34.4,M,,*55
$GPRMC,184816.000,A,4308.3064,N,07726.2646,W,0.04,130.64,190721,,,A*7A
$GPGGA,184816.250,4308.3064,N,07726.2646,W,1,05,1.94,160.4,M,-34.4,M,,*53
$GPRMC,184816.500,A,4308.3064,N,07726.2646,W,0.02,313.64,190721,,,A*7A
$GPGGA,184816.750,4308.3064,N,07726.2646,W,1,05,1.94,160.4,M,-34.4,M,,*56
$GPRMC,184817.000,A,4308.3064,N,07726.2646,W,0.02,123.88,190721,,,A*7D
$GPGGA,184817.250,4308.3064,N,07726.2646,W,1,05,1.94,160.4,M,-34.4,M,,*52
$GPRMC,184817.500,A,4308.3064,N,07726.2646,W,0.06,33.02,190721,,,A*4E
$GPGGA,184817.750,4308.3064,N,07726.2646,W,1,05,1.94,160.4,M,-34.4,M,,*57
$GPRMC,184818.000,A,4308.3064,N,07726.2646,W,0.04,50.26,190721,,,A*45
$GPGGA,184818.250,4308.3064,N,07726.2646,W,1,05,1.94,160.4,M,-34.4,M,,*5D
$GPRMC,184818.500,A,4308.3064,N,07726.2646,W,0.02,84.86,190721,,,A*45
$GPGGA,184818.750,4308.3064,N,07726.2646,W,1,05,1.94,160.4,M,-34.4,M,,*58
$GPRMC,184819.000,A,4308.3064,N,07726.2646,W,0.01,358.91,190721,,,A*76
$GPGGA,184819.250,4308.3064,N,07726.2646,W,1,05,2.06,160.4,M,-34.4,M,,*54
$GPRMC,184819.500,A,4308.3064,N,07726.2646,W,0.03,27.84,190721,,,A*4E
$GPGGA,184819.750,4308.3064,N,07726.2646,W,1,05,1.95,160.4,M,-34.4,M,,*58
$GPRMC,184820.000,A,4308.3064,N,07726.2646,W,0.04,217.40,190721,,,A*7F
$GPGGA,184820.250,4308.3064,N,07726.2646,W,1,05,1.94,160.4,M,-34.4,M,,*56
$GPRMC,184820.500,A,4308.3064,N,07726.2646,W,0.05,199.89,190721,,,A*7B
$GPGGA,184820.750,4308.3064,N,07726.2646,W,1,05,1.94,160.4,M,-34.4,M,,*53
$GPRMC,184821.000,A,4308.3064,N,07726.2646,W,0.01,255.70,190721,,,A*7E
$GPGGA,184821.250,4308.3064,N,07726.2646,W,1,05,1.95,160.4,M,-34.4,M,,*56
$GPRMC,184821.500,A,4308.3064,N,07726.2646,W,0.01,124.36,190721,,,A*7C
$GPGGA,184821.750,4308.3064,N,07726.2646,W,1,05,1.95,160.4,M,-34.4,M,,*53
$GPRMC,184822.000,A,4308.3064,N,07726.2646,W,0.02,195.94,190721,,,A*7B
$GPGGA,184822.250,4308.3064,N,07726.2646,W,1,05,1.95,160.4,M,-34.4,M,,*55
$GPRMC,184822.500,A,4308.3064,N,07726.2646,W,0.03,65.94,190721,,,A*41
$GPGGA,184822.750,4308.3064,N,07726.2646,W,1,05,1.95,160.4,M,-34.4,M,,*50
$GPRMC,184823.000,A,4308.3064,N,07726.2646,W,0.02,199.58,190721,,,A*76
$GPGGA,184823.250,4308.3064,N,07726.2646,W,1,05,1.95,160.4,M,-34.4,M,,*54
$GPRMC,184823.500,A,4308.3064,N,07726.2646,W,0.00,285.96,190721,,,A*7D
$GPGGA,184823.750,4308.3064,N,07726.2646,W,1,05,1.95,160.4,M,-34.4,M,,*51
$GPRMC,184824.000,A,4308.3064,N,07726.2646,W,0.01,248.83,190721,,,A*7B
$GPGGA,184824.250,4308.3064,N,07726.2646,W,1,05,1.95,160.4,M,-34.4,M,,*53
$GPRMC,184824.500,A,4308.3064,N,07726.2646,W,0.02,219.94,190721,,,A*7F
$GPGGA,184824.750,4308.3064,N,07726.2646,W,1,05,1.95,160.4,M,-34.4,M,,*56
$GPRMC,184825.000,A,4308.3064,N,07726.2646,W,0.02,176.72,190721,,,A*79
$GPGGA,184825.250,4308.3064,N,07726.2646,W,1,05,1.95,160.4,M,-34.4,M,,*52
$GPRMC,184825.500,A,4308.3064,N,07726.2646,W,0.02,117.15,190721,,,A*7A
$GPGGA,184825.750,4308.3064,N,07726.2646,W,1,05,1.95,160.4,M,-34.4,M,,*57
$GPRMC,184826.000,A,4308.3064,N,07726.2646,W,0.02,225.41,190721,,,A*7F
$GPGGA,184826.250,4308.3064,N,07726.2646,W,1,05,1.95,160.4,M,-34.4,M,,*51
$GPRMC,184826.500,A,4308.3064,N,07726.2646,W,0.02,199.76,190721,,,A*7A
$GPGGA,184826.750,4308.3064,N,07726.2646,W,1,05,1.95,160.4,M,-34.4,M,,*54
$GPRMC,184827.000,A,4308.3064,N,07726.2646,W,0.02,145.22,190721,,,A*7E
$GPGGA,184827.250,4308.3064,N,07726.2646,W,1,05,1.95,160.4,M,-34.4,M,,*50
$GPRMC,184827.500,A,4308.3064,N,07726.2646,W,0.03,75.95,190721,,,A*44
$GPGGA,184827.750,4308.3064,N,07726.2646,W,1,05,1.95,160.4,M,-34.4,M,,*55
$GPRMC,184828.000,A,4308.3064,N,07726.2646,W,0.02,234.63,190721,,,A*71
$GPGGA,184828.250,4308.3064,N,07726.2646,W,1,05,1.95,160.4,M,-34.4,M,,*5F
$GPRMC,184828.500,A,4308.3064,N,07726.2646,W,0.05,45.10,190721,,,A*43
$GPGGA,184828.750,4308.3064,N,07726.2646,W,1,05,1.95,160.4,M,-34.4,M,,*5A
$GPRMC,184829.000,A,4308.3064,N,07726.2646,W,0.03,74.37,190721,,,A*46
$GPGGA,184829.250,4308.3064,N,07726.2646,W,1,05,1.95,160.4,M,-34.4,M,,*5E
$GPRMC,184829.500,A,4308.3064,N,07726.2646,W,0.00,205.89,190721,,,A*71
$GPGGA,184829.750,4308.3064,N,07726.2646,W,1,05,1.95,160.4,M,-34.4,M,,*5B
$GPRMC,184830.000,A,4308.3064,N,07726.2646,W,0.03,251.72,190721,,,A*7A
$GPGGA,184830.250,4308.3064,N,07726.2646,W,1,05,1.95,160.4,M,-34.4,M,,*56
$GPRMC,184830.500,A,4308.3064,N,07726.2646,W,0.01,251.37,190721,,,A*7C
$GPGGA,184830.750,4308.3064,N,07726.2646,W,1,05,1.95,160.4,M,-34.4,M,,*53
$GPRMC,184831.000,A,4308.3064,N,07726.2646,W,0.02,106.85,190721,,,A*73
$GPGGA,184831.250,4308.3064,N,07726.2646,W,1,05,1.95,160.4,M,-34.4,M,,*57
$GPRMC,184831.500,A,4308.3064,N,07726.2646,W,0.04,155.38,190721,,,A*70
$GPGGA,184831.750,4308.3064,N,07726.2645,W,1,05,1.95,160.4,M,-34.4,M,,*51
$GPRMC,184832.000,A,4308.3064,N,07726.2645,W,0.03,64.86,190721,,,A*44
$GPGGA,184832.250,4308.3064,N,07726.2645,W,1,05,1.95,160.4,M,-34.4,M,,*57
$GPRMC,184832.500,A,4308.3064,N,07726.2645,W,0.04,156.67,190721,,,A*79
$GPGGA,184832.750,4308.3064,N,07726.2645,W,1,05,1.95,160.4,M,-34.4,M,,*52
$GPRMC,184833.000,A,4308.3064,N,07726.2646,W,0.04,184.58,190721,,,A*7D
$GPGGA,184833.250,4308.3064,N,07726.2646,W,1,05,1.95,160.4,M,-34.4,M,,*55
$GPRMC,184833.500,A,4308.3064,N,07726.2645,W,0.03,354.00,190721,,,A*7E
$GPGGA,184833.750,4308.3064,N,07726.2646,W,1,05,2.07,160.4,M,-34.4,M,,*58
$GPRMC,184834.000,A,4308.3064,N,07726.2645,W,0.03,208.86,190721,,,A*7A
$GPGGA,184834.250,4308.3064,N,07726.2645,W,1,05,1.95,160.4,M,-34.4,M,,*51
$GPRMC,184834.500,A,4308.3064,N,07726.2645,W,0.02,248.45,190721,,,A*75
$GPGGA,184834.750,4308.3064,N,07726.2645,W,1,05,1.95,160.4,M,-34.4,M,,*54
$GPRMC,184835.000,A,4308.3064,N,07726.2645,W,0.01,86.93,190721,,,A*49
$GPGGA,184835.250,4308.3064,N,07726.2645,W,1,05,1.95,160.4,M,-34.4,M,,*50
$GPRMC,184835.500,A,4308.3064,N,07726.2645,W,0.00,259.20,190721,,,A*75
$GPGGA,184835.750,4308.3064,N,07726.2645,W,1,05,1.95,160.4,M,-34.4,M,,*55
$GPRMC,184836.000,A,4308.3064,N,07726.2645,W,0.03,12.91,190721,,,A*47
$GPGGA,184836.250,4308.3064,N,07726.2645,W,1,05,2.07,160.4,M,-34.4,M,,*5B
$GPRMC,184836.500,A,4308.3064,N,07726.2645,W,0.03,25.87,190721,,,A*41
$GPGGA,184836.750,4308.3064,N,07726.2645,W,1,05,1.95,160.4,M,-34.4,M,,*56
$GPRMC,184837.000,A,4308.3064,N,07726.2645,W,0.04,156.66,190721,,,A*78
$GPGGA,184837.250,4308.3064,N,07726.2645,W,1,05,1.95,160.4,M,-34.4,M,,*52
$GPRMC,184837.500,A,4308.3064,N,07726.2645,W,0.01,256.92,190721,,,A*70
$GPGGA,184837.750,4308.3064,N,07726.2645,W,1,05,1.95,160.4,M,-34.4,M,,*57
$GPRMC,184838.000,A,4308.3064,N,07726.2645,W,0.04,30.26,190721,,,A*42
$GPGGA,184838.250,4308.3064,N,07726.2645,W,1,05,1.95,160.4,M,-34.4,M,,*5D
$GPRMC,184838.500,A,4308.3064,N,07726.2645,W,0.05,69.81,190721,,,A*47
$GPGGA,184838.750,4308.3064,N,07726.2645,W,1,05,1.95,160.4,M,-34.4,M,,*58
$GPRMC,184839.000,A,4308.3064,N,07726.2645,W,0.06,200.77,190721,,,A*74
$GPGGA,184839.250,4308.3064,N,07726.2645,W,1,05,1.95,160.4,M,-34.4,M,,*5C
$GPRMC,184839.500,A,4308.3064,N,07726.2645,W,0.08,214.80,190721,,,A*72
$GPGGA,184839.750,4308.3064,N,07726.2645,W,1,05,1.95,160.4,M,-34.4,M,,*59
$GPRMC,184840.000,A,4308.3064,N,07726.2645,W,0.02,21.31,190721,,,A*4D
$GPGGA,184840.250,4308.3064,N,07726.2645,W,1,05,1.95,160.4,M,-34.4,M,,*52
$GPRMC,184840.500,A,4308.3064,N,07726.2645,W,0.02,283.31,190721,,,A*72
$GPGGA,184840.750,4308.3064,N,07726.2645,W,1,05,1.95,160.4,M,-34.4,M,,*57
$GPRMC,184841.000,A,4308.3064,N,07726.2645,W,0.02,123.61,190721,,,A*7A
$GPGGA,184841.250,4308.3064,N,07726.2645,W,1,05,1.95,160.4,M,-34.4,M,,*53
$GPRMC,184841.500,A,4308.3064,N,07726.2645,W,0.02,44.95,190721,,,A*44
$GPGGA,184841.750,4308.3064,N,07726.2645,W,1,05,1.95,160.4,M,-34.4,M,,*56
$GPRMC,184842.000,A,4308.3064,N,07726.2645,W,0.05,58.53,190721,,,A*42
$GPGGA,184842.250,4308.3064,N,07726.2645,W,1,05,1.95,160.4,M,-34.4,M,,*50
$GPRMC,184842.500,A,4308.3064,N,07726.2645,W,0.04,327.22,190721,,,A*7B
$GPGGA,184842.750,4308.3064,N,07726.2645,W,1,05,1.95,160.4,M,-34.4,M,,*55
$GPRMC,184843.000,A,4308.3064,N,07726.2645,W,0.03,22.62,190721,,,A*4A
$GPGGA,184843.250,4308.3064,N,07726.2645,W,1,05,1.95,160.4,M,-34.4,M,,*51
$GPRMC,184843.500,A,4308.3064,N,07726.2645,W,0.03,190.71,190721,,,A*75
$GPGGA,184843.750,4308.3064,N,07726.2645,W,1,05,1.95,160.4,M,-34.4,M,,*54
$GPRMC,184844.000,A,4308.3064,N,07726.2645,W,0.03,157.28,190721,,,A*70
$GPGGA,184844.250,4308.3064,N,07726.2645,W,1,05,1.96,160.4,M,-34.4,M,,*55
$GPRMC,184844.500,A,4308.3064,N,07726.2645,W,0.04,196.52,190721,,,A*72
$GPGGA,184844.750,4308.3064,N,07726.2645,W,1,05,1.95,160.4,M,-34.4,M,,*53
$GPRMC,184845.000,A,4308.3064,N,07726.2645,W,0.03,184.45,190721,,,A*74
$GPGGA,184845.250,4308.3064,N,07726.2645,W,1,05,1.96,160.4,M,-34.4,M,,*54
$GPRMC,184845.500,A,4308.3064,N,07726.2645,W,0.04,151.96,190721,,,A*70
$GPGGA,184845.750,4308.3064,N,07726.2645,W,1,05,1.96,160.4,M,-34.4,M,,*51
$GPRMC,184846.000,A,4308.3064,N,07726.2645,W,0.07,153.29,190721,,,A*73
$GPGGA,184846.250,4308.3064,N,07726.2645,W,1,05,1.96,160.4,M,-34.4,M,,*57
$GPRMC,184846.500,A,4308.3064,N,07726.2645,W,0.14,136.64,190721,,,A*7E
$GPGGA,184846.750,4308.3064,N,07726.2645,W,1,05,1.95,160.4,M,-34.4,M,,*51
$GPRMC,184847.000,A,4308.3064,N,07726.2645,W,0.11,158.70,190721,,,A*72
$GPGGA,184847.250,4308.3064,N,07726.2645,W,1,05,1.96,160.4,M,-34.4,M,,*56
$GPRMC,184847.500,A,4308.3064,N,07726.2645,W,0.11,137.25,190721,,,A*7E
$GPGGA,184847.750,4308.3064,N,07726.2645,W,1,05,1.96,160.4,M,-34.4,M,,*53
$GPRMC,184848.000,A,4308.3063,N,07726.2645,W,0.14,137.85,190721,,,A*7C
$GPGGA,184848.250,4308.3063,N,07726.2645,W,1,05,1.96,160.4,M,-34.4,M,,*5E
$GPRMC,184848.500,A,4308.3063,N,07726.2645,W,0.13,132.55,190721,,,A*76
$GPGGA,184848.750,4308.3063,N,07726.2644,W,1,05,1.96,160.4,M,-34.4,M,,*5A
$GPRMC,184849.000,A,4308.3063,N,07726.2644,W,0.11,144.96,190721,,,A*7F
$GPGGA,184849.250,4308.3063,N,07726.2644,W,1,05,1.96,160.4,M,-34.4,M,,*5E
$GPRMC,184849.500,A,4308.3063,N,07726.2644,W,0.06,118.16,190721,,,A*7D
$GPGGA,184849.750,4308.3063,N,07726.2644,W,1,05,1.96,160.4,M,-34.4,M,,*5B
$GPRMC,184850.000,A,4308.3063,N,07726.2644,W,0.05,113.63,190721,,,A*7A
$GPGGA,184850.250,4308.3063,N,07726.2644,W,1,05,1.96,160.4,M,-34.4,M,,*56
$GPRMC,184850.500,A,4308.3063,N,07726.2644,W,0.02,154.78,190721,,,A*71
$GPGGA,184850.750,4308.3063,N,07726.2644,W,1,05,1.96,160.4,M,-34.4,M,,*53
$GPRMC,184851.000,A,4308.3063,N,07726.2644,W,0.02,188.12,190721,,,A*78
$GPGGA,184851.250,4308.3063,N,07726.2644,W,1,05,1.96,160.4,M,-34.4,M,,*57
$GPRMC,184851.500,A,4308.3063,N,07726.2644,W,0.04,174.24,190721,,,A*7D
$GPGGA,184851.750,4308.3063,N,07726.2644,W,1,05,1.96,160.4,M,-34.4,M,,*52
$GPRMC,184852.000,A,4308.3063,N,07726.2644,W,0.04,35.13,190721,,,A*4B
$GPGGA,184852.250,4308.3063,N,07726.2644,W,1,05,1.96,160.4,M,-34.4,M,,*54
$GPRMC,184852.500,A,4308.3063,N,07726.2644,W,0.04,59.61,190721,,,A*41
$GPGGA,184852.750,4308.3063,N,07726.2644,W,1,05,1.96,160.4,M,-34.4,M,,*51
$GPRMC,184853.000,A,4308.3063,N,07726.2644,W,0.03,231.89,190721,,,A*78
$GPGGA,184853.250,4308.3063,N,07726.2644,W,1,05,1.96,160.4,M,-34.4,M,,*55
$GPRMC,184853.500,A,4308.3063,N,07726.2644,W,0.01,262.03,190721,,,A*7B
$GPGGA,184853.750,4308.3063,N,07726.2644,W,1,05,1.96,160.4,M,-34.4,M,,*50
$GPRMC,184854.000,A,4308.3063,N,07726.2644,W,0.02,100.11,190721,,,A*7E
$GPGGA,184854.250,4308.3063,N,07726.2644,W,1,05,1.96,160.4,M,-34.4,M,,*52
$GPRMC,184854.500,A,4308.3063,N,07726.2644,W,0.06,40.28,190721,,,A*40
$GPGGA,184854.750,4308.3063,N,07726.2644,W,1,05,1.96,160.4,M,-34.4,M,,*57
$GPRMC,184855.000,A,4308.3063,N,07726.2644,W,0.01,140.02,190721,,,A*7A
$GPGGA,184855.250,4308.3063,N,07726.2644,W,1,05,1.96,160.4,M,-34.4,M,,*53
$GPRMC,184855.500,A,4308.3063,N,07726.2644,W,0.04,212.18,190721,,,A*75
$GPGGA,184855.750,4308.3063,N,07726.2644,W,1,05,1.96,160.4,M,-34.4,M,,*56
$GPRMC,184856.000,A,4308.3063,N,07726.2644,W,0.04,179.49,190721,,,A*79
$GPGGA,184856.250,4308.3063,N,07726.2644,W,1,05,1.96,160.4,M,-34.4,M,,*50
$GPRMC,184856.500,A,4308.3063,N,07726.2644,W,0.04,211.05,190721,,,A*79
$GPGGA,184856.750,4308.3063,N,07726.2644,W,1,05,1.96,160.4,M,-34.4,M,,*55
$GPRMC,184857.000,A,4308.3063,N,07726.2644,W,0.06,238.28,190721,,,A*7B
$GPGGA,184857.250,4308.3063,N,07726.2644,W,1,05,1.96,160.4,M,-34.4,M,,*51
$GPRMC,184857.500,A,4308.3063,N,07726.2644,W,0.07,233.09,190721,,,A*77
$GPGGA,184857.750,4308.3063,N,07726.2644,W,1,05,1.96,160.4,M,-34.4,M,,*54
$GPRMC,184858.000,A,4308.3063,N,07726.2644,W,0.04,253.21,190721,,,A*72
$GPGGA,184858.250,4308.3063,N,07726.2644,W,1,05,1.96,160.4,M,-34.4,M,,*5E
$GPRMC,184858.500,A,4308.3063,N,07726.2644,W,0.09,259.33,190721,,,A*73
$GPGGA,184858.750,4308.3063,N,07726.2644,W,1,05,1.96,160.4,M,-34.4,M,,*5B
$GPRMC,184859.000,A,4308.3063,N,07726.2644,W,0.06,228.42,190721,,,A*78
$GPGGA,184859.250,4308.3063,N,07726.2644,W,1,05,1.96,160.4,M,-34.4,M,,*5F
$GPRMC,184859.500,A,4308.3063,N,07726.2645,W,0.07,152.62,190721,,,A*71
$GPGGA,184859.750,4308.3063,N,07726.2644,W,1,05,1.96,160.4,M,-34.4,M,,*5A
$GPRMC,184900.000,A,4308.3063,N,07726.2644,W,0.10,57.42,190721,,,A*48
$GPGGA,184900.250,4308.3063,N,07726.2644,W,1,05,1.96,160.4,M,-34.4,M,,*52
$GPRMC,184900.500,A,4308.3063,N,07726.2644,W,0.05,45.05,190721,,,A*49
$GPGGA,184900.750,4308.3063,N,07726.2644,W,1,05,1.96,160.4,M,-34.4,M,,*57
$GPRMC,184901.000,A,4308.3063,N,07726.2644,W,0.09,67.06,190721,,,A*42
$GPGGA,184901.250,4308.3063,N,07726.2644,W,1,05,1.96,160.4,M,-34.4,M,,*53
$GPRMC,184901.500,A,4308.3063,N,07726.2644,W,0.05,64.65,190721,,,A*4D
$GPGGA,184901.750,4308.3063,N,07726.2644,W,1,05,1.96,160.4,M,-34.4,M,,*56
$GPRMC,184902.000,A,4308.3063,N,07726.2644,W,0.04,55.70,190721,,,A*4C
$GPGGA,184902.250,4308.3063,N,07726.2644,W,1,05,1.96,160.4,M,-34.4,M,,*50
$GPRMC,184902.500,A,4308.3063,N,07726.2644,W,0.03,345.31,190721,,,A*79
$GPGGA,184902.750,4308.3063,N,07726.2644,W,1,05,2.08,160.4,M,-34.4,M,,*51
$GPRMC,184903.000,A,4308.3063,N,07726.2644,W,0.03,238.87,190721,,,A*7B
$GPGGA,184903.250,4308.3063,N,07726.2644,W,1,05,1.96,160.4,M,-34.4,M,,*51
$GPRMC,184903.500,A,4308.3063,N,07726.2644,W,0.06,31.70,190721,,,A*48
$GPGGA,184903.750,4308.3063,N,07726.2644,W,1,05,1.96,160.4,M,-34.4,M,,*54
$GPRMC,184904.000,A,4308.3063,N,07726.2644,W,0.06,35.31,190721,,,A*4B
$GPGGA,184904.250,4308.3063,N,07726.2644,W,1,05,1.96,160.4,M,-34.4,M,,*56
$GPRMC,184904.500,A,4308.3063,N,07726.2644,W,0.05,37.83,190721,,,A*46
$GPGGA,184904.750,4308.3063,N,07726.2644,W,1,05,1.96,160.4,M,-34.4,M,,*53
$GPRMC,184905.000,A,4308.3063,N,07726.2644,W,0.00,69.74,190721,,,A*44
$GPGGA,184905.250,4308.3063,N,07726.2644,W,1,05,1.96,160.4,M,-34.4,M,,*57
$GPRMC,184905.500,A,4308.3063,N,07726.2644,W,0.03,29.41,190721,,,A*40
$GPGGA,184905.750,4308.3063,N,07726.2644,W,1,05,1.96,160.4,M,-34.4,M,,*52
$GPRMC,184906.000,A,4308.3063,N,07726.2644,W,0.01,357.05,190721,,,A*7E
$GPGGA,184906.250,4308.3063,N,07726.2644,W,1,05,2.08,160.4,M,-34.4,M,,*50
$GPRMC,184906.500,A,4308.3063,N,07726.2644,W,0.02,355.67,190721,,,A*7E
$GPGGA,184906.750,4308.3063,N,07726.2644,W,1,05,2.08,160.4,M,-34.4,M,,*55
$GPRMC,184907.000,A,4308.3063,N,07726.2644,W,0.01,347.37,190721,,,A*7F
$GPGGA,184907.250,4308.3063,N,07726.2644,W,1,05,2.08,160.4,M,-34.4,M,,*51
$GPRMC,184907.500,A,4308.3063,N,07726.2644,W,0.06,62.49,190721,,,A*40
$GPGGA,184907.750,4308.3063,N,07726.2644,W,1,05,1.96,160.4,M,-34.4,M,,*50
$GPRMC,184908.000,A,4308.3063,N,07726.2644,W,0.03,7.39,190721,,,A*7B
$GPGGA,184908.250,4308.3063,N,07726.2644,W,1,05,2.08,160.4,M,-34.4,M,,*5E
$GPRMC,184908.500,A,4308.3063,N,07726.2644,W,0.02,186.68,190721,,,D*76
$GPGGA,184908.750,4308.3064,N,07726.2644,W,2,05,1.96,160.4,M,-34.4,M,0000,0000*5B
$GPRMC,184909.000,A,4308.3064,N,07726.2644,W,0.02,58.59,190721,,,D*45
$GPGGA,184909.250,4308.3064,N,07726.2644,W,2,05,1.96,160.4,M,-34.4,M,0000,0000*5F
$GPRMC,184909.500,A,4308.3064,N,07726.2644,W,0.02,59.10,190721,,,D*4C
$GPGGA,184909.750,4308.3064,N,07726.2644,W,2,05,1.96,160.4,M,-34.4,M,0000,0000*5A
$GPRMC,184910.000,A,4308.3064,N,07726.2644,W,0.01,253.17,190721,,,D*7D
$GPGGA,184910.250,4308.3065,N,07726.2645,W,2,05,1.97,160.4,M,-34.4,M,0000,0000*56
$GPRMC,184910.500,A,4308.3065,N,07726.2645,W,0.04,11.06,190721,,,D*49
$GPGGA,184910.750,4308.3065,N,07726.2645,W,2,05,2.08,160.4,M,-34.4,M,0000,0000*56
$GPRMC,184911.000,A,4308.3065,N,07726.2645,W,0.07,347.74,190721,,,D*7B
$GPGGA,184911.250,4308.3066,N,07726.2645,W,2,05,2.08,160.4,M,-34.4,M,0000,0000*51
$GPRMC,184911.500,A,4308.3066,N,07726.2645,W,0.08,0.11,190721,,,D*71
$GPGGA,184911.750,4308.3066,N,07726.2645,W,2,05,2.08,160.4,M,-34.4,M,0000,0000*54
$GPRMC,184912.000,A,4308.3066,N,07726.2645,W,0.04,39.35,190721,,,D*47
$GPGGA,184912.250,4308.3066,N,07726.2645,W,2,05,1.97,160.4,M,-34.4,M,0000,0000*57
$GPRMC,184912.500,A,4308.3066,N,07726.2645,W,0.03,58.01,190721,,,D*45
$GPGGA,184912.750,4308.3067,N,07726.2645,W,2,05,1.97,160.3,M,-34.4,M,0000,0000*54
$GPRMC,184913.000,A,4308.3067,N,07726.2645,W,0.04,12.23,190721,,,D*49
$GPGGA,184913.250,4308.3067,N,07726.2645,W,2,05,2.08,160.3,M,-34.4,M,0000,0000*55
$GPRMC,184913.500,A,4308.3067,N,07726.2645,W,0.03,35.13,190721,,,D*4D
$GPGGA,184913.750,4308.3067,N,07726.2645,W,2,05,1.97,160.2,M,-34.4,M,0000,0000*54
$GPRMC,184914.000,A,4308.3067,N,07726.2645,W,0.02,44.21,190721,,,D*49
$GPGGA,184914.250,4308.3067,N,07726.2645,W,2,05,1.97,160.2,M,-34.4,M,0000,0000*56
$GPRMC,184914.500,A,4308.3067,N,07726.2645,W,0.04,77.67,190721,,,D*48
$GPGGA,184914.750,4308.3067,N,07726.2645,W,2,05,1.97,160.1,M,-34.4,M,0000,0000*50
$GPRMC,184915.000,A,4308.3067,N,07726.2645,W,0.03,335.32,190721,,,D*7E
$GPGGA,184915.250,4308.3067,N,07726.2645,W,2,05,1.97,160.0,M,-34.4,M,0000,0000*55
$GPRMC,184915.500,A,4308.3067,N,07726.2645,W,0.00,353.71,190721,,,D*7F
$GPGGA,184915.750,4308.3067,N,07726.2645,W,2,05,2.08,160.0,M,-34.4,M,0000,0000*55
$GPRMC,184916.000,A,4308.3067,N,07726.2646,W,0.03,44.02,190721,,,D*48
$GPGGA,184916.250,4308.3067,N,07726.2646,W,2,05,1.97,159.9,M,-34.4,M,0000,0000*56
$GPRMC,184916.500,A,4308.3067,N,07726.2646,W,0.03,166.56,190721,,,D*7D
$GPGGA,184916.750,4308.3067,N,07726.2646,W,2,05,1.97,159.9,M,-34.4,M,0000,0000*53
$GPRMC,184917.000,A,4308.3067,N,07726.2646,W,0.07,135.46,190721,,,D*7A
$GPGGA,184917.250,4308.3067,N,07726.2646,W,2,05,1.97,159.8,M,-34.4,M,0000,0000*56
$GPRMC,184917.500,A,4308.3066,N,07726.2646,W,0.06,141.30,190721,,,D*7D
$GPGGA,184917.750,4308.3066,N,07726.2646,W,2,05,1.97,159.7,M,-34.4,M,0000,0000*5D
$GPRMC,184918.000,A,4308.3066,N,07726.2646,W,0.08,169.74,190721,,,D*73
$GPGGA,184918.250,4308.3066,N,07726.2647,W,2,05,1.97,159.6,M,-34.4,M,0000,0000*57
$GPRMC,184918.500,A,4308.3066,N,07726.2647,W,0.10,181.83,190721,,,D*70
$GPGGA,184918.750,4308.3066,N,07726.2647,W,2,05,1.97,159.5,M,-34.4,M,0000,0000*51
$GPRMC,184919.000,A,4308.3066,N,07726.2647,W,0.09,180.39,190721,,,D*7C
$GPGGA,184919.250,4308.3065,N,07726.2647,W,2,05,1.97,159.5,M,-34.4,M,0000,0000*56
$GPRMC,184919.500,A,4308.3065,N,07726.2647,W,0.09,177.24,190721,,,D*7E
$GPGGA,184919.750,4308.3065,N,07726.2647,W,2,05,1.97,159.4,M,-34.4,M,0000,0000*52
$GPRMC,184920.000,A,4308.3065,N,07726.2647,W,0.09,157.08,190721,,,D*7D
$GPGGA,184920.250,4308.3065,N,07726.2647,W,2,05,1.97,159.3,M,-34.4,M,0000,0000*5A
$GPRMC,184920.500,A,4308.3065,N,07726.2647,W,0.02,163.06,190721,,,D*7A
$GPGGA,184920.750,4308.3065,N,07726.2647,W,2,05,1.97,159.3,M,-34.4,M,0000,0000*5F
$GPRMC,184921.000,A,4308.3065,N,07726.2647,W,0.03,175.75,190721,,,D*7C
$GPGGA,184921.250,4308.3065,N,07726.2647,W,2,05,1.97,159.2,M,-34.4,M,0000,0000*5A
$GPRMC,184921.500,A,4308.3065,N,07726.2647,W,0.01,123.04,190721,,,D*7E
$GPGGA,184921.750,4308.3065,N,07726.2647,W,2,05,1.97,159.2,M,-34.4,M,0000,0000*5F
$GPRMC,184922.000,A,4308.3065,N,07726.2647,W,0.02,159.78,190721,,,D*7D
$GPGGA,184922.250,4308.3065,N,07726.2647,W,2,05,1.97,159.2,M,-34.4,M,0000,0000*59
$GPRMC,184922.500,A,4308.3065,N,07726.2647,W,0.00,1.26,190721,,,D*7D
$GPGGA,184922.750,4308.3065,N,07726.2647,W,2,05,1.97,159.1,M,-34.4,M,0000,0000*5F
$GPRMC,184923.000,A,4308.3065,N,07726.2647,W,0.01,22.18,190721,,,D*44
$GPGGA,184923.250,4308.3065,N,07726.2647,W,2,05,1.97,159.1,M,-34.4,M,0000,0000*5B
$GPRMC,184923.500,A,4308.3065,N,07726.2647,W,0.01,353.94,190721,,,D*70
$GPGGA,184923.750,4308.3066,N,07726.2647,W,2,05,1.97,159.1,M,-34.4,M,0000,0000*5D
$GPRMC,184924.000,A,4308.3066,N,07726.2647,W,0.01,337.16,190721,,,D*79
$GPGGA,184924.250,4308.3066,N,07726.2647,W,2,05,1.97,159.1,M,-34.4,M,0000,0000*5F
$GPRMC,184924.500,A,4308.3066,N,07726.2648,W,0.00,340.56,190721,,,D*76
$GPGGA,184924.750,4308.3066,N,07726.2648,W,2,05,1.97,159.1,M,-34.4,M,0000,0000*55
$GPRMC,184925.000,A,4308.3066,N,07726.2648,W,0.01,13.88,190721,,,D*45
$GPGGA,184925.250,4308.3067,N,07726.2648,W,2,05,1.97,159.1,M,-34.4,M,0000,0000*50
$GPRMC,184925.500,A,4308.3067,N,07726.2648,W,0.00,349.79,190721,,,D*72
$GPGGA,184925.750,4308.3067,N,07726.2648,W,2,05,1.97,159.1,M,-34.4,M,0000,0000*55
$GPRMC,184926.000,A,4308.3067,N,07726.2648,W,0.01,359.01,190721,,,D*7B
$GPGGA,184926.250,4308.3067,N,07726.2648,W,2,05,1.97,159.0,M,-34.4,M,0000,0000*52
$GPRMC,184926.500,A,4308.3068,N,07726.2648,W,0.01,346.39,190721,,,D*74
$GPGGA,184926.750,4308.3068,N,07726.2648,W,2,05,1.97,159.0,M,-34.4,M,0000,0000*58
$GPRMC,184927.000,A,4308.3068,N,07726.2648,W,0.00,202.73,190721,,,D*7E
$GPGGA,184927.250,4308.3068,N,07726.2648,W,2,05,1.97,159.0,M,-34.4,M,0000,0000*5C
$GPRMC,184927.500,A,4308.3068,N,07726.2648,W,0.01,342.90,190721,,,D*72
$GPGGA,184927.750,4308.3069,N,07726.2648,W,2,05,1.97,159.0,M,-34.4,M,0000,0000*58
$GPRMC,184928.000,A,4308.3069,N,07726.2648,W,0.01,59.00,190721,,,D*49
$GPGGA,184928.250,4308.3069,N,07726.2648,W,2,05,1.97,159.0,M,-34.4,M,0000,0000*52
$GPRMC,184928.500,A,4308.3069,N,07726.2648,W,0.00,186.77,190721,,,D*7E
$GPGGA,184928.750,4308.3069,N,07726.2648,W,2,05,1.97,159.0,M,-34.4,M,0000,0000*57
$GPRMC,184929.000,A,4308.3069,N,07726.2649,W,0.01,168.69,190721,,,D*75
$GPGGA,184929.250,4308.3069,N,07726.2649,W,2,05,1.97,159.0,M,-34.4,M,0000,0000*52
