Vers 81
USE_SERIAL_FEEDBACK=true
DEVELOPMENT_MODE=false
USE_RMC_ONLY=false

$GPGGA,185807.250,4306.0556,N,07726.0120,W,1,03,2.82,184.3,M,-34.3,M,,*56
$GPRMC,185807.250,A,4306.0556,N,07726.0120,W,0.45,251.62,170721,,,A*79
$GPGGA,185807.500,4306.0556,N,07726.0119,W,1,03,2.82,184.3,M,-34.3,M,,*5E
$GPRMC,185807.500,A,4306.0556,N,07726.0119,W,0.42,247.86,170721,,A*7B
$GPGGA,185807.750,4306.0556,N,07726.0120,W,1,03,2.82,184.3,M,-34.3,M,,*53
$GPRMC,185807.750,A,4306.0556,N,07726.0120,W,0.43,248.04,170721,,A*72
$GPGGA,185808.000,4306.0556,N,07726.0119,W,1,03,2.82,184.3,M,-34.3,M,,*54
$GPRMC,185808.000,A,4306.0556,N,07726.0119,W,0.40,246.13,170721306.0556,N,07726.0118,W,1,03,2.82,184.3,M,-34.3,M,,*5B
$GPGGA,185808.500,4306.0557,N,07726.0118,W,1,03,2.82,184.3,M,-34.3,M,,*51
$GPRMC,185808.500,A,4306.0557,N,07726.0118,W,0.43,239.92,170721,,A*79
$GPGGA,185808.750,4306.0557,N,07726.0118,W,1,03,2.82,184.3,M,-34.3,M,,*56
$GPRMC,185808.750,A,4306.0557,N,07726.0118,W,0.43,237.86,170721,,A*75
$GPGGA,185809.000,4306.0557,N,07726.0118,W,1,03,2.82,184.3,M,-34.3,M,,*55
$GPRMC,185809.000,A,4306.0557,N,07726.0118,W,0.41,241.78,170721$GPGGA,185809.250,4306.0557,N,07726.0118,W,1,03,2.82,184.3,M,-34.3,M,,*52
$GPRMC,185809.500,A,4306.0557,N,07726.0118,W,0.41,247.14,170721,,,A*7D
$GPGGA,185809.750,4306.0557,N,07726.0118,W,1,03,2.82,184.3,M,-34.3,M,,*57
$GPRMC,185810.000,A,4306.0557,N,07726.0118,W,0.40,254.50,170721,,,A*73
$GPGGA,185810.250,4306.0558,N,07726.0117,W,1,03,2.82,184.3,M,-34.3,M,,*5A
$GPRMC,185810.500,A,4306.0558,N,07726.0117,W,0.34,248.12,170721,,,A*7E
$GPGGA,185810.750,4306.0558,N,07726.0117,W,1,03,2.82,184.3,M,-34.3,M,,*5F
$GPRMC,185811.000,A,4306.0558,N,07726.0117,W,0.39,247.37,170721,,,A*7F
$GPGGA,185811.250,4306.0557,N,07726.0117,W,1,03,2.82,184.3,M,-34.3,M,,*54
$GPRMC,185811.500,A,4306.0557,N,07726.0117,W,0.37,235.06,170721,,,A*7C
$GPGGA,185811.750,4306.0557,N,07726.0118,W,1,03,2.82,184.3,M,-34.3,M,,*5E
$GPRMC,185812.000,A,4306.0556,N,07726.0118,W,0.36,229.18,170721,,,A*77
$GPGGA,185812.250,4306.0556,N,07726.0118,W,1,03,2.82,184.3,M,-34.3,M,,*59
$GPRMC,185812.500,A,4306.0556,N,07726.0118,W,0.29,230.07,170721,,,A*7A
$GPGGA,185812.750,4306.0556,N,07726.0118,W,1,03,2.82,184.3,M,-34.3,M,,*5C
$GPRMC,185813.000,A,4306.0556,N,07726.0119,W,0.26,241.28,170721,,,A*7B
$GPGGA,185813.250,4306.0555,N,07726.0119,W,1,03,2.82,184.3,M,-34.3,M,,*5A
$GPRMC,185813.500,A,4306.0555,N,07726.0118,W,0.23,197.53,170721,,,A*7D
$GPGGA,185813.750,4306.0554,N,07726.0119,W,1,03,2.82,184.3,M,-34.3,M,,*5E
$GPRMC,185814.000,A,4306.0553,N,07726.0119,W,0.23,199.57,170721,,,A*72
$GPGGA,185814.078,4306.0553,N,07726.0119,W,1,03,2.82,184.3,M,-378,A,4306.0553,N,07726.0119,W,0.20,187.24,170721,,,A*75
$GPRMC,185814.500,A,4306.0552,N,07726.0119,W,0.16,181.04,170721,,,A*7F
$GPGGA,185814.750,4306.0551,N,07726.0119,W,1,03,2.82,184.3,M,-34.3,M,,*5C
$GPRMC,185815.000,A,4306.0551,N,07726.0120,W,0.16,211.78,170721,,,A*73
$GPGGA,185815.250,4306.0550,N,07726.0121,W,1,03,2.82,184.3,M,-34.3,M,,*52
$GPRMC,185815.500,A,4306.0550,N,07726.0121,W,0.25,239.38,170721,,,A*78
$GPGGA,185815.750,4306.0549,N,07726.0120,W,1,03,2.82,184.3,M,-34.3,M,,*5E
$GPRMC,185816.000,A,4306.0549,N,07726.0119,W,0.20,207.81,170721,,,A*77
$GPGGA,185816.250,4306.0549,N,07726.0118,W,1,03,2.82,184.3,M,-34.3,M,,*53
$GPRMC,185816.500,A,4306.0548,N,07726.0118,W,0.22,189.32,170721,,,A*7D
$GPGGA,185816.750,4306.0548,N,07726.0118,W,1,03,2.82,184.3,M,-34.3,M,,*57
$GPRMC,185817.000,A,4306.0547,N,07726.0118,W,0.24,185.14,170721,,,A*78
$GPGGA,185817.250,4306.0547,N,07726.0117,W,1,03,2.82,184.3,M,-34.3,M,,*53
$GPRMC,185817.500,A,4306.0547,N,07726.0117,W,0.17,192.33,170721,,,A*71
$GPGGA,185817.750,4306.0546,N,07726.0118,W,1,03,2.82,184.3,M,-34.3,M,,*58
$GPRMC,185818.000,A,4306.0546,N,07726.0118,W,0.19,188.14,170721,,,A*75
$GPGGA,185818.250,4306.0545,N,07726.0118,W,1,03,2.82,184.3,M,-34.3,M,,*51
$GPRMC,185818.500,A,4306.0545,N,07726.0118,W,0.16,206.76,170721,,,A*7D
$GPGGA,185818.750,4306.0545,N,07726.0118,W,1,03,2.82,184.4,M,-34.3,M,,*53
$GPRMC,185819.000,A,4306.0545,N,07726.0119,W,0.16,204.17,170721,,,A*7D
$GPGGA,185819.250,4306.0544,N,07726.0120,W,1,03,2.82,184.4,M,-34.3,M,,*5D
$GPRMC,185819.500,A,4306.0545,N,07726.0121,W,0.20,245.82,170721,,,A*7F
$GPGGA,185819.750,4306.0544,N,07726.0122,W,1,03,2.82,184.4,M,-34.3,M,,*5A
$GPRMC,185820.000,A,4306.0544,N,07726.0122,W,0.24,249.57,170721,,,A*72
$GPGGA,185820.097,4306.0544,N,07726.0122,W,1,03,2.82,184.4,M,-3.3,M,,*5C
$GPRMC,185820.500,A,4306.0543,N,07726.0123,W,0.28,238.69,170721,,,A*76
$GPGGA,185820.750,4306.0542,N,07726.0124,W,1,03,2.82,184.4,M,-34.3,M,,*50
$GPRMC,185821.000,A,4306.0542,N,07726.0124,W,0.27,228.93,170721,,,A*7F
$GPGGA,185821.250,4306.0541,N,07726.0123,W,1,03,2.82,184.4,M,-34.3,M,,*50
$GPRMC,185821.500,A,4306.0541,N,07726.0123,W,0.26,214.39,170721,,,A*70
$GPGGA,185821.750,4306.0541,N,07726.0123,W,1,03,2.82,184.4,M,-34.3,M,,*55
$GPRMC,185822.000,A,4306.0540,N,07726.0124,W,0.26,218.61,170721,,,A*71
$GPGGA,185822.250,4306.0540,N,07726.0124,W,1,03,2.82,184.4,M,-34.3,M,,*55
$GPRMC,185822.500,A,4306.0540,N,07726.0124,W,0.26,216.85,170721,,,A*70
$GPGGA,185822.750,4306.0540,N,07726.0124,W,1,03,2.82,184.4,M,-34.3,M,,*50
$GPRMC,185823.000,A,4306.0540,N,07726.0124,W,0.25,210.18,170721,,,A*75
$GPGGA,185823.250,4306.0540,N,07726.0123,W,1,03,2.82,184.4,M,-34.3,M,,*53
$GPRMC,185823.500,A,4306.0540,N,07726.0123,W,0.23,195.12,170721,,,A*75
$GPGGA,185823.750,4306.0540,N,07726.0123,W,1,03,2.82,184.4,M,-34.3,M,,*56
$GPRMC,185824.000,A,4306.0540,N,07726.0123,W,0.22,200.66,170721,,,A*7A
$GPGGA,185824.250,4306.0540,N,07726.0122,W,1,03,2.82,184.4,M,-34.3,M,,*55
$GPRMC,185824.500,A,4306.0540,N,07726.0122,W,0.21,187.97,170721,,,A*7F
$GPGGA,185824.750,4306.0539,N,07726.0122,W,1,03,2.82,184.4,M,-34.3,M,,*5E
$GPRMC,185825.000,A,4306.0539,N,07726.0123,W,0.27,192.38,170721,,,A*73
$GPGGA,185825.250,4306.0538,N,07726.0123,W,1,03,2.82,184.4,M,-34.3,M,,*5A
$GPRMC,185825.500,A,4306.0538,N,07726.0123,W,0.30,200.62,170721,,,A*76
$GPGGA,185825.750,4306.0538,N,07726.0123,W,1,03,2.82,184.4,M,-34.3,M,,*5F
$GPRMC,185826.000,A,4306.0538,N,07726.0124,W,0.31,200.51,170721,,,A*76
$GPGGA,185826.082,4306.0539,N,07726.0123,W,1,03,2.82,184.4,M,-33,M,,*55
$GPGGA,185826.500,4306.0539,N,07726.0123,W,1,03,2.82,184.4,M,-34.3,M,,*5A
$GPRMC,185826.500,A,4306.0539,N,07726.0123,W,0.20,211.37,170721,,A*75
$GPGGA,185826.750,4306.0540,N,07726.0123,W,1,03,2.82,184.4,M,-34.3,M,,*53
$GPRMC,185826.750,A,4306.0540,N,07726.0123,W,0.18,205.93,170721,,A*7C
$GPGGA,185827.000,4306.0540,N,07726.0122,W,1,03,2.82,184.4,M,-34.3,M,,*51
$GPRMC,185827.000,A,4306.0540,N,07726.0122,W,0.16,198.15,170721,,,A*79
$GPGGA,185827.250,4306.0540,N,07726.0122,W,1,03,2.82,184.4,M,-34.3,M,,*56
$GPRMC,185827.250,A,4306.0540,N,07726.0122,W,0.16,192.51,170721$GPGGA,185827.500,4306.0540,N,07726.0122,W,1,03,2.82,184.4,M,-34.3,M,,*54
$GPRMC,185827.750,A,4306.0540,N,07726.0122,W,0.14,203.42,170721,,,A*7A
$GPGGA,185828.000,4306.0540,N,07726.0122,W,1,03,2.82,184.4,M,-34.3,M,,*5E
$GPRMC,185828.250,A,4306.0541,N,07726.0122,W,0.09,205.06,170721,,,A*7B
$GPGGA,185828.500,4306.0541,N,07726.0121,W,1,03,2.82,184.4,M,-34.3,M,,*59
$GPRMC,185828.750,A,4306.0541,N,07726.0121,W,0.11,162.72,170721,,,A*75
$GPGGA,185829.000,4306.0541,N,07726.0120,W,1,03,2.82,184.4,M,-34.3,M,,*5C
$GPRMC,185829.250,A,4306.0541,N,07726.0121,W,0.06,177.11,170721,,,A*76
$GPGGA,185829.500,4306.0541,N,07726.0122,W,1,03,2.82,184.4,M,-34.3,M,,*5B
$GPRMC,185829.750,A,4306.0541,N,07726.0122,W,0.07,241.98,170721,,,A*76
$GPGGA,185830.000,4306.0541,N,07726.0122,W,1,03,2.82,184.4,M,-34.3,M,,*56
$GPRMC,185830.250,A,4306.0541,N,07726.0122,W,0.07,253.07,170721,,,A*7E
$GPGGA,185830.500,4306.0542,N,07726.0121,W,1,03,2.82,184.4,M,-34.3,M,,*53
$GPRMC,185830.750,A,4306.0542,N,07726.0121,W,0.02,357.50,170721,,,A*79
$GPGGA,185831.000,4306.0543,N,07726.0120,W,1,03,46.27,184.4,M,-34.3,M,,*68
$GPRMC,185831.250,A,4306.0544,N,07726.0120,W,0.13,7.10,170721,,,A*78
$GPGGA,185831.500,4306.0545,N,07726.0119,W,1,03,46.27,184.4,M,-34.3,M,,*61
$GPRMC,185831.750,A,4306.0545,N,07726.0118,W,0.20,28.80,170721,,,A*43
$GPGGA,185832.000,4306.0545,N,07726.0118,W,1,03,2.82,184.4,M,-34.3,M,,*59
$GPGGA,185832.140,4306.0496,N,07725.9987,W,1,05,1.62,138.4,M,-34.3,M,,*5B
$GPRMC,185832.140,A,4306.0496,N,07725.9987,W,0.47,40.07,170721,$GPGGA,185832.500,4306.0496,N,07725.9988,W,1,05,1.62,138.5,M,-34.3,M,,*55
$GPRMC,185832.750,A,4306.0496,N,07725.9988,W,0.42,34.04,170721,,,A*41
$GPGGA,185833.000,4306.0495,N,07725.9988,W,1,05,1.62,138.6,M,-34.3,M,,*51
$GPRMC,185833.250,A,4306.0495,N,07725.9989,W,0.30,36.41,170721,,,A*41
$GPGGA,185833.500,4306.0494,N,07725.9990,W,1,05,1.62,138.8,M,-34.3,M,,*52
$GPRMC,185833.750,A,4306.0494,N,07725.9991,W,0.23,28.67,170721,,,A*45
$GPGGA,185834.000,4306.0494,N,07725.9991,W,1,05,1.62,139.0,M,-34.3,M,,*58
$GPRMC,185834.250,A,4306.0495,N,07725.9992,W,0.21,9.57,170721,,,A*77
$GPGGA,185834.500,4306.0494,N,07725.9993,W,1,05,1.79,139.3,M,-34.3,M,,*56
$GPRMC,185834.750,A,4306.0494,N,07725.9992,W,0.16,358.77,170721,,,A*72
$GPGGA,185835.000,4306.0495,N,07725.9992,W,1,05,1.79,139.6,M,-34.3,M,,*57
$GPRMC,185835.250,A,4306.0495,N,07725.9992,W,0.16,353.63,170721,,,A*79
$GPGGA,185835.500,4306.0496,N,07725.9992,W,1,05,1.79,139.8,M,-34.3,M,,*5F
$GPRMC,185835.750,A,4306.0496,N,07725.9992,W,0.17,353.56,170721,,,A*78
$GPGGA,185836.000,4306.0496,N,07725.9992,W,1,05,1.79,140.0,M,-34.3,M,,*5F
$GPRMC,185836.250,A,4306.0496,N,07725.9992,W,0.18,356.85,170721,,,A*7A
$GPGGA,185836.500,4306.0496,N,07725.9992,W,1,05,1.79,140.1,M,-34.3,M,,*5B
$GPRMC,185836.750,A,4306.0496,N,07725.9992,W,0.15,343.49,170721,,,A*76
$GPGGA,185837.000,4306.0496,N,07725.9992,W,1,05,1.62,140.3,M,-34.3,M,,*57
$GPRMC,185837.250,A,4306.0496,N,07725.9992,W,0.17,18.87,170721,,,A*4F
$GPGGA,185837.500,4306.0496,N,07725.9992,W,1,05,1.62,140.4,M,-34.3,M,,*55
$GPRMC,185837.750,A,4306.0497,N,07725.9992,W,0.14,353.28,170721,,,A*71
$GPGGA,185838.000,4306.0497,N,07725.9992,W,1,05,1.79,140.5,M,-34.3,M,,*55
$GPRMC,185838.250,A,4306.0497,N,07725.9992,W,0.10,359.83,170721,,,A*74
$GPGGA,185838.500,4306.0497,N,07725.9992,W,1,05,1.79,140.6,M,-34.3,M,,*53
$GPRMC,185838.750,A,4306.0497,N,07725.9992,W,0.11,323.43,170721,,,A*71
$GPGGA,185839.000,4306.0497,N,07725.9992,W,1,05,1.62,140.7,M,-34.3,M,,*5C
$GPRMC,185839.250,A,4306.0497,N,07725.9992,W,0.04,235.77,170721,,,A*70
$GPGGA,185839.500,4306.0497,N,07725.9992,W,1,05,1.62,140.8,M,-34.3,M,,*56
$GPRMC,185839.750,A,4306.0497,N,07725.9992,W,0.03,75.70,170721,,,A*43
$GPGGA,185840.000,4306.0497,N,07725.9992,W,1,05,1.62,140.9,M,-34.3,M,,*5C
$GPRMC,185840.250,A,4306.0497,N,07725.9992,W,0.10,304.92,170721,,,A*73
$GPGGA,185840.500,4306.0497,N,07725.9992,W,1,05,1.62,141.0,M,-34.3,M,,*51
$GPRMC,185840.750,A,4306.0497,N,07725.9992,W,0.11,331.91,170721,,,A*72
$GPGGA,185841.000,4306.0497,N,07725.9993,W,1,05,1.62,141.0,M,-34.3,M,,*54
$GPRMC,185841.250,A,4306.0497,N,07725.9993,W,0.05,332.43,170721,,,A*7E
$GPGGA,185841.500,4306.0497,N,07725.9993,W,1,05,1.62,141.1,M,-34.3,M,,*50
$GPRMC,185841.750,A,4306.0497,N,07725.9993,W,0.08,314.99,170721,,,A*75
$GPGGA,185842.000,4306.0497,N,07725.9993,W,1,05,1.62,141.2,M,-34.3,M,,*55
$GPRMC,185842.250,A,4306.0497,N,07725.9993,W,0.17,31.33,170721,,,A*49
$GPGGA,185842.500,4306.0498,N,07725.9993,W,1,05,1.62,141.2,M,-34.3,M,,*5F
$GPRMC,185842.750,A,4306.0498,N,07725.9992,W,0.25,56.34,170721,,,A*45
$GPGGA,185843.000,4306.0498,N,07725.9992,W,1,05,1.62,141.2,M,-34.3,M,,*5A
$GPRMC,185843.250,A,4306.0498,N,07725.9992,W,0.37,42.57,170721,,,A*42
$GPGGA,185843.500,4306.0498,N,07725.9992,W,1,05,1.62,141.3,M,-34.3,M,,*5E
$GPRMC,185843.750,A,4306.0498,N,07725.9992,W,0.40,34.73,170721,,,A*40
$GPGGA,185844.000,4306.0499,N,07725.9991,W,1,05,1.62,141.3,M,-34.3,M,,*5E
$GPRMC,185844.250,A,4306.0499,N,07725.9991,W,0.50,26.25,170721,,,A*41
$GPGGA,185844.500,4306.0499,N,07725.9991,W,1,05,1.62,141.4,M,-34.3,M,,*5C
$GPRMC,185844.750,A,4306.0500,N,07725.9990,W,0.66,30.10,170721,,,A*40
$GPGGA,185845.000,4306.0502,N,07725.9989,W,1,05,1.62,141.4,M,-34.3,M,,*52
$GPRMC,185845.250,A,4306.0504,N,07725.9987,W,0.95,30.28,170721,,,A*41
$GPGGA,185845.500,4306.0505,N,07725.9986,W,1,05,1.62,141.5,M,-34.3,M,,*5E
$GPRMC,185845.750,A,4306.0506,N,07725.9985,W,1.02,30.78,170721,,,A*4E
$GPGGA,185846.000,4306.0507,N,07725.9985,W,1,05,1.62,141.5,M,-34.3,M,,*59
$GPRMC,185846.250,A,4306.0507,N,07725.9984,W,1.00,30.99,170721,,,A*45
$GPGGA,185846.500,4306.0508,N,07725.9983,W,1,05,1.62,141.6,M,-34.3,M,,*56
$GPRMC,185846.750,A,4306.0509,N,07725.9983,W,0.97,30.41,170721,,,A*43
$GPGGA,185847.000,4306.0510,N,07725.9983,W,1,05,1.79,141.7,M,-34.3,M,,*50
$GPRMC,185847.250,A,4306.0511,N,07725.9983,W,0.98,28.88,170721,,,A*4D
$GPGGA,185847.500,4306.0513,N,07725.9983,W,1,05,1.79,141.7,M,-34.3,M,,*56
$GPRMC,185847.750,A,4306.0514,N,07725.9983,W,1.04,26.09,170721,,,A*4E
$GPGGA,185848.000,4306.0515,N,07725.9983,W,1,05,1.80,141.7,M,-34.3,M,,*5C
$GPRMC,185848.250,A,4306.0516,N,07725.9984,W,1.04,23.07,170721,,,A*4A
$GPGGA,185848.500,4306.0517,N,07725.9984,W,1,05,1.80,141.7,M,-34.3,M,,*5C
$GPRMC,185848.750,A,4306.0518,N,07725.9985,W,1.09,19.88,170721,,,A*43
$GPGGA,185849.000,4306.0518,N,07725.9986,W,1,05,1.79,141.8,M,-34.3,M,,*5C
$GPRMC,185849.250,A,4306.0519,N,07725.9986,W,1.17,16.79,170721,,,A*4B
$GPGGA,185849.500,4306.0519,N,07725.9988,W,1,05,1.80,142.0,M,-34.3,M,,*5B
$GPRMC,185849.750,A,4306.0519,N,07725.9988,W,1.06,14.06,170721,,,A*4A
$GPGGA,185850.000,4306.0518,N,07725.9989,W,1,05,1.79,142.1,M,-34.3,M,,*51
$GPRMC,185850.250,A,4306.0517,N,07725.9990,W,0.88,11.84,170721,,,A*48
$GPGGA,185850.500,4306.0516,N,07725.9991,W,1,05,1.80,142.2,M,-34.3,M,,*56
$GPRMC,185850.750,A,4306.0515,N,07725.9991,W,0.64,10.68,170721,,,A*4F
$GPGGA,185851.000,4306.0514,N,07725.9990,W,1,05,1.80,142.3,M,-34.3,M,,*50
$GPRMC,185851.250,A,4306.0513,N,07725.9990,W,0.43,11.06,170721,,,A*40
$GPGGA,185851.500,4306.0510,N,07725.9990,W,1,05,1.80,142.4,M,-34.3,M,,*56
$GPRMC,185851.750,A,4306.0508,N,07725.9989,W,0.24,13.17,170721,,,A*44
$GPGGA,185852.000,4306.0505,N,07725.9989,W,1,05,1.62,142.4,M,-34.3,M,,*50
$GPRMC,185852.250,A,4306.0502,N,07725.9989,W,1.35,19.94,170721,,,A*48
$GPGGA,185852.500,4306.0498,N,07725.9988,W,1,05,1.62,142.5,M,-34.3,M,,*50
$GPRMC,185852.750,A,4306.0496,N,07725.9987,W,2.68,159.76,170721,,,A*7D
$GPGGA,185853.000,4306.0492,N,07725.9986,W,1,05,1.62,142.6,M,-34.3,M,,*53
$GPRMC,185853.250,A,4306.0488,N,07725.9983,W,4.67,154.66,170721,,,A*77
$GPGGA,185853.500,4306.0483,N,07725.9980,W,1,05,1.80,142.6,M,-34.3,M,,*5C
$GPRMC,185853.750,A,4306.0479,N,07725.9977,W,6.62,150.92,170721,,,A*7F
$GPGGA,185854.000,4306.0475,N,07725.9973,W,1,05,1.80,142.7,M,-34.3,M,,*5A
$GPRMC,185854.250,A,4306.0470,N,07725.9968,W,7.38,142.93,170721,,,A*76
$GPGGA,185854.500,4306.0466,N,07725.9963,W,1,05,1.80,142.9,M,-34.3,M,,*52
$GPRMC,185854.750,A,4306.0462,N,07725.9958,W,7.79,140.58,170721,,,A*73
$GPGGA,185855.000,4306.0457,N,07725.9953,W,1,05,1.80,143.0,M,-34.3,M,,*5F
$GPRMC,185855.250,A,4306.0452,N,07725.9949,W,8.12,144.10,170721,,,A*7E
$GPGGA,185855.500,4306.0447,N,07725.9944,W,1,05,1.80,143.0,M,-34.3,M,,*5D
$GPRMC,185855.750,A,4306.0443,N,07725.9940,W,8.18,143.41,170721,,,A*7B
$GPGGA,185856.000,4306.0439,N,07725.9935,W,1,05,1.80,143.1,M,-34.3,M,,*55
$GPRMC,185856.250,A,4306.0435,N,07725.9930,W,7.72,140.43,170721,,,A*79
$GPGGA,185856.500,4306.0430,N,07725.9925,W,1,05,1.80,143.2,M,-34.3,M,,*5B
$GPRMC,185856.750,A,4306.0426,N,07725.9920,W,7.73,139.60,170721,,,A*71
$GPGGA,185857.000,4306.0422,N,07725.9916,W,1,05,1.80,143.3,M,-34.3,M,,*5D
$GPRMC,185857.250,A,4306.0417,N,07725.9911,W,8.00,141.15,170721,,,A*73
$GPGGA,185857.500,4306.0412,N,07725.9906,W,1,05,1.80,143.5,M,-34.3,M,,*5C
$GPRMC,185857.750,A,4306.0407,N,07725.9901,W,8.40,140.14,170721,,,A*72
$GPGGA,185858.000,4306.0402,N,07725.9896,W,1,05,1.80,143.6,M,-34.3,M,,*5C
$GPRMC,185858.250,A,4306.0397,N,07725.9893,W,8.36,144.52,170721,,,A*7B
$GPGGA,185858.500,4306.0391,N,07725.9889,W,1,05,1.80,143.8,M,-34.3,M,,*54
$GPRMC,185858.750,A,4306.0385,N,07725.9884,W,8.99,145.26,170721,,,A*7C
$GPGGA,185859.000,4306.0379,N,07725.9879,W,1,05,1.80,144.0,M,-34.3,M,,*56
$GPRMC,185859.250,A,4306.0372,N,07725.9874,W,10.02,147.56,170721,,,A*41
$GPGGA,185859.500,4306.0365,N,07725.9870,W,1,05,1.80,144.1,M,-34.3,M,,*56
$GPRMC,185859.750,A,4306.0358,N,07725.9866,W,10.42,151.25,170721,,,A*48
$GPGGA,185900.000,4306.0351,N,07725.9861,W,1,05,1.80,144.3,M,-34.3,M,,*5B
$GPRMC,185900.250,A,4306.0343,N,07725.9857,W,11.14,154.67,170721,,,A*49
$GPGGA,185900.500,4306.0335,N,07725.9853,W,1,05,1.80,144.5,M,-34.3,M,,*5B
$GPRMC,185900.750,A,4306.0327,N,07725.9849,W,11.84,156.53,170721,,,A*4D
$GPGGA,185901.000,4306.0319,N,07725.9845,W,1,05,1.62,144.7,M,-34.3,M,,*58
$GPRMC,185901.250,A,4306.0311,N,07725.9841,W,12.21,158.39,170721,,,A*4A
$GPGGA,185901.500,4306.0302,N,07725.9837,W,1,05,1.62,144.8,M,-34.3,M,,*5D
$GPRMC,185901.750,A,4306.0292,N,07725.9834,W,12.93,160.86,170721,,,A*41
$GPGGA,185902.000,4306.0283,N,07725.9830,W,1,05,1.62,145.0,M,-34.3,M,,*5D
$GPRMC,185902.250,A,4306.0274,N,07725.9827,W,13.18,163.27,170721,,,A*47
$GPGGA,185902.500,4306.0265,N,07725.9824,W,1,05,1.80,145.1,M,-34.3,M,,*58
$GPRMC,185902.750,A,4306.0256,N,07725.9821,W,13.23,165.27,170721,,,A*4A
$GPGGA,185903.000,4306.0247,N,07725.9818,W,1,05,1.62,145.2,M,-34.3,M,,*5C
$GPRMC,185903.250,A,4306.0238,N,07725.9816,W,12.90,167.04,170721,,,A*48
$GPGGA,185903.500,4306.0230,N,07725.9814,W,1,05,1.62,145.3,M,-34.3,M,,*54
$GPRMC,185903.750,A,4306.0221,N,07725.9812,W,12.64,168.80,170721,,,A*49
$GPGGA,185904.000,4306.0213,N,07725.9810,W,1,05,1.62,145.4,M,-34.3,M,,*54
$GPRMC,185904.250,A,4306.0205,N,07725.9809,W,12.04,170.61,170721,,,A*47
$GPGGA,185904.500,4306.0197,N,07725.9807,W,1,05,1.62,145.5,M,-34.3,M,,*59
$GPRMC,185904.750,A,4306.0189,N,07725.9806,W,11.78,171.94,170721,,,A*49
$GPGGA,185905.000,4306.0181,N,07725.9805,W,1,05,1.62,145.6,M,-34.3,M,,*5B
$GPRMC,185905.250,A,4306.0173,N,07725.9804,W,11.57,172.80,170721,,,A*41
$GPGGA,185905.500,4306.0165,N,07725.9803,W,1,05,1.62,145.7,M,-34.3,M,,*53
$GPRMC,185905.750,A,4306.0157,N,07725.9802,W,11.36,173.02,170721,,,A*48
$GPGGA,185906.000,4306.0149,N,07725.9801,W,1,05,1.62,145.9,M,-34.3,M,,*57
$GPRMC,185906.250,A,4306.0141,N,07725.9800,W,11.42,172.99,170721,,,A*4B
$GPGGA,185906.500,4306.0134,N,07725.9799,W,1,05,1.80,146.0,M,-34.3,M,,*50
$GPRMC,185906.750,A,4306.0126,N,07725.9798,W,11.44,172.40,170721,,,A*43
$GPGGA,185907.000,4306.0118,N,07725.9796,W,1,05,1.62,146.1,M,-34.3,M,,*58
$GPRMC,185907.250,A,4306.0111,N,07725.9795,W,11.24,171.51,170721,,,A*4B
$GPGGA,185907.500,4306.0103,N,07725.9793,W,1,05,1.62,146.3,M,-34.3,M,,*50
$GPRMC,185907.750,A,4306.0095,N,07725.9791,W,11.24,170.31,170721,,,A*40
$GPGGA,185908.000,4306.0088,N,07725.9789,W,1,05,1.62,146.4,M,-34.3,M,,*54
$GPRMC,185908.250,A,4306.0081,N,07725.9787,W,11.17,168.78,170721,,,A*4C
$GPGGA,185908.500,4306.0073,N,07725.9784,W,1,05,1.80,146.5,M,-34.3,M,,*55
$GPRMC,185908.750,A,4306.0066,N,07725.9782,W,11.15,168.25,170721,,,A*4F
$GPGGA,185909.000,4306.0058,N,07725.9779,W,1,05,1.62,146.6,M,-34.3,M,,*55
$GPRMC,185909.250,A,4306.0050,N,07725.9777,W,11.16,169.11,170721,,,A*41
$GPGGA,185909.500,4306.0043,N,07725.9773,W,1,05,1.62,146.7,M,-34.3,M,,*51
$GPRMC,185909.750,A,4306.0036,N,07725.9769,W,11.21,168.60,170721,,,A*48
$GPGGA,185910.000,4306.0028,N,07725.9764,W,1,05,1.62,146.8,M,-34.3,M,,*58
$GPRMC,185910.250,A,4306.0021,N,07725.9760,W,11.27,166.17,170721,,,A*42
$GPGGA,185910.500,4306.0013,N,07725.9756,W,1,05,1.80,146.9,M,-34.3,M,,*59
$GPRMC,185910.750,A,4306.0006,N,07725.9751,W,11.63,163.54,170721,,,A*42
$GPGGA,185911.000,4305.9998,N,07725.9747,W,1,04,2.21,147.0,M,-34.3,M,,*5C
$GPRMC,185911.250,A,4305.9991,N,07725.9742,W,11.80,159.34,170721,,,A*4B
$GPGGA,185911.500,4305.9984,N,07725.9737,W,1,04,2.21,147.1,M,-34.3,M,,*52
$GPRMC,185911.750,A,4305.9976,N,07725.9732,W,11.73,156.50,170721,,,A*41
$GPGGA,185912.000,4305.9969,N,07725.9727,W,1,05,1.62,147.2,M,-34.3,M,,*50
$GPRMC,185912.250,A,4305.9962,N,07725.9722,W,11.65,152.31,170721,,,A*47
$GPGGA,185912.500,4305.9956,N,07725.9715,W,1,04,2.21,147.3,M,-34.3,M,,*5C
$GPRMC,185912.750,A,4305.9950,N,07725.9708,W,11.59,147.52,170721,,,A*45
$GPGGA,185913.000,4305.9944,N,07725.9700,W,1,04,2.21,147.4,M,-34.3,M,,*58
$GPRMC,185913.250,A,4305.9938,N,07725.9692,W,11.56,142.15,170721,,,A*44
$GPGGA,185913.500,4305.9932,N,07725.9684,W,1,05,1.62,147.5,M,-34.3,M,,*55
$GPRMC,185913.750,A,4305.9926,N,07725.9675,W,11.78,138.98,170721,,,A*43
$GPGGA,185914.000,4305.9920,N,07725.9666,W,1,05,1.62,147.6,M,-34.3,M,,*5B
$GPRMC,185914.250,A,4305.9915,N,07725.9657,W,11.82,135.92,170721,,,A*43
$GPGGA,185914.500,4305.9910,N,07725.9648,W,1,05,1.62,147.7,M,-34.3,M,,*50
$GPRMC,185914.750,A,4305.9904,N,07725.9639,W,12.05,134.38,170721,,,A*43
$GPGGA,185915.000,4305.9897,N,07725.9630,W,1,05,1.62,147.7,M,-34.3,M,,*55
$GPRMC,185915.250,A,4305.9891,N,07725.9622,W,12.25,134.85,170721,,,A*44
$GPGGA,185915.500,4305.9885,N,07725.9613,W,1,05,1.80,147.8,M,-34.3,M,,*51
$GPRMC,185915.750,A,4305.9879,N,07725.9604,W,12.33,134.90,170721,,,A*40
$GPGGA,185916.000,4305.9872,N,07725.9595,W,1,05,1.62,147.9,M,-34.3,M,,*5F
$GPRMC,185916.250,A,4305.9866,N,07725.9586,W,12.71,134.15,170721,,,A*4A
$GPGGA,185916.500,4305.9859,N,07725.9577,W,1,05,1.80,148.0,M,-34.3,M,,*55
$GPRMC,185916.750,A,4305.9853,N,07725.9568,W,12.93,132.13,170721,,,A*45
$GPGGA,185917.000,4305.9848,N,07725.9558,W,1,05,1.62,148.0,M,-34.3,M,,*50
$GPRMC,185917.250,A,4305.9842,N,07725.9548,W,12.97,130.01,170721,,,A*46
$GPGGA,185917.500,4305.9836,N,07725.9538,W,1,05,1.62,148.1,M,-34.3,M,,*5B
$GPRMC,185917.750,A,4305.9831,N,07725.9529,W,12.97,128.95,170721,,,A*44
$GPGGA,185918.000,4305.9826,N,07725.9520,W,1,05,1.62,148.2,M,-34.3,M,,*5A
$GPRMC,185918.250,A,4305.9821,N,07725.9511,W,12.53,127.96,170721,,,A*40
$GPGGA,185918.500,4305.9816,N,07725.9502,W,1,05,1.62,148.3,M,-34.3,M,,*5D
$GPRMC,185918.750,A,4305.9812,N,07725.9493,W,12.19,127.01,170721,,,A*4E
$GPGGA,185919.000,4305.9807,N,07725.9484,W,1,05,1.62,148.4,M,-34.3,M,,*51
$GPRMC,185919.250,A,4305.9803,N,07725.9476,W,11.86,126.15,170721,,,A*40
$GPGGA,185919.500,4305.9799,N,07725.9467,W,1,05,1.62,148.5,M,-34.3,M,,*50
$GPRMC,185919.750,A,4305.9794,N,07725.9458,W,11.70,125.67,170721,,,A*47
$GPGGA,185920.000,4305.9788,N,07725.9448,W,1,05,1.62,148.6,M,-34.3,M,,*51
$GPRMC,185920.250,A,4305.9784,N,07725.9440,W,11.74,125.77,170721,,,A*45
$GPGGA,185920.500,4305.9780,N,07725.9432,W,1,05,1.62,148.7,M,-34.3,M,,*50
$GPRMC,185920.750,A,4305.9775,N,07725.9424,W,11.28,125.59,170721,,,A*49
$GPGGA,185921.000,4305.9770,N,07725.9419,W,1,05,1.62,148.8,M,-34.3,M,,*5D
$GPRMC,185921.250,A,4305.9764,N,07725.9418,W,10.19,131.79,170721,,,A*46
$GPGGA,185921.500,4305.9761,N,07725.9409,W,1,05,1.62,148.8,M,-34.3,M,,*59
$GPRMC,185921.750,A,4305.9758,N,07725.9402,W,9.82,127.33,170721,,,A*74
$GPGGA,185922.000,4305.9760,N,07725.9390,W,1,05,1.62,148.9,M,-34.3,M,,*58
$GPRMC,185922.250,A,4305.9763,N,07725.9379,W,9.57,112.40,170721,,,A*7B
$GPGGA,185922.500,4305.9770,N,07725.9365,W,1,05,1.62,148.9,M,-34.3,M,,*56
$GPRMC,185922.750,A,4305.9770,N,07725.9354,W,9.69,93.56,170721,,,A*41
$GPGGA,185923.000,4305.9771,N,07725.9341,W,1,05,1.62,149.0,M,-34.3,M,,*5D
$GPRMC,185923.250,A,4305.9772,N,07725.9329,W,10.47,83.58,170721,,,A*76
$GPGGA,185923.500,4305.9775,N,07725.9318,W,1,05,1.62,149.1,M,-34.3,M,,*51
$GPRMC,185923.750,A,4305.9778,N,07725.9306,W,11.02,74.02,170721,,,A*73
$GPGGA,185924.000,4305.9782,N,07725.9292,W,1,05,1.62,149.2,M,-34.3,M,,*5B
$GPRMC,185924.250,A,4305.9784,N,07725.9279,W,11.75,72.12,170721,,,A*7C
$GPGGA,185924.500,4305.9787,N,07725.9268,W,1,05,1.62,149.3,M,-34.3,M,,*5F
$GPRMC,185924.750,A,4305.9790,N,07725.9257,W,11.76,70.78,170721,,,A*7D
$GPGGA,185925.000,4305.9793,N,07725.9247,W,1,05,1.62,149.4,M,-34.3,M,,*54
$GPRMC,185925.250,A,4305.9796,N,07725.9237,W,11.44,68.80,170721,,,A*76
$GPGGA,185925.500,4305.9799,N,07725.9228,W,1,05,1.62,149.5,M,-34.3,M,,*53
$GPRMC,185925.750,A,4305.9804,N,07725.9217,W,10.97,65.85,170721,,,A*72
$GPGGA,185926.000,4305.9808,N,07725.9207,W,1,05,1.62,149.6,M,-34.3,M,,*5C
$GPRMC,185926.250,A,4305.9812,N,07725.9196,W,10.62,63.11,170721,,,A*78
$GPGGA,185926.500,4305.9815,N,07725.9185,W,1,05,1.62,149.6,M,-34.3,M,,*5C
$GPRMC,185926.750,A,4305.9822,N,07725.9176,W,10.52,60.86,170721,,,A*7E
$GPGGA,185927.000,4305.9830,N,07725.9168,W,1,05,1.62,149.5,M,-34.3,M,,*5F
$GPRMC,185927.250,A,4305.9839,N,07725.9160,W,10.75,54.39,170721,,,A*71
$GPGGA,185927.500,4305.9849,N,07725.9152,W,1,05,1.62,149.6,M,-34.3,M,,*5E
$GPRMC,185927.750,A,4305.9858,N,07725.9145,W,11.18,50.74,170721,,,A*73
$GPGGA,185928.000,4305.9867,N,07725.9137,W,1,05,1.62,149.7,M,-34.3,M,,*5A
$GPRMC,185928.250,A,4305.9877,N,07725.9129,W,11.77,47.59,170721,,,A*7E
$GPGGA,185928.500,4305.9888,N,07725.9121,W,1,05,1.62,149.8,M,-34.3,M,,*56
$GPRMC,185928.750,A,4305.9901,N,07725.9114,W,12.53,43.20,170721,,,A*7A
$GPGGA,185929.000,4305.9916,N,07725.9109,W,1,05,1.62,150.1,M,-34.3,M,,*5F
$GPRMC,185929.250,A,4305.9933,N,07725.9105,W,13.72,35.84,170721,,,A*72
$GPGGA,185929.500,4305.9971,N,07725.9111,W,1,05,1.62,149.6,M,-34.3,M,,*5D
$GPRMC,185929.750,A,4305.9997,N,07725.9117,W,20.43,10.21,170721,,,A*70
$GPGGA,185930.000,4306.0015,N,07725.9114,W,1,05,1.80,149.4,M,-34.3,M,,*5A
$GPRMC,185930.250,A,4306.0031,N,07725.9110,W,21.02,9.27,170721,,,A*4F
$GPGGA,185930.500,4306.0048,N,07725.9107,W,1,05,1.80,149.6,M,-34.3,M,,*57
$GPRMC,185930.750,A,4306.0063,N,07725.9104,W,21.04,9.15,170721,,,A*4F
$GPGGA,185931.000,4306.0079,N,07725.9100,W,1,05,1.80,149.8,M,-34.3,M,,*58
$GPRMC,185931.250,A,4306.0095,N,07725.9096,W,20.79,9.43,170721,,,A*40
$GPGGA,185931.500,4306.0111,N,07725.9092,W,1,05,1.80,150.0,M,-34.3,M,,*58
$GPRMC,185931.750,A,4306.0125,N,07725.9088,W,20.54,9.84,170721,,,A*44
$GPGGA,185932.000,4306.0141,N,07725.9084,W,1,05,1.80,150.2,M,-34.3,M,,*5E
$GPRMC,185932.250,A,4306.0155,N,07725.9080,W,19.93,10.30,170721,,,A*7B
$GPGGA,185932.500,4306.0170,N,07725.9075,W,1,05,1.80,150.4,M,-34.3,M,,*51
$GPRMC,185932.750,A,4306.0184,N,07725.9072,W,19.44,10.92,170721,,,A*7D
$GPGGA,185933.000,4306.0197,N,07725.9069,W,1,05,1.80,150.5,M,-34.3,M,,*50
$GPRMC,185933.250,A,4306.0211,N,07725.9065,W,18.68,9.86,170721,,,A*42
$GPGGA,185933.500,4306.0225,N,07725.9061,W,1,05,1.80,150.8,M,-34.3,M,,*5A
$GPRMC,185933.750,A,4306.0239,N,07725.9057,W,18.13,9.11,170721,,,A*4E
$GPGGA,185934.000,4306.0252,N,07725.9054,W,1,05,1.80,151.1,M,-34.3,M,,*56
$GPRMC,185934.250,A,4306.0265,N,07725.9052,W,17.36,5.67,170721,,,A*45
$GPGGA,185934.500,4306.0277,N,07725.9050,W,1,05,1.80,151.4,M,-34.3,M,,*55
$GPRMC,185934.750,A,4306.0290,N,07725.9048,W,16.93,2.55,170721,,,A*49
$GPGGA,185935.000,4306.0300,N,07725.9050,W,1,05,1.80,151.7,M,-34.3,M,,*53
$GPRMC,185935.250,A,4306.0312,N,07725.9049,W,16.18,358.12,170721,,,A*4B
$GPGGA,185935.500,4306.0323,N,07725.9051,W,1,05,1.80,152.0,M,-34.3,M,,*52
$GPRMC,185935.750,A,4306.0334,N,07725.9052,W,15.57,353.63,170721,,,A*45
$GPGGA,185936.000,4306.0344,N,07725.9055,W,1,05,1.80,152.2,M,-34.3,M,,*53
$GPRMC,185936.250,A,4306.0355,N,07725.9057,W,15.33,349.42,170721,,,A*4B
$GPGGA,185936.500,4306.0366,N,07725.9061,W,1,05,1.80,152.4,M,-34.3,M,,*57
$GPRMC,185936.750,A,4306.0374,N,07725.9068,W,14.65,342.76,170721,,,A*4F
$GPGGA,185937.000,4306.0379,N,07725.9083,W,1,05,1.62,152.5,M,-34.3,M,,*5C
$GPRMC,185937.250,A,4306.0386,N,07725.9095,W,15.33,316.42,170721,,,A*40
$GPGGA,185937.500,4306.0392,N,07725.9109,W,1,05,1.62,152.8,M,-34.3,M,,*52
$GPRMC,185937.750,A,4306.0399,N,07725.9121,W,16.43,306.34,170721,,,A*41
$GPGGA,185938.000,4306.0405,N,07725.9133,W,1,05,1.62,153.0,M,-34.3,M,,*51
$GPRMC,185938.250,A,4306.0410,N,07725.9145,W,16.34,300.56,170721,,,A*4D
$GPGGA,185938.500,4306.0413,N,07725.9155,W,1,05,1.62,153.2,M,-34.3,M,,*51
$GPRMC,185938.750,A,4306.0417,N,07725.9166,W,14.97,296.49,170721,,,A*45
$GPGGA,185939.000,4306.0420,N,07725.9176,W,1,05,1.62,153.4,M,-34.3,M,,*52
$GPRMC,185939.250,A,4306.0422,N,07725.9185,W,12.46,294.46,170721,,,A*4D
$GPGGA,185939.500,4306.0422,N,07725.9192,W,1,05,1.62,153.5,M,-34.3,M,,*5E
$GPRMC,185939.750,A,4306.0424,N,07725.9200,W,9.87,291.88,170721,,,A*70
$GPGGA,185940.000,4306.0427,N,07725.9205,W,1,05,1.62,153.6,M,-34.3,M,,*5E
$GPRMC,185940.250,A,4306.0429,N,07725.9211,W,7.12,300.77,170721,,,A*7D
$GPGGA,185940.500,4306.0431,N,07725.9213,W,1,05,1.62,153.7,M,-34.3,M,,*5A
$GPRMC,185940.750,A,4306.0433,N,07725.9215,W,4.79,310.21,170721,,,A*7B
$GPGGA,185941.000,4306.0435,N,07725.9216,W,1,05,1.62,153.9,M,-34.3,M,,*51
$GPRMC,185941.250,A,4306.0438,N,07725.9215,W,3.50,345.34,170721,,,A*7C
$GPGGA,185941.500,4306.0440,N,07725.9215,W,1,05,1.80,154.0,M,-34.3,M,,*57
$GPRMC,185941.750,A,4306.0441,N,07725.9214,W,2.73,352.39,170721,,,A*7D
$GPGGA,185942.000,4306.0442,N,07725.9213,W,1,05,1.80,154.2,M,-34.3,M,,*57
$GPRMC,185942.250,A,4306.0443,N,07725.9213,W,2.15,352.39,170721,,,A*7E
$GPGGA,185942.500,4306.0443,N,07725.9215,W,1,05,1.62,154.3,M,-34.3,M,,*58
$GPRMC,185942.750,A,4306.0445,N,07725.9217,W,2.83,352.39,170721,,,A*76
$GPGGA,185943.000,4306.0444,N,07725.9222,W,1,05,1.62,154.4,M,-34.3,M,,*58
$GPRMC,185943.250,A,4306.0442,N,07725.9229,W,4.88,271.94,170721,,,A*72
$GPGGA,185943.500,4306.0440,N,07725.9236,W,1,05,1.62,154.4,M,-34.3,M,,*5C
$GPRMC,185943.750,A,4306.0439,N,07725.9244,W,7.35,261.88,170721,,,A*79
$GPGGA,185944.000,4306.0438,N,07725.9252,W,1,05,1.62,154.5,M,-34.3,M,,*52
$GPRMC,185944.250,A,4306.0435,N,07725.9260,W,8.25,252.33,170721,,,A*7F
$GPGGA,185944.500,4306.0430,N,07725.9268,W,1,05,1.62,154.6,M,-34.3,M,,*55
$GPRMC,185944.750,A,4306.0423,N,07725.9278,W,9.88,230.96,170721,,,A*79
$GPGGA,185945.000,4306.0416,N,07725.9286,W,1,05,1.62,154.6,M,-34.3,M,,*55
$GPRMC,185945.250,A,4306.0408,N,07725.9293,W,11.75,213.92,170721,,,A*4F
$GPGGA,185945.500,4306.0399,N,07725.9299,W,1,05,1.62,154.7,M,-34.3,M,,*5F
$GPRMC,185945.750,A,4306.0390,N,07725.9305,W,13.18,205.19,170721,,,A*4F
$GPGGA,185946.000,4306.0378,N,07725.9308,W,1,05,1.62,154.9,M,-34.3,M,,*51
$GPRMC,185946.250,A,4306.0365,N,07725.9311,W,17.05,189.03,170721,,,A*42
$GPGGA,185946.500,4306.0351,N,07725.9313,W,1,05,1.62,155.0,M,-34.3,M,,*5D
$GPRMC,185946.750,A,4306.0336,N,07725.9315,W,19.07,185.35,170721,,,A*40
$GPGGA,185947.000,4306.0318,N,07725.9316,W,1,05,1.62,155.0,M,-34.3,M,,*51
$GPRMC,185947.250,A,4306.0303,N,07725.9317,W,21.19,181.46,170721,,,A*44
$GPGGA,185947.500,4306.0286,N,07725.9318,W,1,05,1.62,155.0,M,-34.3,M,,*5C
$GPRMC,185947.750,A,4306.0268,N,07725.9319,W,22.26,181.02,170721,,,A*4C
$GPGGA,185948.000,4306.0251,N,07725.9320,W,1,05,1.62,155.1,M,-34.3,M,,*56
$GPRMC,185948.250,A,4306.0232,N,07725.9322,W,22.92,181.68,170721,,,A*42
$GPGGA,185948.500,4306.0208,N,07725.9328,W,1,05,1.62,155.0,M,-34.3,M,,*56
$GPRMC,185948.750,A,4306.0188,N,07725.9331,W,24.72,183.99,170721,,,A*43
$GPGGA,185949.000,4306.0168,N,07725.9335,W,1,05,1.62,155.1,M,-34.3,M,,*5A
$GPRMC,185949.250,A,4306.0148,N,07725.9339,W,25.44,185.57,170721,,,A*43
$GPGGA,185949.500,4306.0127,N,07725.9343,W,1,05,1.62,155.1,M,-34.3,M,,*55
$GPRMC,185949.750,A,4306.0107,N,07725.9347,W,26.43,187.00,170721,,,A*40
$GPGGA,185950.000,4306.0087,N,07725.9352,W,1,05,1.62,155.1,M,-34.3,M,,*53
$GPRMC,185950.250,A,4306.0067,N,07725.9356,W,27.17,188.28,170721,,,A*4F
$GPGGA,185950.500,4306.0047,N,07725.9360,W,1,05,1.62,155.2,M,-34.3,M,,*58
$GPRMC,185950.750,A,4306.0028,N,07725.9363,W,27.47,188.08,170721,,,A*40
$GPGGA,185951.000,4306.0008,N,07725.9366,W,1,05,1.62,155.3,M,-34.3,M,,*50
$GPRMC,185951.250,A,4305.9988,N,07725.9368,W,27.83,186.75,170721,,,A*4A
$GPGGA,185951.500,4305.9968,N,07725.9371,W,1,05,1.62,155.4,M,-34.3,M,,*51
$GPRMC,185951.750,A,4305.9948,N,07725.9374,W,28.09,186.45,170721,,,A*40
$GPGGA,185952.000,4305.9928,N,07725.9377,W,1,05,1.62,155.5,M,-34.3,M,,*54
$GPRMC,185952.250,A,4305.9908,N,07725.9380,W,28.35,186.57,170721,,,A*45
$GPGGA,185952.500,4305.9888,N,07725.9383,W,1,05,1.62,155.6,M,-34.3,M,,*52
$GPRMC,185952.750,A,4305.9868,N,07725.9387,W,28.38,187.00,170721,,,A*4E
$GPGGA,185953.000,4305.9848,N,07725.9391,W,1,05,1.62,155.7,M,-34.3,M,,*58
$GPRMC,185953.250,A,4305.9828,N,07725.9395,W,28.82,186.88,170721,,,A*4D
$GPGGA,185953.500,4305.9807,N,07725.9398,W,1,05,1.62,155.9,M,-34.3,M,,*51
$GPRMC,185953.750,A,4305.9787,N,07725.9402,W,29.06,186.55,170721,,,A*46
$GPGGA,185954.000,4305.9766,N,07725.9406,W,1,05,1.62,156.0,M,-34.3,M,,*51
$GPRMC,185954.250,A,4305.9746,N,07725.9410,W,29.42,186.39,170721,,,A*40
$GPGGA,185954.500,4305.9726,N,07725.9413,W,1,05,1.63,156.2,M,-34.3,M,,*57
$GPRMC,185954.750,A,4305.9705,N,07725.9417,W,29.83,185.95,170721,,,A*4D
$GPGGA,185955.000,4305.9685,N,07725.9419,W,1,05,1.62,156.5,M,-34.3,M,,*57
$GPRMC,185955.250,A,4305.9664,N,07725.9422,W,30.09,185.46,170721,,,A*4D
$GPGGA,185955.500,4305.9643,N,07725.9425,W,1,05,1.62,156.7,M,-34.3,M,,*55
$GPRMC,185955.750,A,4305.9622,N,07725.9428,W,30.18,185.18,170721,,,A*4B
$GPGGA,185956.000,4305.9601,N,07725.9430,W,1,05,1.62,157.0,M,-34.3,M,,*57
$GPRMC,185956.250,A,4305.9580,N,07725.9433,W,30.24,185.18,170721,,,A*43
$GPGGA,185956.500,4305.9559,N,07725.9436,W,1,05,1.62,157.2,M,-34.3,M,,*58
$GPRMC,185956.750,A,4305.9538,N,07725.9439,W,30.30,185.39,170721,,,A*49
$GPGGA,185957.000,4305.9517,N,07725.9442,W,1,05,1.62,157.4,M,-34.3,M,,*53
$GPRMC,185957.250,A,4305.9496,N,07725.9445,W,30.00,185.84,170721,,,A*46
$GPGGA,185957.500,4305.9475,N,07725.9449,W,1,05,1.62,157.7,M,-34.3,M,,*5B
$GPRMC,185957.750,A,4305.9454,N,07725.9452,W,29.92,186.45,170721,,,A*46
$GPGGA,185958.000,4305.9434,N,07725.9455,W,1,05,1.62,157.9,M,-34.3,M,,*57
$GPRMC,185958.250,A,4305.9413,N,07725.9459,W,29.66,186.77,170721,,,A*4E
$GPGGA,185958.500,4305.9392,N,07725.9462,W,1,05,1.62,158.1,M,-34.3,M,,*5A
$GPRMC,185958.750,A,4305.9372,N,07725.9466,W,29.62,187.18,170721,,,A*4B
$GPGGA,185959.000,4305.9352,N,07725.9468,W,1,05,1.62,158.3,M,-34.3,M,,*5A
$GPRMC,185959.250,A,4305.9332,N,07725.9471,W,29.55,187.74,170721,,,A*43
$GPGGA,185959.500,4305.9311,N,07725.9474,W,1,05,1.62,158.3,M,-34.3,M,,*55
$GPRMC,185959.750,A,4305.9291,N,07725.9478,W,29.52,187.65,170721,,,A*40
$GPGGA,190000.000,4305.9270,N,07725.9481,W,1,05,1.62,158.5,M,-34.3,M,,*5B
$GPRMC,190000.250,A,4305.9250,N,07725.9485,W,29.51,187.47,170721,,,A*48
$GPGGA,190000.500,4305.9230,N,07725.9488,W,1,05,1.62,158.7,M,-34.3,M,,*51
$GPRMC,190000.750,A,4305.9209,N,07725.9491,W,29.41,187.05,170721,,,A*43
$GPGGA,190001.000,4305.9189,N,07725.9495,W,1,05,1.62,158.9,M,-34.3,M,,*56
$GPRMC,190001.250,A,4305.9169,N,07725.9497,W,29.14,186.77,170721,,,A*40
$GPGGA,190001.500,4305.9149,N,07725.9500,W,1,05,1.62,159.0,M,-34.3,M,,*5A
$GPRMC,190001.750,A,4305.9129,N,07725.9502,W,29.14,186.81,170721,,,A*45
$GPGGA,190002.000,4305.9109,N,07725.9506,W,1,05,1.62,159.2,M,-34.3,M,,*5C
$GPRMC,190002.250,A,4305.9089,N,07725.9508,W,29.18,186.78,170721,,,A*48
$GPGGA,190002.500,4305.9069,N,07725.9511,W,1,05,1.63,159.3,M,-34.3,M,,*58
$GPRMC,190002.750,A,4305.9049,N,07725.9514,W,28.94,186.60,170721,,,A*40
$GPGGA,190003.000,4305.9029,N,07725.9516,W,1,05,1.62,159.5,M,-34.3,M,,*58
$GPRMC,190003.250,A,4305.9010,N,07725.9519,W,28.57,186.33,170721,,,A*4C
$GPGGA,190003.500,4305.8990,N,07725.9522,W,1,05,1.62,159.7,M,-34.3,M,,*52
$GPRMC,190003.750,A,4305.8970,N,07725.9525,W,28.54,186.69,170721,,,A*44
$GPGGA,190004.000,4305.8951,N,07725.9528,W,1,05,1.62,159.9,M,-34.3,M,,*59
$GPRMC,190004.250,A,4305.8931,N,07725.9531,W,28.52,186.78,170721,,,A*40
$GPGGA,190004.500,4305.8911,N,07725.9535,W,1,05,1.62,160.2,M,-34.3,M,,*55
$GPRMC,190004.750,A,4305.8891,N,07725.9538,W,28.52,187.25,170721,,,A*4E
$GPGGA,190005.000,4305.8871,N,07725.9542,W,1,05,1.62,160.4,M,-34.3,M,,*50
$GPRMC,190005.250,A,4305.8851,N,07725.9545,W,28.54,187.36,170721,,,A*48
$GPGGA,190005.500,4305.8831,N,07725.9548,W,1,05,1.62,160.7,M,-34.3,M,,*58
$GPRMC,190005.750,A,4305.8812,N,07725.9551,W,28.16,187.24,170721,,,A*4A
$GPGGA,190006.000,4305.8793,N,07725.9555,W,1,05,1.62,160.9,M,-34.3,M,,*5B
$GPRMC,190006.250,A,4305.8774,N,07725.9559,W,28.15,188.22,170721,,,A*41
$GPGGA,190006.500,4305.8756,N,07725.9563,W,1,05,1.62,161.2,M,-34.3,M,,*58
$GPRMC,190006.750,A,4305.8737,N,07725.9567,W,27.07,188.92,170721,,,A*49
$GPGGA,190007.000,4305.8719,N,07725.9572,W,1,05,1.62,161.5,M,-34.3,M,,*50
$GPRMC,190007.250,A,4305.8701,N,07725.9576,W,26.61,189.58,170721,,,A*4E
$GPGGA,190007.500,4305.8683,N,07725.9581,W,1,05,1.62,161.8,M,-34.3,M,,*56
$GPRMC,190007.750,A,4305.8665,N,07725.9586,W,26.21,190.72,170721,,,A*43
$GPGGA,190008.000,4305.8646,N,07725.9591,W,1,05,1.62,162.2,M,-34.3,M,,*5D
$GPRMC,190008.250,A,4305.8628,N,07725.9597,W,26.02,191.60,170721,,,A*43
$GPGGA,190008.500,4305.8609,N,07725.9602,W,1,05,1.62,162.5,M,-34.3,M,,*5D
$GPRMC,190008.750,A,4305.8592,N,07725.9608,W,25.77,192.57,170721,,,A*47
$GPGGA,190009.000,4305.8574,N,07725.9614,W,1,05,1.62,162.7,M,-34.3,M,,*55
$GPRMC,190009.250,A,4305.8556,N,07725.9619,W,23.87,192.73,170721,,,A*44
$GPGGA,190009.500,4305.8539,N,07725.9624,W,1,05,1.62,162.6,M,-34.3,M,,*5B
$GPRMC,190009.750,A,4305.8522,N,07725.9628,W,23.65,193.10,170721,,,A*48
$GPGGA,190010.000,4305.8506,N,07725.9633,W,1,05,1.62,162.5,M,-34.3,M,,*5F
$GPRMC,190010.250,A,4305.8490,N,07725.9638,W,23.25,193.41,170721,,,A*4C
$GPGGA,190010.500,4305.8475,N,07725.9642,W,1,05,1.62,162.3,M,-34.3,M,,*5F
$GPRMC,190010.750,A,4305.8460,N,07725.9647,W,22.80,193.97,170721,,,A*4B
$GPGGA,190011.000,4305.8445,N,07725.9652,W,1,05,1.62,162.3,M,-34.3,M,,*59
$GPRMC,190011.250,A,4305.8430,N,07725.9657,W,22.05,195.11,170721,,,A*4E
$GPGGA,190011.500,4305.8417,N,07725.9661,W,1,05,1.62,162.1,M,-34.3,M,,*59
$GPRMC,190011.750,A,4305.8403,N,07725.9665,W,21.30,195.96,170721,,,A*40
$GPGGA,190012.000,4305.8390,N,07725.9670,W,1,05,1.62,161.9,M,-34.3,M,,*5C
$GPRMC,190012.250,A,4305.8377,N,07725.9674,W,20.48,197.15,170721,,,A*45
$GPGGA,190012.500,4305.8364,N,07725.9679,W,1,05,1.81,161.8,M,-34.3,M,,*57
$GPRMC,190012.750,A,4305.8351,N,07725.9684,W,19.95,198.36,170721,,,A*4F
$GPGGA,190013.000,4305.8339,N,07725.9689,W,1,05,1.62,161.6,M,-34.3,M,,*57
$GPRMC,190013.250,A,4305.8326,N,07725.9695,W,19.70,199.57,170721,,,A*46
$GPGGA,190013.500,4305.8313,N,07725.9701,W,1,05,1.62,161.5,M,-34.3,M,,*58
$GPRMC,190013.750,A,4305.8300,N,07725.9707,W,20.14,200.46,170721,,,A*46
$GPGGA,190014.000,4305.8287,N,07725.9714,W,1,05,1.63,161.3,M,-34.3,M,,*55
$GPRMC,190014.250,A,4305.8274,N,07725.9721,W,20.48,202.07,170721,,,A*4C
$GPGGA,190014.500,4305.8260,N,07725.9728,W,1,05,1.81,161.1,M,-34.3,M,,*58
$GPRMC,190014.750,A,4305.8248,N,07725.9736,W,20.67,203.37,170721,,,A*4F
$GPGGA,190015.000,4305.8235,N,07725.9743,W,1,05,1.62,161.0,M,-34.3,M,,*5D
$GPRMC,190015.250,A,4305.8222,N,07725.9751,W,20.69,205.10,170721,,,A*4B
$GPGGA,190015.500,4305.8210,N,07725.9759,W,1,05,1.81,160.8,M,-34.3,M,,*50
$GPRMC,190015.750,A,4305.8197,N,07725.9767,W,20.67,206.29,170721,,,A*41
$GPGGA,190016.000,4305.8186,N,07725.9775,W,1,05,1.62,160.7,M,-34.3,M,,*56
$GPRMC,190016.250,A,4305.8174,N,07725.9784,W,19.84,208.15,170721,,,A*41
$GPGGA,190016.500,4305.8163,N,07725.9792,W,1,05,1.81,160.6,M,-34.3,M,,*5D
$GPRMC,190016.750,A,4305.8152,N,07725.9800,W,19.19,208.09,170721,,,A*4A
$GPGGA,190017.000,4305.8141,N,07725.9807,W,1,05,1.62,160.5,M,-34.3,M,,*54
$GPRMC,190017.250,A,4305.8131,N,07725.9814,W,17.91,207.31,170721,,,A*44
$GPGGA,190017.500,4305.8121,N,07725.9820,W,1,05,1.62,160.3,M,-34.3,M,,*54
$GPRMC,190017.750,A,4305.8111,N,07725.9826,W,16.89,205.35,170721,,,A*4C
$GPGGA,190018.000,4305.8101,N,07725.9832,W,1,05,1.62,160.2,M,-34.3,M,,*5E
$GPRMC,190018.250,A,4305.8091,N,07725.9836,W,15.88,201.03,170721,,,A*4D
$GPGGA,190018.500,4305.8081,N,07725.9839,W,1,05,1.62,160.1,M,-34.3,M,,*5A
$GPRMC,190018.750,A,4305.8071,N,07725.9843,W,15.71,195.95,170721,,,A*43
$GPGGA,190019.000,4305.8060,N,07725.9846,W,1,05,1.62,160.0,M,-34.3,M,,*58
$GPRMC,190019.250,A,4305.8050,N,07725.9848,W,16.04,191.03,170721,,,A*45
$GPGGA,190019.500,4305.8038,N,07725.9849,W,1,05,1.62,160.0,M,-34.3,M,,*5F
$GPRMC,190019.750,A,4305.8027,N,07725.9850,W,16.58,185.25,170721,,,A*41
$GPGGA,190020.000,4305.8016,N,07725.9848,W,1,05,1.62,159.9,M,-34.3,M,,*5E
$GPRMC,190020.250,A,4305.8004,N,07725.9846,W,16.96,178.60,170721,,,A*49
$GPGGA,190020.500,4305.7991,N,07725.9842,W,1,05,1.62,159.8,M,-34.3,M,,*59
$GPRMC,190020.750,A,4305.7979,N,07725.9839,W,17.96,172.54,170721,,,A*44
$GPGGA,190021.000,4305.7968,N,07725.9834,W,1,04,2.23,159.8,M,-34.3,M,,*5D
$GPRMC,190021.250,A,4305.7957,N,07725.9829,W,17.94,168.08,170721,,,A*4D
$GPGGA,190021.500,4305.7945,N,07725.9824,W,1,05,1.62,159.7,M,-34.3,M,,*5E
$GPRMC,190021.750,A,4305.7934,N,07725.9819,W,17.96,165.17,170721,,,A*4F
$GPGGA,190022.000,4305.7922,N,07725.9812,W,1,05,1.62,159.7,M,-34.3,M,,*5C
$GPRMC,190022.250,A,4305.7911,N,07725.9805,W,18.30,161.73,170721,,,A*46
$GPGGA,190022.500,4305.7897,N,07725.9794,W,1,04,2.23,159.6,M,-34.3,M,,*51
$GPRMC,190022.750,A,4305.7883,N,07725.9784,W,20.21,156.31,170721,,,A*46
$GPGGA,190023.000,4305.7869,N,07725.9773,W,1,05,1.63,159.5,M,-34.3,M,,*58
$GPRMC,190023.250,A,4305.7854,N,07725.9760,W,22.38,152.37,170721,,,A*4A
$GPGGA,190023.500,4305.7841,N,07725.9747,W,1,05,1.62,159.5,M,-34.3,M,,*51
$GPRMC,190023.750,A,4305.7828,N,07725.9735,W,22.63,149.65,170721,,,A*47
$GPGGA,190024.000,4305.7815,N,07725.9723,W,1,04,2.24,159.4,M,-34.3,M,,*51
$GPRMC,190024.250,A,4305.7803,N,07725.9710,W,22.73,147.81,170721,,,A*4E
$GPGGA,190024.500,4305.7789,N,07725.9697,W,1,04,2.24,159.4,M,-34.3,M,,*50
$GPRMC,190024.750,A,4305.7777,N,07725.9683,W,23.25,145.90,170721,,,A*4C
$GPGGA,190025.000,4305.7764,N,07725.9670,W,1,05,1.62,159.4,M,-34.3,M,,*5E
$GPRMC,190025.250,A,4305.7752,N,07725.9657,W,23.19,144.83,170721,,,A*4A
$GPGGA,190025.500,4305.7739,N,07725.9644,W,1,05,1.62,159.5,M,-34.3,M,,*55
$GPRMC,190025.750,A,4305.7726,N,07725.9631,W,23.16,144.72,170721,,,A*4D
$GPGGA,190026.000,4305.7714,N,07725.9619,W,1,05,1.62,159.5,M,-34.3,M,,*54
$GPRMC,190026.250,A,4305.7701,N,07725.9606,W,23.09,144.88,170721,,,A*41
$GPGGA,190026.500,4305.7687,N,07725.9595,W,1,05,1.63,159.5,M,-34.3,M,,*5C
$GPRMC,190026.750,A,4305.7673,N,07725.9583,W,23.07,145.91,170721,,,A*49
$GPGGA,190027.000,4305.7660,N,07725.9572,W,1,05,1.62,159.6,M,-34.3,M,,*5A
$GPRMC,190027.250,A,4305.7646,N,07725.9560,W,23.04,146.77,170721,,,A*4E
$GPGGA,190027.500,4305.7631,N,07725.9549,W,1,05,1.62,159.6,M,-34.3,M,,*53
$GPRMC,190027.750,A,4305.7617,N,07725.9537,W,23.38,147.42,170721,,,A*45
$GPGGA,190028.000,4305.7603,N,07725.9525,W,1,05,1.62,159.6,M,-34.3,M,,*52
$GPRMC,190028.250,A,4305.7588,N,07725.9513,W,23.48,147.82,170721,,,A*47
$GPGGA,190028.500,4305.7574,N,07725.9501,W,1,05,1.62,159.7,M,-34.3,M,,*53
$GPRMC,190028.750,A,4305.7559,N,07725.9489,W,23.76,148.28,170721,,,A*4E
$GPGGA,190029.000,4305.7544,N,07725.9477,W,1,05,1.62,159.7,M,-34.3,M,,*54
$GPRMC,190029.250,A,4305.7528,N,07725.9465,W,24.35,148.72,170721,,,A*41
$GPGGA,190029.500,4305.7508,N,07725.9458,W,1,05,1.63,159.9,M,-34.3,M,,*5B
$GPRMC,190029.750,A,4305.7492,N,07725.9447,W,24.65,151.68,170721,,,A*42
$GPGGA,190030.000,4305.7478,N,07725.9436,W,1,05,1.62,159.9,M,-34.3,M,,*59
$GPRMC,190030.250,A,4305.7462,N,07725.9424,W,24.40,152.09,170721,,,A*46
$GPGGA,190030.500,4305.7445,N,07725.9413,W,1,05,1.62,160.0,M,-34.3,M,,*56
$GPRMC,190030.750,A,4305.7427,N,07725.9403,W,24.80,153.00,170721,,,A*43
$GPGGA,190031.000,4305.7410,N,07725.9393,W,1,05,1.63,160.0,M,-34.3,M,,*5C
$GPRMC,190031.250,A,4305.7393,N,07725.9383,W,24.73,153.85,170721,,,A*41
$GPGGA,190031.500,4305.7376,N,07725.9374,W,1,05,1.62,160.1,M,-34.3,M,,*57
$GPRMC,190031.750,A,4305.7358,N,07725.9365,W,24.74,155.27,170721,,,A*42
$GPGGA,190032.000,4305.7340,N,07725.9356,W,1,05,1.63,160.1,M,-34.3,M,,*55
$GPRMC,190032.250,A,4305.7321,N,07725.9346,W,25.43,155.94,170721,,,A*46
$GPGGA,190032.500,4305.7302,N,07725.9337,W,1,05,1.63,160.2,M,-34.3,M,,*52
$GPRMC,190032.750,A,4305.7285,N,07725.9328,W,25.67,156.94,170721,,,A*41
$GPGGA,190033.000,4305.7266,N,07725.9319,W,1,05,1.62,160.3,M,-34.3,M,,*59
$GPRMC,190033.250,A,4305.7248,N,07725.9312,W,25.68,158.37,170721,,,A*45
$GPGGA,190033.500,4305.7227,N,07725.9307,W,1,05,1.62,160.4,M,-34.3,M,,*51
$GPRMC,190033.750,A,4305.7209,N,07725.9300,W,25.22,160.96,170721,,,A*48
$GPGGA,190034.000,4305.7191,N,07725.9295,W,1,05,1.62,160.4,M,-34.3,M,,*57
$GPRMC,190034.250,A,4305.7172,N,07725.9290,W,24.85,163.09,170721,,,A*44
$GPGGA,190034.500,4305.7152,N,07725.9285,W,1,05,1.62,160.5,M,-34.3,M,,*5D
$GPRMC,190034.750,A,4305.7132,N,07725.9280,W,25.52,165.26,170721,,,A*44
$GPGGA,190035.000,4305.7111,N,07725.9275,W,1,05,1.62,160.6,M,-34.3,M,,*52
$GPRMC,190035.250,A,4305.7090,N,07725.9272,W,26.02,167.71,170721,,,A*42
$GPGGA,190035.500,4305.7069,N,07725.9269,W,1,05,1.62,160.7,M,-34.3,M,,*55
$GPRMC,190035.750,A,4305.7048,N,07725.9266,W,26.49,170.42,170721,,,A*4E
$GPGGA,190036.000,4305.7026,N,07725.9264,W,1,05,1.63,160.8,M,-34.3,M,,*5B
$GPRMC,190036.250,A,4305.7006,N,07725.9261,W,26.70,171.94,170721,,,A*45
$GPGGA,190036.500,4305.6985,N,07725.9260,W,1,05,1.62,160.9,M,-34.3,M,,*5B
$GPRMC,190036.750,A,4305.6964,N,07725.9257,W,26.88,172.92,170721,,,A*4B
$GPGGA,190037.000,4305.6943,N,07725.9256,W,1,05,1.62,161.0,M,-34.3,M,,*58
$GPRMC,190037.250,A,4305.6922,N,07725.9255,W,26.87,174.19,170721,,,A*45
$GPGGA,190037.500,4305.6901,N,07725.9254,W,1,05,1.63,161.1,M,-34.3,M,,*59
$GPRMC,190037.750,A,4305.6879,N,07725.9253,W,27.18,175.24,170721,,,A*41
$GPGGA,190038.000,4305.6858,N,07725.9253,W,1,05,1.62,161.2,M,-34.3,M,,*5B
$GPRMC,190038.250,A,4305.6837,N,07725.9255,W,26.45,178.43,170721,,,A*42
$GPGGA,190038.500,4305.6815,N,07725.9255,W,1,05,1.62,161.3,M,-34.3,M,,*50
$GPRMC,190038.750,A,4305.6792,N,07725.9255,W,27.39,178.16,170721,,,A*4D
$GPGGA,190039.000,4305.6768,N,07725.9255,W,1,05,1.63,161.5,M,-34.3,M,,*56
$GPRMC,190039.250,A,4305.6743,N,07725.9257,W,28.79,178.45,170721,,,A*4A
$GPGGA,190039.500,4305.6719,N,07725.9258,W,1,05,1.62,161.6,M,-34.3,M,,*5A
$GPRMC,190039.750,A,4305.6697,N,07725.9257,W,29.34,178.47,170721,,,A*4D
$GPGGA,190040.000,4305.6675,N,07725.9257,W,1,05,1.63,161.8,M,-34.3,M,,*5A
$GPRMC,190040.250,A,4305.6651,N,07725.9257,W,29.94,178.44,170721,,,A*45
$GPGGA,190040.500,4305.6626,N,07725.9259,W,1,05,1.63,161.9,M,-34.3,M,,*56
$GPRMC,190040.750,A,4305.6602,N,07725.9259,W,30.51,179.66,170721,,,A*48
$GPGGA,190041.000,4305.6571,N,07725.9264,W,1,05,1.63,162.1,M,-34.3,M,,*56
$GPRMC,190041.250,A,4305.6547,N,07725.9264,W,31.42,180.06,170721,,,A*43
$GPGGA,190041.500,4305.6525,N,07725.9262,W,1,05,1.63,162.2,M,-34.3,M,,*57
$GPRMC,190041.750,A,4305.6503,N,07725.9262,W,31.11,179.38,170721,,,A*4D
$GPGGA,190042.000,4305.6481,N,07725.9261,W,1,05,1.62,162.4,M,-34.3,M,,*5A
$GPRMC,190042.250,A,4305.6459,N,07725.9260,W,31.05,178.71,170721,,,A*4E
$GPGGA,190042.500,4305.6436,N,07725.9257,W,1,05,1.62,162.6,M,-34.3,M,,*54
$GPRMC,190042.750,A,4305.6414,N,07725.9257,W,31.10,178.42,170721,,,A*42
$GPGGA,190043.000,4305.6392,N,07725.9256,W,1,05,1.63,162.8,M,-34.3,M,,*57
$GPRMC,190043.250,A,4305.6370,N,07725.9256,W,30.78,178.66,170721,,,A*4B
$GPGGA,190043.500,4305.6346,N,07725.9256,W,1,05,1.63,163.0,M,-34.3,M,,*52
$GPRMC,190043.750,A,4305.6319,N,07725.9256,W,30.58,179.08,170721,,,A*4A
$GPGGA,190044.000,4305.6295,N,07725.9257,W,1,05,1.63,163.1,M,-34.3,M,,*5F
$GPRMC,190044.250,A,4305.6270,N,07725.9259,W,30.71,179.45,170721,,,A*4B
$GPGGA,190044.500,4305.6246,N,07725.9260,W,1,05,1.63,163.4,M,-34.3,M,,*55
$GPRMC,190044.750,A,4305.6223,N,07725.9261,W,30.93,180.01,170721,,,A*49
$GPGGA,190045.000,4305.6200,N,07725.9262,W,1,05,1.62,163.6,M,-34.3,M,,*52
$GPRMC,190045.250,A,4305.6177,N,07725.9263,W,30.98,180.35,170721,,,A*41
$GPGGA,190045.500,4305.6153,N,07725.9264,W,1,05,1.62,163.8,M,-34.3,M,,*5A
$GPRMC,190045.750,A,4305.6130,N,07725.9265,W,31.30,180.16,170721,,,A*43
$GPGGA,190046.000,4305.6105,N,07725.9266,W,1,05,1.63,163.9,M,-34.3,M,,*5D
$GPRMC,190046.250,A,4305.6081,N,07725.9268,W,31.41,180.88,170721,,,A*42
$GPGGA,190046.500,4305.6056,N,07725.9271,W,1,05,1.63,164.1,M,-34.3,M,,*56
$GPRMC,190046.750,A,4305.6032,N,07725.9273,W,31.44,182.22,170721,,,A*42
$GPGGA,190047.000,4305.6007,N,07725.9274,W,1,05,1.62,164.2,M,-34.3,M,,*51
$GPRMC,190047.250,A,4305.5981,N,07725.9277,W,31.56,181.50,170721,,,A*45
$GPGGA,190047.500,4305.5954,N,07725.9280,W,1,05,1.63,164.5,M,-34.3,M,,*55
$GPRMC,190047.750,A,4305.5930,N,07725.9280,W,32.60,181.51,170721,,,A*45
$GPGGA,190048.000,4305.5907,N,07725.9280,W,1,05,1.62,164.7,M,-34.3,M,,*5A
$GPRMC,190048.250,A,4305.5883,N,07725.9280,W,32.87,180.83,170721,,,A*41
$GPGGA,190048.500,4305.5859,N,07725.9281,W,1,05,1.63,164.9,M,-34.3,M,,*5B
$GPRMC,190048.750,A,4305.5835,N,07725.9282,W,32.98,180.98,170721,,,A*4F
$GPGGA,190049.000,4305.5811,N,07725.9283,W,1,05,1.62,165.1,M,-34.3,M,,*59
$GPRMC,190049.250,A,4305.5787,N,07725.9284,W,32.97,181.38,170721,,,A*4F
$GPGGA,190049.500,4305.5763,N,07725.9286,W,1,05,1.62,165.3,M,-34.3,M,,*51
$GPRMC,190049.750,A,4305.5740,N,07725.9288,W,32.81,182.17,170721,,,A*44
$GPGGA,190050.000,4305.5716,N,07725.9289,W,1,05,1.63,165.5,M,-34.3,M,,*56
$GPRMC,190050.250,A,4305.5693,N,07725.9290,W,32.80,182.15,170721,,,A*4C
$GPGGA,190050.500,4305.5671,N,07725.9291,W,1,05,1.63,165.8,M,-34.3,M,,*57
$GPRMC,190050.750,A,4305.5647,N,07725.9292,W,32.68,181.92,170721,,,A*48
$GPGGA,190051.000,4305.5623,N,07725.9294,W,1,05,1.63,166.1,M,-34.3,M,,*5B
$GPRMC,190051.250,A,4305.5599,N,07725.9296,W,32.66,181.51,170721,,,A*49
$GPGGA,190051.500,4305.5574,N,07725.9298,W,1,05,1.63,166.4,M,-34.3,M,,*56
$GPRMC,190051.750,A,4305.5551,N,07725.9299,W,32.92,180.92,170721,,,A*42
$GPGGA,190052.000,4305.5526,N,07725.9299,W,1,05,1.63,166.6,M,-34.3,M,,*54
$GPRMC,190052.250,A,4305.5502,N,07725.9299,W,33.36,180.49,170721,,,A*4B
$GPGGA,190052.500,4305.5478,N,07725.9301,W,1,05,1.63,166.9,M,-34.3,M,,*54
$GPRMC,190052.750,A,4305.5453,N,07725.9304,W,33.37,180.91,170721,,,A*4A
$GPGGA,190053.000,4305.5428,N,07725.9306,W,1,05,1.63,167.3,M,-34.3,M,,*59
$GPRMC,190053.250,A,4305.5403,N,07725.9308,W,33.26,181.30,170721,,,A*4D
$GPGGA,190053.500,4305.5378,N,07725.9309,W,1,05,1.63,167.6,M,-34.3,M,,*54
$GPRMC,190053.750,A,4305.5354,N,07725.9310,W,33.21,181.25,170721,,,A*47
$GPGGA,190054.000,4305.5330,N,07725.9311,W,1,05,1.62,167.9,M,-34.3,M,,*5D
$GPRMC,190054.250,A,4305.5305,N,07725.9312,W,33.49,181.26,170721,,,A*4E
$GPGGA,190054.500,4305.5281,N,07725.9313,W,1,05,1.63,168.3,M,-34.3,M,,*55
$GPRMC,190054.750,A,4305.5257,N,07725.9312,W,33.35,181.28,170721,,,A*48
$GPGGA,190055.000,4305.5232,N,07725.9313,W,1,05,1.63,168.6,M,-34.3,M,,*5C
$GPRMC,190055.250,A,4305.5207,N,07725.9315,W,33.58,180.78,170721,,,A*41
$GPGGA,190055.500,4305.5182,N,07725.9316,W,1,05,1.62,169.0,M,-34.3,M,,*52
$GPRMC,190055.750,A,4305.5158,N,07725.9315,W,33.79,180.31,170721,,,A*43
$GPGGA,190056.000,4305.5134,N,07725.9315,W,1,05,1.63,169.4,M,-34.3,M,,*5F
$GPRMC,190056.250,A,4305.5109,N,07725.9314,W,34.20,179.16,170721,,,A*48
$GPGGA,190056.500,4305.5084,N,07725.9313,W,1,06,1.38,169.7,M,-34.3,M,,*58
$GPRMC,190056.750,A,4305.5060,N,07725.9312,W,33.94,179.20,170721,,,A*48
$GPGGA,190057.000,4305.5036,N,07725.9311,W,1,06,1.30,170.1,M,-34.3,M,,*51
$GPRMC,190057.250,A,4305.5013,N,07725.9310,W,33.61,179.90,170721,,,A*4B
$GPGGA,190057.500,4305.4989,N,07725.9309,W,1,06,1.38,170.4,M,-34.3,M,,*5C
$GPRMC,190057.750,A,4305.4966,N,07725.9309,W,33.34,179.75,170721,,,A*47
$GPGGA,190058.000,4305.4943,N,07725.9308,W,1,06,1.30,170.6,M,-34.3,M,,*5B
$GPRMC,190058.250,A,4305.4920,N,07725.9308,W,32.68,179.66,170721,,,A*44
$GPGGA,190058.500,4305.4897,N,07725.9307,W,1,06,1.38,171.0,M,-34.3,M,,*56
$GPRMC,190058.750,A,4305.4873,N,07725.9307,W,32.65,179.69,170721,,,A*4B
$GPGGA,190059.000,4305.4850,N,07725.9307,W,1,06,1.38,171.3,M,-34.3,M,,*5A
$GPRMC,190059.250,A,4305.4827,N,07725.9306,W,32.71,179.56,170721,,,A*46
$GPGGA,190059.500,4305.4804,N,07725.9305,W,1,06,1.30,171.6,M,-34.3,M,,*51
$GPRMC,190059.750,A,4305.4781,N,07725.9305,W,32.95,179.42,170721,,,A*4C
$GPGGA,190100.000,4305.4758,N,07725.9304,W,1,06,1.30,171.9,M,-34.3,M,,*51
$GPRMC,190100.250,A,4305.4735,N,07725.9303,W,32.89,179.52,170721,,,A*41
$GPGGA,190100.500,4305.4713,N,07725.9302,W,1,06,1.30,172.2,M,-34.3,M,,*55
$GPRMC,190100.750,A,4305.4690,N,07725.9302,W,32.80,179.68,170721,,,A*4B
$GPGGA,190101.000,4305.4667,N,07725.9301,W,1,06,1.30,172.5,M,-34.3,M,,*57
$GPRMC,190101.250,A,4305.4645,N,07725.9301,W,32.58,179.87,170721,,,A*40
$GPGGA,190101.500,4305.4622,N,07725.9300,W,1,06,1.30,172.7,M,-34.3,M,,*50
$GPRMC,190101.750,A,4305.4600,N,07725.9300,W,32.28,179.81,170721,,,A*44
$GPGGA,190102.000,4305.4577,N,07725.9300,W,1,06,1.30,173.0,M,-34.3,M,,*53
$GPRMC,190102.250,A,4305.4553,N,07725.9299,W,32.43,179.32,170721,,,A*43
$GPGGA,190102.500,4305.4530,N,07725.9299,W,1,06,1.38,173.3,M,-34.3,M,,*5F
$GPRMC,190102.750,A,4305.4506,N,07725.9299,W,32.90,178.90,170721,,,A*41
$GPGGA,190103.000,4305.4481,N,07725.9299,W,1,06,1.30,173.6,M,-34.3,M,,*5D
$GPRMC,190103.250,A,4305.4457,N,07725.9299,W,32.98,178.49,170721,,,A*4C
$GPGGA,190103.500,4305.4432,N,07725.9299,W,1,06,1.38,173.8,M,-34.3,M,,*56
$GPRMC,190103.750,A,4305.4407,N,07725.9298,W,34.08,178.23,170721,,,A*4E
$GPGGA,190104.000,4305.4383,N,07725.9298,W,1,06,1.38,174.1,M,-34.3,M,,*56
$GPRMC,190104.250,A,4305.4357,N,07725.9298,W,34.51,178.29,170721,,,A*48
$GPGGA,190104.500,4305.4331,N,07725.9297,W,1,06,1.38,174.4,M,-34.3,M,,*50
$GPRMC,190104.750,A,4305.4306,N,07725.9297,W,34.92,178.19,170721,,,A*4A
$GPGGA,190105.000,4305.4281,N,07725.9296,W,1,06,1.30,174.8,M,-34.3,M,,*5B
$GPRMC,190105.250,A,4305.4256,N,07725.9296,W,34.90,178.60,170721,,,A*47
$GPGGA,190105.500,4305.4231,N,07725.9296,W,1,06,1.30,175.1,M,-34.3,M,,*5D
$GPRMC,190105.750,A,4305.4208,N,07725.9299,W,33.47,180.84,170721,,,A*46
$GPGGA,190106.000,4305.4186,N,07725.9299,W,1,06,1.30,175.3,M,-34.3,M,,*59
$GPRMC,190106.250,A,4305.4163,N,07725.9298,W,32.49,179.29,170721,,,A*41
$GPGGA,190106.500,4305.4139,N,07725.9298,W,1,06,1.38,175.6,M,-34.3,M,,*54
$GPRMC,190106.750,A,4305.4116,N,07725.9297,W,32.75,179.42,170721,,,A*4B
$GPGGA,190107.000,4305.4093,N,07725.9297,W,1,06,1.30,176.0,M,-34.3,M,,*53
$GPRMC,190107.250,A,4305.4069,N,07725.9297,W,33.16,179.94,170721,,,A*49
$GPGGA,190107.500,4305.4046,N,07725.9297,W,1,06,1.38,176.3,M,-34.3,M,,*55
$GPRMC,190107.750,A,4305.4022,N,07725.9297,W,33.43,180.20,170721,,,A*4A
$GPGGA,190108.000,4305.3998,N,07725.9297,W,1,06,1.38,176.6,M,-34.3,M,,*57
$GPRMC,190108.250,A,4305.3975,N,07725.9297,W,33.51,180.36,170721,,,A*48
$GPGGA,190108.500,4305.3952,N,07725.9297,W,1,06,1.38,177.0,M,-34.3,M,,*53
$GPRMC,190108.750,A,4305.3929,N,07725.9297,W,33.41,180.66,170721,,,A*40
$GPGGA,190109.000,4305.3906,N,07725.9296,W,1,06,1.30,177.4,M,-34.3,M,,*5B
$GPRMC,190109.250,A,4305.3884,N,07725.9296,W,33.17,180.34,170721,,,A*47
$GPGGA,190109.500,4305.3861,N,07725.9295,W,1,06,1.30,177.8,M,-34.3,M,,*51
$GPRMC,190109.750,A,4305.3839,N,07725.9295,W,32.70,180.36,170721,,,A*45
$GPGGA,190110.000,4305.3817,N,07725.9295,W,1,06,1.38,178.1,M,-34.3,M,,*53
$GPRMC,190110.250,A,4305.3794,N,07725.9294,W,32.38,179.80,170721,,,A*46
$GPGGA,190110.500,4305.3772,N,07725.9293,W,1,06,1.38,178.5,M,-34.3,M,,*58
$GPRMC,190110.750,A,4305.3750,N,07725.9292,W,32.02,179.00,170721,,,A*4C
$GPGGA,190111.000,4305.3728,N,07725.9291,W,1,06,1.30,178.8,M,-34.3,M,,*54
$GPRMC,190111.250,A,4305.3706,N,07725.9290,W,31.61,178.78,170721,,,A*41
$GPGGA,190111.500,4305.3684,N,07725.9289,W,1,06,1.38,179.1,M,-34.3,M,,*5F
$GPRMC,190111.750,A,4305.3663,N,07725.9289,W,30.78,179.82,170721,,,A*43
$GPGGA,190112.000,4305.3641,N,07725.9290,W,1,06,1.38,179.2,M,-34.3,M,,*5B
$GPRMC,190112.250,A,4305.3619,N,07725.9290,W,30.52,180.23,170721,,,A*45
$GPGGA,190112.500,4305.3596,N,07725.9290,W,1,06,1.38,179.4,M,-34.3,M,,*51
$GPRMC,190112.750,A,4305.3575,N,07725.9290,W,30.41,180.12,170721,,,A*49
$GPGGA,190113.000,4305.3553,N,07725.9290,W,1,06,1.38,179.6,M,-34.3,M,,*5E
$GPRMC,190113.250,A,4305.3532,N,07725.9290,W,30.16,180.09,170721,,,A*46
$GPGGA,190113.500,4305.3511,N,07725.9290,W,1,06,1.38,179.8,M,-34.3,M,,*53
$GPRMC,190113.750,A,4305.3489,N,07725.9290,W,30.13,180.45,170721,,,A*4F
$GPGGA,190114.000,4305.3468,N,07725.9291,W,1,06,1.38,180.0,M,-34.3,M,,*51
$GPRMC,190114.250,A,4305.3448,N,07725.9291,W,30.00,180.38,170721,,,A*49
$GPGGA,190114.500,4305.3426,N,07725.9291,W,1,06,1.38,180.0,M,-34.3,M,,*5E
$GPRMC,190114.750,A,4305.3405,N,07725.9291,W,30.32,180.60,170721,,,A*49
$GPGGA,190115.000,4305.3383,N,07725.9291,W,1,06,1.38,180.1,M,-34.3,M,,*53
$GPRMC,190115.250,A,4305.3362,N,07725.9291,W,30.64,180.96,170721,,,A*41
$GPGGA,190115.500,4305.3340,N,07725.9292,W,1,06,1.38,180.1,M,-34.3,M,,*5A
$GPRMC,190115.750,A,4305.3321,N,07725.9293,W,30.01,181.27,170721,,,A*49
$GPGGA,190116.000,4305.3301,N,07725.9294,W,1,06,1.38,179.9,M,-34.3,M,,*51
$GPRMC,190116.250,A,4305.3281,N,07725.9294,W,29.66,180.96,170721,,,A*41
$GPGGA,190116.500,4305.3260,N,07725.9295,W,1,06,1.38,179.6,M,-34.3,M,,*5C
$GPRMC,190116.750,A,4305.3240,N,07725.9295,W,29.86,180.01,170721,,,A*48
$GPGGA,190117.000,4305.3219,N,07725.9295,W,1,06,1.30,179.4,M,-34.3,M,,*5C
$GPRMC,190117.250,A,4305.3201,N,07725.9297,W,28.61,181.33,170721,,,A*43
$GPGGA,190117.500,4305.3181,N,07725.9298,W,1,06,1.38,179.1,M,-34.3,M,,*5B
$GPRMC,190117.750,A,4305.3161,N,07725.9298,W,28.72,181.01,170721,,,A*4F
$GPGGA,190118.000,4305.3140,N,07725.9299,W,1,06,1.30,178.9,M,-34.3,M,,*5C
$GPRMC,190118.250,A,4305.3120,N,07725.9300,W,28.38,180.86,170721,,,A*40
$GPGGA,190118.500,4305.3098,N,07725.9300,W,1,06,1.38,178.7,M,-34.3,M,,*5A
$GPRMC,190118.750,A,4305.3077,N,07725.9301,W,28.58,181.16,170721,,,A*49
$GPGGA,190119.000,4305.3055,N,07725.9301,W,1,06,1.30,178.6,M,-34.3,M,,*57
$GPRMC,190119.250,A,4305.3033,N,07725.9302,W,30.86,181.32,170721,,,A*42
$GPGGA,190119.500,4305.3011,N,07725.9303,W,1,06,1.38,178.4,M,-34.3,M,,*5A
$GPRMC,190119.750,A,4305.2989,N,07725.9303,W,31.09,181.23,170721,,,A*49
$GPGGA,190120.000,4305.2967,N,07725.9304,W,1,06,1.30,178.2,M,-34.3,M,,*55
$GPRMC,190120.250,A,4305.2946,N,07725.9304,W,31.26,181.13,170721,,,A*4C
$GPGGA,190120.500,4305.2924,N,07725.9304,W,1,06,1.38,177.9,M,-34.3,M,,*5B
$GPRMC,190120.750,A,4305.2902,N,07725.9304,W,31.24,180.03,170721,,,A*4B
$GPGGA,190121.000,4305.2880,N,07725.9303,W,1,06,1.38,177.7,M,-34.3,M,,*59
$GPRMC,190121.250,A,4305.2858,N,07725.9302,W,31.39,179.09,170721,,,A*47
$GPGGA,190121.500,4305.2837,N,07725.9301,W,1,06,1.38,177.4,M,-34.3,M,,*51
$GPRMC,190121.750,A,4305.2815,N,07725.9300,W,31.31,178.89,170721,,,A*48
$GPGGA,190122.000,4305.2793,N,07725.9299,W,1,06,1.38,177.2,M,-34.3,M,,*50
$GPRMC,190122.250,A,4305.2772,N,07725.9299,W,31.04,178.99,170721,,,A*46
$GPGGA,190122.500,4305.2750,N,07725.9298,W,1,06,1.38,176.9,M,-34.3,M,,*51
$GPRMC,190122.750,A,4305.2729,N,07725.9297,W,30.90,178.78,170721,,,A*40
$GPGGA,190123.000,4305.2706,N,07725.9297,W,1,06,1.30,176.8,M,-34.3,M,,*50
$GPRMC,190123.250,A,4305.2684,N,07725.9297,W,31.01,179.01,170721,,,A*44
$GPGGA,190123.500,4305.2660,N,07725.9297,W,1,06,1.38,176.5,M,-34.3,M,,*51
$GPRMC,190123.750,A,4305.2633,N,07725.9298,W,32.28,179.15,170721,,,A*4F
$GPGGA,190124.000,4305.2608,N,07725.9298,W,1,06,1.38,176.3,M,-34.3,M,,*54
$GPRMC,190124.250,A,4305.2583,N,07725.9298,W,32.84,178.59,170721,,,A*4A
$GPGGA,190124.500,4305.2558,N,07725.9300,W,1,06,1.38,176.0,M,-34.3,M,,*54
$GPRMC,190124.750,A,4305.2534,N,07725.9301,W,32.07,179.46,170721,,,A*46
$GPGGA,190125.000,4305.2509,N,07725.9303,W,1,06,1.38,175.8,M,-34.3,M,,*5C
$GPRMC,190125.250,A,4305.2485,N,07725.9303,W,32.10,179.40,170721,,,A*4B
$GPGGA,190125.500,4305.2462,N,07725.9304,W,1,06,1.38,175.7,M,-34.3,M,,*5D
$GPRMC,190125.750,A,4305.2439,N,07725.9303,W,31.86,178.98,170721,,,A*41
$GPGGA,190126.000,4305.2417,N,07725.9302,W,1,06,1.38,175.7,M,-34.3,M,,*5F
$GPRMC,190126.250,A,4305.2394,N,07725.9302,W,31.63,178.80,170721,,,A*44
$GPGGA,190126.500,4305.2371,N,07725.9302,W,1,06,1.38,175.7,M,-34.3,M,,*5D
$GPRMC,190126.750,A,4305.2349,N,07725.9301,W,31.36,178.84,170721,,,A*46
$GPGGA,190127.000,4305.2327,N,07725.9300,W,1,06,1.38,175.7,M,-34.3,M,,*58
$GPRMC,190127.250,A,4305.2305,N,07725.9300,W,31.29,178.62,170721,,,A*4D
$GPGGA,190127.500,4305.2282,N,07725.9299,W,1,06,1.38,175.7,M,-34.3,M,,*52
$GPRMC,190127.750,A,4305.2260,N,07725.9298,W,31.27,178.67,170721,,,A*41
$GPGGA,190128.000,4305.2238,N,07725.9297,W,1,06,1.38,175.6,M,-34.3,M,,*56
$GPRMC,190128.250,A,4305.2215,N,07725.9297,W,31.30,178.89,170721,,,A*40
$GPGGA,190128.500,4305.2192,N,07725.9297,W,1,06,1.38,175.7,M,-34.3,M,,*51
$GPRMC,190128.750,A,4305.2169,N,07725.9297,W,31.51,179.18,170721,,,A*43
$GPGGA,190129.000,4305.2147,N,07725.9296,W,1,06,1.38,175.8,M,-34.3,M,,*53
$GPRMC,190129.250,A,4305.2125,N,07725.9296,W,31.37,178.92,170721,,,A*4D
$GPGGA,190129.500,4305.2103,N,07725.9295,W,1,06,1.38,175.8,M,-34.3,M,,*55
$GPRMC,190129.750,A,4305.2081,N,07725.9295,W,31.39,179.06,170721,,,A*46
