Vers 81
USE_SERIAL_FEEDBACK=true
DEVELOPMENT_MODE=false
USE_RMC_ONLY=false

$GPRMC,175234.500,A,4308.3019,N,07726.2689,W,0.31,174.41,060921,,,A*73
$GPGGA,175234.750,4308.3020,N,07726.2688,W,1,04,1.74,188.5,M,-34.4,M,,*58
$GPRMC,175235.000,A,4308.3020,N,07726.2688,W,0.20,162.77,060921,,,A*7E
$GPGGA,175235.250,4308.3020,N,07726.2688,W,1,04,1.74,189.1,M,-34.4,M,,*59
$GPRMC,175235.500,A,4308.3021,N,07726.2688,W,0.19,170.70,060921,,,A*74
$GPGGA,175235.750,4308.3021,N,07726.2689,W,1,04,1.74,189.4,M,-34.4,M,,*59
$GPRMC,175236.000,A,4308.3022,N,07726.2689,W,0.11,206.52,060921,,,A*7A
$GPGGA,175236.250,4308.3023,N,07726.2689,W,1,04,1.74,188.7,M,-34.4,M,,*5F
$GPRMC,175236.500,A,4308.3024,N,07726.2689,W,0.03,264.40,060921,,,A*7D
$GPGGA,175236.750,4308.3025,N,07726.2689,W,1,04,1.74,187.6,M,-34.4,M,,*52
$GPRMC,175237.000,A,4308.3026,N,07726.2688,W,0.08,295.03,060921,,,A*78
$GPGGA,175237.250,4308.3027,N,07726.2689,W,1,04,1.74,185.9,M,-34.4,M,,*59
$GPRMC,175237.500,A,4308.3028,N,07726.2688,W,0.08,275.35,060921,,,A*78
$GPGGA,175237.750,4308.3029,N,07726.2688,W,1,04,1.74,184.4,M,-34.4,M,,*5F
$GPRMC,175238.000,A,4308.3029,N,07726.2689,W,0.09,284.11,060921,,,A*7B
$GPGGA,175238.250,4308.3030,N,07726.2690,W,1,04,1.74,185.4,M,-34.4,M,,*55
$GPRMC,175238.500,A,4308.3031,N,07726.2691,W,0.07,326.73,060921,,,A*7D
$GPGGA,175238.750,4308.3031,N,07726.2692,W,1,04,1.74,186.4,M,-34.4,M,,*50
$GPRMC,175239.000,A,4308.3032,N,07726.2693,W,0.11,358.21,060921,,,A*71
$GPGGA,175239.250,4308.3032,N,07726.2694,W,1,04,2.29,187.2,M,-34.4,M,,*5D
$GPRMC,175239.500,A,4308.3033,N,07726.2695,W,0.06,302.23,060921,,,A*78
$GPGGA,175239.750,4308.3034,N,07726.2697,W,1,04,1.74,188.1,M,-34.4,M,,*5A
$GPRMC,175240.000,A,4308.3034,N,07726.2697,W,0.08,34.90,060921,,,A*46
$GPGGA,175240.250,4308.3034,N,07726.2698,W,1,04,1.74,188.9,M,-34.4,M,,*56
$GPRMC,175240.500,A,4308.3034,N,07726.2698,W,0.09,98.93,060921,,,A*48
$GPGGA,175240.750,4308.3035,N,07726.2697,W,1,04,1.74,188.3,M,-34.4,M,,*57
$GPRMC,175241.000,A,4308.3035,N,07726.2697,W,0.15,127.91,060921,,,A*78
$GPGGA,175241.250,4308.3036,N,07726.2697,W,1,04,1.74,187.6,M,-34.4,M,,*5A
$GPRMC,175241.500,A,4308.3036,N,07726.2697,W,0.17,115.74,060921,,,A*76
$GPGGA,175241.750,4308.3036,N,07726.2697,W,1,04,1.74,187.0,M,-34.4,M,,*59
$GPRMC,175242.000,A,4308.3037,N,07726.2696,W,0.14,118.98,060921,,,A*7C
$GPGGA,175242.250,4308.3037,N,07726.2696,W,1,04,1.74,186.4,M,-34.4,M,,*5A
$GPRMC,175242.500,A,4308.3038,N,07726.2696,W,0.09,114.22,060921,,,A*77
$GPGGA,175242.750,4308.3039,N,07726.2697,W,1,04,1.74,185.9,M,-34.4,M,,*5E
$GPRMC,175243.000,A,4308.3040,N,07726.2697,W,0.03,124.38,060921,,,A*7F
$GPGGA,175243.250,4308.3040,N,07726.2698,W,1,04,1.74,186.1,M,-34.4,M,,*50
$GPRMC,175243.500,A,4308.3040,N,07726.2697,W,0.15,129.88,060921,,,A*7B
$GPGGA,175243.750,4308.3041,N,07726.2698,W,1,04,1.74,186.1,M,-34.4,M,,*54
$GPRMC,175244.000,A,4308.3041,N,07726.2698,W,0.11,104.98,060921,,,A*7D
$GPGGA,175244.250,4308.3042,N,07726.2697,W,1,04,1.74,185.9,M,-34.4,M,,*51
$GPRMC,175244.500,A,4308.3041,N,07726.2696,W,0.16,101.04,060921,,,A*71
$GPGGA,175244.750,4308.3041,N,07726.2695,W,1,04,1.74,185.7,M,-34.4,M,,*5B
$GPRMC,175245.000,A,4308.3041,N,07726.2695,W,0.19,126.77,060921,,,A*78
$GPGGA,175245.250,4308.3040,N,07726.2694,W,1,04,1.74,185.4,M,-34.4,M,,*5C
$GPRMC,175245.500,A,4308.3041,N,07726.2694,W,0.14,116.71,060921,,,A*74
$GPGGA,175245.750,4308.3041,N,07726.2694,W,1,04,1.74,185.6,M,-34.4,M,,*5A
$GPRMC,175246.000,A,4308.3041,N,07726.2694,W,0.18,81.29,060921,,,A*4C
$GPGGA,175246.250,4308.3042,N,07726.2694,W,1,04,1.74,185.9,M,-34.4,M,,*50
$GPRMC,175246.500,A,4308.3042,N,07726.2694,W,0.24,57.98,060921,,,A*44
$GPGGA,175246.750,4308.3043,N,07726.2695,W,1,04,1.74,186.5,M,-34.4,M,,*5A
$GPRMC,175247.000,A,4308.3044,N,07726.2696,W,0.29,29.30,060921,,,A*42
$GPGGA,175247.250,4308.3045,N,07726.2697,W,1,04,1.74,187.1,M,-34.4,M,,*5F
$GPRMC,175247.500,A,4308.3045,N,07726.2697,W,0.22,3.47,060921,,,A*74
$GPGGA,175247.750,4308.3045,N,07726.2696,W,1,04,2.28,187.6,M,-34.4,M,,*56
$GPRMC,175248.000,A,4308.3047,N,07726.2697,W,0.41,13.78,060921,,,A*44
$GPGGA,175248.250,4308.3047,N,07726.2698,W,1,04,2.28,188.2,M,-34.4,M,,*5B
$GPRMC,175248.500,A,4308.3048,N,07726.2698,W,0.48,16.32,060921,,,A*43
$GPGGA,175248.750,4308.3048,N,07726.2698,W,1,04,1.74,188.7,M,-34.4,M,,*5E
$GPRMC,175249.000,A,4308.3048,N,07726.2697,W,0.35,30.02,060921,,,A*45
$GPGGA,175249.250,4308.3049,N,07726.2697,W,1,04,1.74,188.5,M,-34.4,M,,*56
$GPRMC,175249.500,A,4308.3049,N,07726.2697,W,0.28,27.33,060921,,,A*49
$GPGGA,175249.750,4308.3050,N,07726.2697,W,1,04,1.74,188.4,M,-34.4,M,,*5A
$GPRMC,175250.000,A,4308.3050,N,07726.2698,W,0.23,19.23,060921,,,A*44
$GPGGA,175250.250,4308.3051,N,07726.2698,W,1,04,1.74,188.1,M,-34.4,M,,*5C
$GPRMC,175250.500,A,4308.3051,N,07726.2699,W,0.20,0.23,060921,,,A*7A
$GPGGA,175250.750,4308.3052,N,07726.2699,W,1,04,2.28,187.6,M,-34.4,M,,*59
$GPRMC,175251.000,A,4308.3053,N,07726.2699,W,0.28,357.11,060921,,,A*74
$GPGGA,175251.250,4308.3054,N,07726.2699,W,1,04,2.28,187.1,M,-34.4,M,,*5C
$GPRMC,175251.500,A,4308.3055,N,07726.2699,W,0.25,359.35,060921,,,A*72
$GPGGA,175251.750,4308.3056,N,07726.2699,W,1,04,2.28,186.2,M,-34.4,M,,*59
$GPRMC,175252.000,A,4308.3057,N,07726.2700,W,0.25,334.27,060921,,,A*7F
$GPGGA,175252.250,4308.3057,N,07726.2700,W,1,04,1.74,185.3,M,-34.4,M,,*57
$GPRMC,175252.500,A,4308.3058,N,07726.2699,W,0.22,328.77,060921,,,A*7B
$GPGGA,175252.750,4308.3058,N,07726.2699,W,1,04,1.74,184.3,M,-34.4,M,,*5D
$GPRMC,175253.000,A,4308.3059,N,07726.2697,W,0.24,6.32,060921,,,A*78
$GPGGA,175253.250,4308.3059,N,07726.2697,W,1,04,2.27,183.2,M,-34.4,M,,*55
$GPRMC,175253.500,A,4308.3059,N,07726.2696,W,0.17,8.70,060921,,,A*74
$GPGGA,175253.750,4308.3060,N,07726.2695,W,1,04,2.27,182.0,M,-34.4,M,,*5B
$GPRMC,175254.000,A,4308.3060,N,07726.2694,W,0.15,12.73,060921,,,A*44
$GPGGA,175254.250,4308.3060,N,07726.2693,W,1,04,2.27,180.4,M,-34.4,M,,*59
$GPRMC,175254.500,A,4308.3060,N,07726.2692,W,0.16,18.71,060921,,,A*4C
$GPGGA,175254.750,4308.3061,N,07726.2692,W,1,04,1.74,178.9,M,-34.4,M,,*53
$GPRMC,175255.000,A,4308.3062,N,07726.2692,W,0.22,346.84,060921,,,A*7F
$GPGGA,175255.250,4308.3062,N,07726.2691,W,1,04,2.27,177.2,M,-34.4,M,,*56
$GPRMC,175255.500,A,4308.3063,N,07726.2690,W,0.23,352.48,060921,,,A*7D
$GPGGA,175255.750,4308.3062,N,07726.2689,W,1,04,2.27,175.8,M,-34.4,M,,*52
$GPRMC,175256.000,A,4308.3062,N,07726.2689,W,0.08,278.98,060921,,,A*7F
$GPGGA,175256.250,4308.3062,N,07726.2688,W,1,04,1.74,174.4,M,-34.4,M,,*5D
$GPRMC,175256.500,A,4308.3062,N,07726.2688,W,0.09,254.19,060921,,,A*7D
$GPGGA,175256.750,4308.3063,N,07726.2687,W,1,04,1.74,172.9,M,-34.4,M,,*5D
$GPRMC,175257.000,A,4308.3063,N,07726.2687,W,0.13,276.12,060921,,,A*77
$GPGGA,175257.250,4308.3064,N,07726.2687,W,1,04,1.74,171.7,M,-34.4,M,,*53
$GPRMC,175257.500,A,4308.3064,N,07726.2687,W,0.12,276.77,060921,,,A*77
$GPGGA,175257.750,4308.3064,N,07726.2687,W,1,04,1.74,170.6,M,-34.4,M,,*56
$GPRMC,175258.000,A,4308.3064,N,07726.2686,W,0.19,237.29,060921,,,A*79
$GPGGA,175258.250,4308.3064,N,07726.2686,W,1,04,1.74,169.6,M,-34.4,M,,*55
$GPRMC,175258.500,A,4308.3064,N,07726.2685,W,0.10,215.51,060921,,,A*79
$GPGGA,175258.750,4308.3064,N,07726.2685,W,1,04,1.74,168.6,M,-34.4,M,,*52
$GPRMC,175259.000,A,4308.3065,N,07726.2685,W,0.10,239.82,060921,,,A*7C
$GPGGA,175259.250,4308.3065,N,07726.2685,W,1,04,1.74,167.7,M,-34.4,M,,*59
$GPRMC,175259.500,A,4308.3065,N,07726.2685,W,0.12,244.60,060921,,,A*7D
$GPGGA,175259.750,4308.3065,N,07726.2684,W,1,04,1.74,166.8,M,-34.4,M,,*53
$GPRMC,175300.000,A,4308.3065,N,07726.2684,W,0.09,235.12,060921,,,A*7D
$GPGGA,175300.250,4308.3065,N,07726.2684,W,1,04,1.74,165.7,M,-34.4,M,,*57
$GPRMC,175300.500,A,4308.3066,N,07726.2684,W,0.04,281.10,060921,,,A*7B
$GPGGA,175300.750,4308.3066,N,07726.2684,W,1,04,1.74,165.0,M,-34.4,M,,*56
$GPRMC,175301.000,A,4308.3067,N,07726.2684,W,0.12,318.45,060921,,,A*78
$GPGGA,175301.250,4308.3067,N,07726.2684,W,1,04,1.74,164.1,M,-34.4,M,,*53
$GPRMC,175301.500,A,4308.3068,N,07726.2684,W,0.17,301.24,060921,,,A*78
$GPGGA,175301.750,4308.3068,N,07726.2684,W,1,04,1.74,163.3,M,-34.4,M,,*5C
$GPRMC,175302.000,A,4308.3069,N,07726.2684,W,0.16,338.11,060921,,,A*72
$GPGGA,175302.250,4308.3069,N,07726.2685,W,1,05,1.60,164.4,M,-34.4,M,,*5E
$GPRMC,175302.500,A,4308.3069,N,07726.2686,W,0.15,350.26,060921,,,A*7C
$GPGGA,175302.750,4308.3069,N,07726.2688,W,1,05,1.65,166.8,M,-34.4,M,,*5D
$GPRMC,175303.000,A,4308.3070,N,07726.2689,W,0.18,329.18,060921,,,A*71
$GPGGA,175303.250,4308.3070,N,07726.2690,W,1,05,1.60,168.1,M,-34.4,M,,*5A
$GPRMC,175303.500,A,4308.3070,N,07726.2691,W,0.18,346.75,060921,,,A*7F
$GPGGA,175303.750,4308.3070,N,07726.2691,W,1,05,1.65,169.2,M,-34.4,M,,*59
$GPRMC,175304.000,A,4308.3070,N,07726.2692,W,0.15,7.50,060921,,,A*72
$GPGGA,175304.250,4308.3070,N,07726.2692,W,1,05,1.65,169.9,M,-34.4,M,,*53
$GPRMC,175304.500,A,4308.3070,N,07726.2693,W,0.12,348.31,060921,,,A*7E
$GPGGA,175304.750,4308.3070,N,07726.2694,W,1,05,1.65,170.2,M,-34.4,M,,*53
$GPRMC,175305.000,A,4308.3070,N,07726.2694,W,0.12,313.51,060921,,,A*75
$GPGGA,175305.250,4308.3069,N,07726.2694,W,1,05,1.60,170.4,M,-34.4,M,,*5C
$GPRMC,175305.500,A,4308.3069,N,07726.2694,W,0.07,258.64,060921,,,A*74
$GPGGA,175305.750,4308.3069,N,07726.2694,W,1,05,1.60,170.5,M,-34.4,M,,*58
$GPRMC,175306.000,A,4308.3069,N,07726.2694,W,0.17,205.87,060921,,,A*76
$GPGGA,175306.250,4308.3069,N,07726.2694,W,1,05,1.60,170.5,M,-34.4,M,,*5E
$GPRMC,175306.500,A,4308.3069,N,07726.2694,W,0.24,205.08,060921,,,A*74
$GPGGA,175306.750,4308.3069,N,07726.2695,W,1,05,1.60,170.5,M,-34.4,M,,*5A
$GPRMC,175307.000,A,4308.3069,N,07726.2695,W,0.23,196.13,060921,,,A*75
$GPGGA,175307.250,4308.3069,N,07726.2695,W,1,05,1.60,170.5,M,-34.4,M,,*5E
$GPRMC,175307.500,A,4308.3068,N,07726.2695,W,0.12,192.33,060921,,,A*75
$GPGGA,175307.750,4308.3068,N,07726.2695,W,1,05,1.60,170.5,M,-34.4,M,,*5A
$GPRMC,175308.000,A,4308.3068,N,07726.2695,W,0.16,200.34,060921,,,A*74
$GPGGA,175308.250,4308.3068,N,07726.2695,W,1,05,1.60,170.5,M,-34.4,M,,*50
$GPRMC,175308.500,A,4308.3068,N,07726.2695,W,0.13,166.44,060921,,,A*70
$GPGGA,175308.750,4308.3068,N,07726.2695,W,1,05,1.60,170.5,M,-34.4,M,,*55
$GPRMC,175309.000,A,4308.3068,N,07726.2695,W,0.07,160.44,060921,,,A*77
$GPGGA,175309.250,4308.3068,N,07726.2695,W,1,05,1.60,170.5,M,-34.4,M,,*51
$GPRMC,175309.500,A,4308.3068,N,07726.2695,W,0.09,197.06,060921,,,A*72
$GPGGA,175309.750,4308.3068,N,07726.2695,W,1,05,1.60,170.5,M,-34.4,M,,*54
$GPRMC,175310.000,A,4308.3068,N,07726.2695,W,0.16,179.48,060921,,,A*7B
$GPGGA,175310.250,4308.3068,N,07726.2695,W,1,05,1.60,170.5,M,-34.4,M,,*59
$GPRMC,175310.500,A,4308.3067,N,07726.2695,W,0.10,177.51,060921,,,A*71
$GPGGA,175310.750,4308.3067,N,07726.2695,W,1,05,1.60,170.5,M,-34.4,M,,*53
$GPRMC,175311.000,A,4308.3067,N,07726.2695,W,0.14,163.82,060921,,,A*7A
$GPGGA,175311.250,4308.3067,N,07726.2695,W,1,05,1.60,170.5,M,-34.4,M,,*57
$GPRMC,175311.500,A,4308.3067,N,07726.2695,W,0.08,155.91,060921,,,A*75
$GPGGA,175311.750,4308.3067,N,07726.2695,W,1,05,1.60,170.5,M,-34.4,M,,*52
$GPRMC,175312.000,A,4308.3067,N,07726.2695,W,0.07,233.87,060921,,,A*78
$GPGGA,175312.250,4308.3067,N,07726.2695,W,1,05,1.60,170.5,M,-34.4,M,,*54
$GPRMC,175312.500,A,4308.3067,N,07726.2695,W,0.06,226.94,060921,,,A*7A
$GPGGA,175312.750,4308.3067,N,07726.2695,W,1,05,1.60,170.5,M,-34.4,M,,*51
$GPRMC,175313.000,A,4308.3067,N,07726.2695,W,0.10,37.75,060921,,,A*44
$GPGGA,175313.250,4308.3067,N,07726.2695,W,1,05,1.60,170.5,M,-34.4,M,,*55
$GPRMC,175313.500,A,4308.3067,N,07726.2695,W,0.03,126.35,060921,,,A*76
$GPGGA,175313.750,4308.3067,N,07726.2695,W,1,05,1.60,170.5,M,-34.4,M,,*50
$GPRMC,175314.000,A,4308.3067,N,07726.2695,W,0.01,219.00,060921,,,A*7F
$GPGGA,175314.250,4308.3067,N,07726.2695,W,1,05,1.60,170.5,M,-34.4,M,,*52
$GPRMC,175314.500,A,4308.3067,N,07726.2695,W,0.04,167.14,060921,,,A*70
$GPGGA,175314.750,4308.3067,N,07726.2695,W,1,05,1.60,170.5,M,-34.4,M,,*57
$GPRMC,175315.000,A,4308.3067,N,07726.2695,W,0.03,298.59,060921,,,A*79
$GPGGA,175315.250,4308.3067,N,07726.2695,W,1,05,1.60,170.5,M,-34.4,M,,*53
$GPRMC,175315.500,A,4308.3067,N,07726.2695,W,0.12,282.34,060921,,,A*7C
$GPGGA,175315.750,4308.3067,N,07726.2695,W,1,05,1.60,170.5,M,-34.4,M,,*56
$GPRMC,175316.000,A,4308.3067,N,07726.2695,W,0.15,283.04,060921,,,A*7F
$GPGGA,175316.250,4308.3067,N,07726.2696,W,1,05,1.60,170.4,M,-34.4,M,,*52
$GPRMC,175316.500,A,4308.3067,N,07726.2696,W,0.05,325.46,060921,,,A*73
$GPGGA,175316.750,4308.3067,N,07726.2696,W,1,05,1.60,170.4,M,-34.4,M,,*57
$GPRMC,175317.000,A,4308.3067,N,07726.2696,W,0.09,174.06,060921,,,A*79
$GPGGA,175317.250,4308.3067,N,07726.2696,W,1,05,1.60,170.4,M,-34.4,M,,*53
$GPRMC,175317.500,A,4308.3067,N,07726.2696,W,0.16,199.49,060921,,,A*7A
$GPGGA,175317.750,4308.3067,N,07726.2696,W,1,05,1.60,170.4,M,-34.4,M,,*56
$GPRMC,175318.000,A,4308.3067,N,07726.2696,W,0.20,221.08,060921,,,A*70
$GPGGA,175318.250,4308.3067,N,07726.2696,W,1,05,1.60,170.4,M,-34.4,M,,*5C
$GPRMC,175318.500,A,4308.3066,N,07726.2696,W,0.11,216.26,060921,,,A*7E
$GPGGA,175318.750,4308.3066,N,07726.2696,W,1,05,1.60,170.4,M,-34.4,M,,*58
$GPRMC,175319.000,A,4308.3066,N,07726.2696,W,0.07,179.82,060921,,,A*79
$GPGGA,175319.250,4308.3066,N,07726.2696,W,1,05,1.60,170.4,M,-34.4,M,,*5C
$GPRMC,175319.500,A,4308.3066,N,07726.2696,W,0.12,130.75,060921,,,A*7D
$GPGGA,175319.750,4308.3066,N,07726.2696,W,1,05,1.60,170.4,M,-34.4,M,,*59
$GPRMC,175320.000,A,4308.3066,N,07726.2696,W,0.18,104.58,060921,,,A*70
$GPGGA,175320.250,4308.3066,N,07726.2696,W,1,05,1.60,170.4,M,-34.4,M,,*56
$GPRMC,175320.500,A,4308.3066,N,07726.2696,W,0.22,112.05,060921,,,A*73
$GPGGA,175320.750,4308.3066,N,07726.2695,W,1,05,1.60,170.4,M,-34.4,M,,*50
$GPRMC,175321.000,A,4308.3066,N,07726.2695,W,0.13,107.12,060921,,,A*74
$GPGGA,175321.250,4308.3066,N,07726.2695,W,1,05,1.60,170.4,M,-34.4,M,,*54
$GPRMC,175321.500,A,4308.3066,N,07726.2695,W,0.13,127.45,060921,,,A*71
$GPGGA,175321.750,4308.3066,N,07726.2695,W,1,05,1.60,170.4,M,-34.4,M,,*51
$GPRMC,175322.000,A,4308.3066,N,07726.2695,W,0.09,108.93,060921,,,A*7A
$GPGGA,175322.250,4308.3066,N,07726.2695,W,1,05,1.60,170.4,M,-34.4,M,,*57
$GPRMC,175322.500,A,4308.3066,N,07726.2695,W,0.15,123.64,060921,,,A*73
$GPGGA,175322.750,4308.3066,N,07726.2695,W,1,05,1.60,170.4,M,-34.4,M,,*52
$GPRMC,175323.000,A,4308.3066,N,07726.2694,W,0.17,147.28,060921,,,A*7E
$GPGGA,175323.250,4308.3065,N,07726.2694,W,1,05,1.60,170.4,M,-34.4,M,,*54
$GPRMC,175323.500,A,4308.3065,N,07726.2694,W,0.15,127.71,060921,,,A*70
$GPGGA,175323.750,4308.3065,N,07726.2694,W,1,05,1.60,170.4,M,-34.4,M,,*51
$GPRMC,175324.000,A,4308.3065,N,07726.2694,W,0.07,80.36,060921,,,A*4E
$GPGGA,175324.250,4308.3065,N,07726.2694,W,1,05,1.60,170.4,M,-34.4,M,,*53
$GPRMC,175324.500,A,4308.3065,N,07726.2694,W,0.04,320.58,060921,,,A*79
$GPGGA,175324.750,4308.3065,N,07726.2694,W,1,05,1.60,170.4,M,-34.4,M,,*56
$GPRMC,175325.000,A,4308.3065,N,07726.2694,W,0.01,337.54,060921,,,A*72
$GPGGA,175325.250,4308.3065,N,07726.2694,W,1,05,1.60,170.4,M,-34.4,M,,*52
$GPRMC,175325.500,A,4308.3065,N,07726.2694,W,0.01,193.97,060921,,,A*74
$GPGGA,175325.750,4308.3065,N,07726.2694,W,1,05,1.60,170.4,M,-34.4,M,,*57
$GPRMC,175326.000,A,4308.3065,N,07726.2694,W,0.03,259.85,060921,,,A*76
$GPGGA,175326.250,4308.3065,N,07726.2694,W,1,05,1.60,170.4,M,-34.4,M,,*51
$GPRMC,175326.500,A,4308.3065,N,07726.2694,W,0.08,5.32,060921,,,A*7F
$GPGGA,175326.750,4308.3065,N,07726.2694,W,1,05,1.65,170.4,M,-34.4,M,,*51
$GPRMC,175327.000,A,4308.3065,N,07726.2694,W,0.03,147.14,060921,,,A*73
$GPGGA,175327.250,4308.3065,N,07726.2694,W,1,05,1.60,170.4,M,-34.4,M,,*50
$GPRMC,175327.500,A,4308.3065,N,07726.2694,W,0.02,282.35,060921,,,A*7E
$GPGGA,175327.750,4308.3065,N,07726.2694,W,1,05,1.60,170.4,M,-34.4,M,,*55
$GPRMC,175328.000,A,4308.3065,N,07726.2694,W,0.12,269.40,060921,,,A*72
$GPGGA,175328.250,4308.3065,N,07726.2694,W,1,05,1.60,170.4,M,-34.4,M,,*5F
$GPRMC,175328.500,A,4308.3065,N,07726.2695,W,0.17,259.09,060921,,,A*7D
$GPGGA,175328.750,4308.3065,N,07726.2695,W,1,05,1.60,170.4,M,-34.4,M,,*5B
$GPRMC,175329.000,A,4308.3065,N,07726.2695,W,0.14,241.14,060921,,,A*7F
$GPGGA,175329.250,4308.3065,N,07726.2695,W,1,05,1.60,170.4,M,-34.4,M,,*5F
$GPRMC,175329.500,A,4308.3065,N,07726.2695,W,0.18,248.74,060921,,,A*79
$GPGGA,175329.750,4308.3065,N,07726.2695,W,1,05,1.60,170.4,M,-34.4,M,,*5A
$GPRMC,175330.000,A,4308.3065,N,07726.2695,W,0.14,213.95,060921,,,A*79
$GPGGA,175330.250,4308.3065,N,07726.2695,W,1,05,1.60,170.4,M,-34.4,M,,*57
$GPRMC,175330.500,A,4308.3065,N,07726.2695,W,0.13,244.22,060921,,,A*75
$GPGGA,175330.750,4308.3065,N,07726.2696,W,1,05,1.60,170.4,M,-34.4,M,,*51
$GPRMC,175331.000,A,4308.3065,N,07726.2696,W,0.04,24.95,060921,,,A*4C
$GPGGA,175331.250,4308.3065,N,07726.2696,W,1,05,1.60,170.4,M,-34.4,M,,*55
$GPRMC,175331.500,A,4308.3065,N,07726.2696,W,0.05,82.14,060921,,,A*4D
$GPGGA,175331.750,4308.3065,N,07726.2696,W,1,05,1.60,170.4,M,-34.4,M,,*50
$GPRMC,175332.000,A,4308.3065,N,07726.2696,W,0.09,321.01,060921,,,A*79
$GPGGA,175332.250,4308.3065,N,07726.2696,W,1,05,1.60,170.4,M,-34.4,M,,*56
$GPRMC,175332.500,A,4308.3065,N,07726.2696,W,0.10,288.66,060921,,,A*77
$GPGGA,175332.750,4308.3065,N,07726.2696,W,1,05,1.60,170.4,M,-34.4,M,,*53
$GPRMC,175333.000,A,4308.3065,N,07726.2696,W,0.07,287.80,060921,,,A*72
$GPGGA,175333.250,4308.3065,N,07726.2696,W,1,05,1.60,170.4,M,-34.4,M,,*57
$GPRMC,175333.500,A,4308.3065,N,07726.2696,W,0.04,352.99,060921,,,A*75
$GPGGA,175333.750,4308.3065,N,07726.2696,W,1,05,1.65,170.4,M,-34.4,M,,*57
$GPRMC,175334.000,A,4308.3065,N,07726.2696,W,0.11,83.73,060921,,,A*48
$GPGGA,175334.250,4308.3065,N,07726.2696,W,1,05,1.60,170.4,M,-34.4,M,,*50
$GPRMC,175334.500,A,4308.3065,N,07726.2696,W,0.05,61.56,060921,,,A*43
$GPGGA,175334.750,4308.3065,N,07726.2696,W,1,05,1.60,170.4,M,-34.4,M,,*55
$GPRMC,175335.000,A,4308.3065,N,07726.2696,W,0.10,63.15,060921,,,A*46
$GPGGA,175335.250,4308.3065,N,07726.2695,W,1,05,1.60,170.4,M,-34.4,M,,*52
$GPRMC,175335.500,A,4308.3065,N,07726.2695,W,0.14,108.59,060921,,,A*70
$GPGGA,175335.750,4308.3065,N,07726.2695,W,1,05,1.60,170.4,M,-34.4,M,,*57
$GPRMC,175336.000,A,4308.3065,N,07726.2695,W,0.15,161.76,060921,,,A*75
$GPGGA,175336.250,4308.3065,N,07726.2695,W,1,05,1.60,170.4,M,-34.4,M,,*51
$GPRMC,175336.500,A,4308.3065,N,07726.2695,W,0.11,152.40,060921,,,A*71
$GPGGA,175336.750,4308.3065,N,07726.2695,W,1,05,1.60,170.4,M,-34.4,M,,*54
$GPRMC,175337.000,A,4308.3065,N,07726.2695,W,0.11,82.53,060921,,,A*4B
$GPGGA,175337.250,4308.3065,N,07726.2695,W,1,05,1.60,170.4,M,-34.4,M,,*50
$GPRMC,175337.500,A,4308.3065,N,07726.2695,W,0.14,114.19,060921,,,A*7B
$GPGGA,175337.750,4308.3065,N,07726.2695,W,1,05,1.60,170.4,M,-34.4,M,,*55
$GPRMC,175338.000,A,4308.3065,N,07726.2695,W,0.08,136.43,060921,,,A*73
$GPGGA,175338.250,4308.3065,N,07726.2695,W,1,05,1.60,170.4,M,-34.4,M,,*5F
$GPRMC,175338.500,A,4308.3065,N,07726.2694,W,0.07,148.97,060921,,,A*78
$GPGGA,175338.750,4308.3065,N,07726.2694,W,1,05,1.60,170.4,M,-34.4,M,,*5B
$GPRMC,175339.000,A,4308.3065,N,07726.2694,W,0.09,272.61,060921,,,A*71
$GPGGA,175339.250,4308.3065,N,07726.2695,W,1,05,1.60,170.4,M,-34.4,M,,*5E
$GPRMC,175339.500,A,4308.3065,N,07726.2695,W,0.12,292.55,060921,,,A*76
$GPGGA,175339.750,4308.3065,N,07726.2695,W,1,05,1.60,170.4,M,-34.4,M,,*5B
$GPRMC,175340.000,A,4308.3065,N,07726.2695,W,0.14,270.52,060921,,,A*70
$GPGGA,175340.250,4308.3065,N,07726.2695,W,1,05,1.60,170.4,M,-34.4,M,,*50
$GPRMC,175340.500,A,4308.3065,N,07726.2695,W,0.17,284.32,060921,,,A*7B
$GPGGA,175340.750,4308.3065,N,07726.2695,W,1,05,1.60,170.4,M,-34.4,M,,*55
$GPRMC,175341.000,A,4308.3065,N,07726.2695,W,0.19,295.16,060921,,,A*77
$GPGGA,175341.250,4308.3065,N,07726.2696,W,1,05,1.60,170.4,M,-34.4,M,,*52
$GPRMC,175341.500,A,4308.3065,N,07726.2696,W,0.18,307.52,060921,,,A*7A
$GPGGA,175341.750,4308.3065,N,07726.2696,W,1,05,1.60,170.4,M,-34.4,M,,*57
$GPRMC,175342.000,A,4308.3065,N,07726.2696,W,0.13,319.24,060921,,,A*79
$GPGGA,175342.250,4308.3065,N,07726.2696,W,1,05,1.60,170.4,M,-34.4,M,,*51
$GPRMC,175342.500,A,4308.3065,N,07726.2696,W,0.18,320.03,060921,,,A*78
$GPGGA,175342.750,4308.3065,N,07726.2696,W,1,05,1.60,170.4,M,-34.4,M,,*54
$GPRMC,175343.000,A,4308.3065,N,07726.2696,W,0.17,315.78,060921,,,A*79
$GPGGA,175343.250,4308.3066,N,07726.2697,W,1,05,1.60,170.4,M,-34.4,M,,*52
$GPRMC,175343.500,A,4308.3066,N,07726.2697,W,0.11,295.11,060921,,,A*7E
$GPGGA,175343.750,4308.3066,N,07726.2697,W,1,05,1.60,170.4,M,-34.4,M,,*57
$GPRMC,175344.000,A,4308.3066,N,07726.2697,W,0.11,269.70,060921,,,A*78
$GPGGA,175344.250,4308.3066,N,07726.2697,W,1,05,1.60,170.4,M,-34.4,M,,*55
$GPRMC,175344.500,A,4308.3066,N,07726.2697,W,0.15,242.26,060921,,,A*73
$GPGGA,175344.750,4308.3066,N,07726.2697,W,1,05,1.60,170.4,M,-34.4,M,,*50
$GPRMC,175345.000,A,4308.3066,N,07726.2697,W,0.10,277.94,060921,,,A*7D
$GPGGA,175345.250,4308.3066,N,07726.2697,W,1,05,1.60,170.4,M,-34.4,M,,*54
$GPRMC,175345.500,A,4308.3066,N,07726.2697,W,0.11,301.51,060921,,,A*70
$GPGGA,175345.750,4308.3066,N,07726.2698,W,1,05,1.60,170.4,M,-34.4,M,,*5E
$GPRMC,175346.000,A,4308.3066,N,07726.2698,W,0.13,309.97,060921,,,A*79
$GPGGA,175346.250,4308.3066,N,07726.2698,W,1,05,1.60,170.4,M,-34.4,M,,*58
$GPRMC,175346.500,A,4308.3066,N,07726.2698,W,0.08,333.19,060921,,,A*79
$GPGGA,175346.750,4308.3066,N,07726.2698,W,1,05,1.60,170.4,M,-34.4,M,,*5D
$GPRMC,175347.000,A,4308.3066,N,07726.2698,W,0.10,2.42,060921,,,A*7B
$GPGGA,175347.250,4308.3066,N,07726.2698,W,1,05,1.66,170.4,M,-34.4,M,,*5F
$GPRMC,175347.500,A,4308.3066,N,07726.2698,W,0.18,9.90,060921,,,A*72
$GPGGA,175347.750,4308.3066,N,07726.2698,W,1,05,1.66,170.4,M,-34.4,M,,*5A
$GPRMC,175348.000,A,4308.3066,N,07726.2698,W,0.21,346.06,060921,,,A*75
$GPGGA,175348.250,4308.3066,N,07726.2698,W,1,05,1.66,170.4,M,-34.4,M,,*50
$GPRMC,175348.500,A,4308.3067,N,07726.2698,W,0.21,346.41,060921,,,A*72
$GPGGA,175348.750,4308.3067,N,07726.2698,W,1,05,1.66,170.4,M,-34.4,M,,*54
$GPRMC,175349.000,A,4308.3067,N,07726.2698,W,0.19,340.48,060921,,,A*72
$GPGGA,175349.250,4308.3067,N,07726.2698,W,1,05,1.60,170.4,M,-34.4,M,,*56
$GPRMC,175349.500,A,4308.3067,N,07726.2698,W,0.16,313.12,060921,,,A*71
$GPGGA,175349.750,4308.3067,N,07726.2698,W,1,05,1.60,170.4,M,-34.4,M,,*53
$GPRMC,175350.000,A,4308.3067,N,07726.2698,W,0.22,314.85,060921,,,A*72
$GPGGA,175350.250,4308.3067,N,07726.2698,W,1,05,1.60,170.3,M,-34.4,M,,*59
$GPRMC,175350.500,A,4308.3067,N,07726.2699,W,0.26,304.83,060921,,,A*75
$GPGGA,175350.750,4308.3068,N,07726.2699,W,1,05,1.60,170.3,M,-34.4,M,,*52
$GPRMC,175351.000,A,4308.3068,N,07726.2699,W,0.16,295.89,060921,,,A*7E
$GPGGA,175351.250,4308.3068,N,07726.2699,W,1,05,1.60,170.3,M,-34.4,M,,*56
$GPRMC,175351.500,A,4308.3068,N,07726.2699,W,0.13,271.66,060921,,,A*75
$GPGGA,175351.750,4308.3068,N,07726.2699,W,1,05,1.60,170.3,M,-34.4,M,,*53
$GPRMC,175352.000,A,4308.3068,N,07726.2699,W,0.04,266.65,060921,,,A*70
$GPGGA,175352.250,4308.3068,N,07726.2699,W,1,05,1.60,170.3,M,-34.4,M,,*55
$GPRMC,175352.500,A,4308.3068,N,07726.2699,W,0.00,199.86,060921,,,A*7F
$GPGGA,175352.750,4308.3068,N,07726.2699,W,1,05,1.60,170.3,M,-34.4,M,,*50
$GPRMC,175353.000,A,4308.3068,N,07726.2699,W,0.03,20.35,060921,,,A*43
$GPGGA,175353.250,4308.3068,N,07726.2699,W,1,05,1.60,170.3,M,-34.4,M,,*54
$GPRMC,175353.500,A,4308.3068,N,07726.2699,W,0.03,90.78,060921,,,A*44
$GPGGA,175353.750,4308.3068,N,07726.2699,W,1,05,1.60,170.3,M,-34.4,M,,*51
$GPRMC,175354.000,A,4308.3068,N,07726.2699,W,0.13,112.38,060921,,,A*78
$GPGGA,175354.250,4308.3068,N,07726.2699,W,1,05,1.60,170.3,M,-34.4,M,,*53
$GPRMC,175354.500,A,4308.3068,N,07726.2699,W,0.11,90.29,060921,,,A*44
$GPGGA,175354.750,4308.3068,N,07726.2699,W,1,05,1.60,170.3,M,-34.4,M,,*56
$GPRMC,175355.000,A,4308.3068,N,07726.2699,W,0.12,143.61,060921,,,A*70
$GPGGA,175355.250,4308.3068,N,07726.2699,W,1,05,1.60,170.3,M,-34.4,M,,*52
$GPRMC,175355.500,A,4308.3068,N,07726.2699,W,0.15,135.04,060921,,,A*70
$GPGGA,175355.750,4308.3067,N,07726.2699,W,1,05,1.60,170.3,M,-34.4,M,,*58
$GPRMC,175356.000,A,4308.3067,N,07726.2698,W,0.05,153.66,060921,,,A*7D
$GPGGA,175356.250,4308.3067,N,07726.2698,W,1,05,1.60,170.3,M,-34.4,M,,*5F
$GPRMC,175356.500,A,4308.3067,N,07726.2698,W,0.09,155.97,060921,,,A*7C
$GPGGA,175356.750,4308.3067,N,07726.2698,W,1,05,1.60,170.3,M,-34.4,M,,*5A
$GPRMC,175357.000,A,4308.3067,N,07726.2698,W,0.09,177.58,060921,,,A*7B
$GPGGA,175357.250,4308.3067,N,07726.2698,W,1,05,1.60,170.3,M,-34.4,M,,*5E
$GPRMC,175357.500,A,4308.3067,N,07726.2698,W,0.05,160.88,060921,,,A*79
$GPGGA,175357.750,4308.3067,N,07726.2698,W,1,05,1.60,170.3,M,-34.4,M,,*5B
$GPRMC,175358.000,A,4308.3067,N,07726.2698,W,0.03,164.85,060921,,,A*7C
$GPGGA,175358.250,4308.3067,N,07726.2698,W,1,05,1.60,170.3,M,-34.4,M,,*51
$GPRMC,175358.500,A,4308.3067,N,07726.2698,W,0.09,169.33,060921,,,A*73
$GPGGA,175358.750,4308.3067,N,07726.2698,W,1,05,1.60,170.3,M,-34.4,M,,*54
$GPRMC,175359.000,A,4308.3067,N,07726.2698,W,0.06,169.58,060921,,,A*75
$GPGGA,175359.250,4308.3067,N,07726.2698,W,1,05,1.60,170.3,M,-34.4,M,,*50
$GPRMC,175359.500,A,4308.3067,N,07726.2698,W,0.11,167.35,060921,,,A*73
$GPGGA,175359.750,4308.3067,N,07726.2698,W,1,05,1.60,170.3,M,-34.4,M,,*55
$GPRMC,175400.000,A,4308.3067,N,07726.2698,W,0.24,157.93,060921,,,A*74
$GPGGA,175400.250,4308.3066,N,07726.2698,W,1,05,1.60,170.3,M,-34.4,M,,*5A
$GPRMC,175400.500,A,4308.3066,N,07726.2698,W,0.22,147.91,060921,,,A*75
$GPGGA,175400.750,4308.3066,N,07726.2698,W,1,05,1.60,170.3,M,-34.4,M,,*5F
$GPRMC,175401.000,A,4308.3066,N,07726.2698,W,0.20,141.76,060921,,,A*7C
$GPGGA,175401.250,4308.3066,N,07726.2697,W,1,05,1.60,170.3,M,-34.4,M,,*54
$GPRMC,175401.500,A,4308.3066,N,07726.2697,W,0.20,147.70,060921,,,A*76
$GPGGA,175401.750,4308.3066,N,07726.2697,W,1,05,1.60,170.3,M,-34.4,M,,*51
$GPRMC,175402.000,A,4308.3066,N,07726.2697,W,0.26,124.12,060921,,,A*77
$GPGGA,175402.250,4308.3065,N,07726.2697,W,1,05,1.60,170.3,M,-34.4,M,,*54
$GPRMC,175402.500,A,4308.3065,N,07726.2697,W,0.33,115.01,060921,,,A*75
$GPGGA,175402.750,4308.3065,N,07726.2696,W,1,05,1.60,170.3,M,-34.4,M,,*50
$GPRMC,175403.000,A,4308.3065,N,07726.2696,W,0.33,108.32,060921,,,A*7C
$GPGGA,175403.250,4308.3065,N,07726.2696,W,1,05,1.60,170.3,M,-34.4,M,,*54
$GPRMC,175403.500,A,4308.3065,N,07726.2695,W,0.33,103.87,060921,,,A*7F
$GPGGA,175403.750,4308.3065,N,07726.2695,W,1,05,1.60,170.3,M,-34.4,M,,*52
$GPRMC,175404.000,A,4308.3065,N,07726.2695,W,0.35,108.69,060921,,,A*70
$GPGGA,175404.250,4308.3065,N,07726.2694,W,1,05,1.60,170.3,M,-34.4,M,,*51
$GPRMC,175404.500,A,4308.3065,N,07726.2694,W,0.31,125.66,060921,,,A*70
$GPGGA,175404.750,4308.3065,N,07726.2694,W,1,05,1.60,170.3,M,-34.4,M,,*54
$GPRMC,175405.000,A,4308.3064,N,07726.2693,W,0.25,111.00,060921,,,A*70
$GPGGA,175405.250,4308.3064,N,07726.2693,W,1,05,1.60,170.3,M,-34.4,M,,*56
$GPRMC,175405.500,A,4308.3064,N,07726.2693,W,0.27,114.03,060921,,,A*71
$GPGGA,175405.750,4308.3064,N,07726.2693,W,1,05,1.60,170.3,M,-34.4,M,,*53
$GPRMC,175406.000,A,4308.3064,N,07726.2692,W,0.26,87.28,060921,,,A*45
$GPGGA,175406.250,4308.3064,N,07726.2692,W,1,05,1.60,170.3,M,-34.4,M,,*54
$GPRMC,175406.500,A,4308.3064,N,07726.2692,W,0.23,88.38,060921,,,A*4B
$GPGGA,175406.750,4308.3064,N,07726.2692,W,1,05,1.60,170.3,M,-34.4,M,,*51
$GPRMC,175407.000,A,4308.3064,N,07726.2692,W,0.11,89.87,060921,,,A*4B
$GPGGA,175407.250,4308.3064,N,07726.2692,W,1,05,1.60,170.3,M,-34.4,M,,*55
$GPRMC,175407.500,A,4308.3064,N,07726.2691,W,0.10,71.32,060921,,,A*45
$GPGGA,175407.750,4308.3064,N,07726.2691,W,1,05,1.60,170.3,M,-34.4,M,,*53
$GPRMC,175408.000,A,4308.3064,N,07726.2691,W,0.12,110.87,060921,,,A*75
$GPGGA,175408.250,4308.3064,N,07726.2691,W,1,05,1.60,170.3,M,-34.4,M,,*59
$GPRMC,175408.500,A,4308.3064,N,07726.2691,W,0.11,109.05,060921,,,A*71
$GPGGA,175408.750,4308.3064,N,07726.2691,W,1,05,1.60,170.3,M,-34.4,M,,*5C
$GPRMC,175409.000,A,4308.3064,N,07726.2691,W,0.11,175.51,060921,,,A*7F
$GPGGA,175409.250,4308.3064,N,07726.2691,W,1,05,1.60,170.3,M,-34.4,M,,*58
$GPRMC,175409.500,A,4308.3064,N,07726.2691,W,0.20,186.58,060921,,,A*7D
$GPGGA,175409.750,4308.3064,N,07726.2691,W,1,05,1.60,170.3,M,-34.4,M,,*5D
$GPRMC,175410.000,A,4308.3064,N,07726.2691,W,0.15,178.07,060921,,,A*7D
$GPGGA,175410.250,4308.3063,N,07726.2691,W,1,05,1.60,170.3,M,-34.4,M,,*57
$GPRMC,175410.500,A,4308.3063,N,07726.2691,W,0.04,146.73,060921,,,A*71
$GPGGA,175410.750,4308.3063,N,07726.2691,W,1,05,1.60,170.3,M,-34.4,M,,*52
$GPRMC,175411.000,A,4308.3063,N,07726.2691,W,0.07,221.22,060921,,,A*70
$GPGGA,175411.250,4308.3063,N,07726.2691,W,1,05,1.60,170.3,M,-34.4,M,,*56
$GPRMC,175411.500,A,4308.3063,N,07726.2691,W,0.09,177.05,060921,,,A*7E
$GPGGA,175411.750,4308.3063,N,07726.2691,W,1,05,1.60,170.3,M,-34.4,M,,*53
$GPRMC,175412.000,A,4308.3063,N,07726.2691,W,0.04,138.39,060921,,,A*71
$GPGGA,175412.250,4308.3063,N,07726.2691,W,1,05,1.60,170.3,M,-34.4,M,,*55
$GPRMC,175412.500,A,4308.3063,N,07726.2691,W,0.04,153.53,060921,,,A*75
$GPGGA,175412.750,4308.3063,N,07726.2691,W,1,05,1.60,170.3,M,-34.4,M,,*50
$GPRMC,175413.000,A,4308.3063,N,07726.2691,W,0.02,120.34,060921,,,A*72
$GPGGA,175413.250,4308.3063,N,07726.2691,W,1,05,1.60,170.3,M,-34.4,M,,*54
$GPRMC,175413.500,A,4308.3063,N,07726.2691,W,0.09,81.31,060921,,,A*43
$GPGGA,175413.750,4308.3063,N,07726.2691,W,1,05,1.60,170.3,M,-34.4,M,,*51
$GPRMC,175414.000,A,4308.3063,N,07726.2690,W,0.12,108.22,060921,,,A*78
$GPGGA,175414.250,4308.3063,N,07726.2690,W,1,05,1.60,170.3,M,-34.4,M,,*52
$GPRMC,175414.500,A,4308.3063,N,07726.2690,W,0.16,112.95,060921,,,A*7E
$GPGGA,175414.750,4308.3063,N,07726.2690,W,1,05,1.60,170.3,M,-34.4,M,,*57
$GPRMC,175415.000,A,4308.3063,N,07726.2690,W,0.15,112.01,060921,,,A*74
$GPGGA,175415.250,4308.3063,N,07726.2690,W,1,05,1.60,170.3,M,-34.4,M,,*53
$GPRMC,175415.500,A,4308.3063,N,07726.2690,W,0.15,111.49,060921,,,A*7E
$GPGGA,175415.750,4308.3063,N,07726.2689,W,1,05,1.60,170.3,M,-34.4,M,,*5E
$GPRMC,175416.000,A,4308.3063,N,07726.2689,W,0.26,154.28,060921,,,A*76
$GPGGA,175416.250,4308.3062,N,07726.2689,W,1,05,1.60,170.3,M,-34.4,M,,*59
$GPRMC,175416.500,A,4308.3062,N,07726.2689,W,0.22,147.52,060921,,,A*79
$GPGGA,175416.750,4308.3062,N,07726.2689,W,1,05,1.60,170.3,M,-34.4,M,,*5C
$GPRMC,175417.000,A,4308.3062,N,07726.2689,W,0.21,134.08,060921,,,A*75
$GPGGA,175417.250,4308.3062,N,07726.2689,W,1,05,1.60,170.3,M,-34.4,M,,*58
$GPRMC,175417.500,A,4308.3062,N,07726.2689,W,0.13,115.15,060921,,,A*7E
$GPGGA,175417.750,4308.3062,N,07726.2689,W,1,05,1.60,170.3,M,-34.4,M,,*5D
$GPRMC,175418.000,A,4308.3062,N,07726.2689,W,0.08,193.06,060921,,,A*72
$GPGGA,175418.250,4308.3062,N,07726.2689,W,1,05,1.60,170.3,M,-34.4,M,,*57
$GPRMC,175418.500,A,4308.3062,N,07726.2689,W,0.21,214.38,060921,,,A*7D
$GPGGA,175418.750,4308.3062,N,07726.2689,W,1,05,1.60,170.3,M,-34.4,M,,*52
$GPRMC,175419.000,A,4308.3061,N,07726.2689,W,0.13,223.98,060921,,,A*75
$GPGGA,175419.250,4308.3061,N,07726.2689,W,1,05,1.60,170.3,M,-34.4,M,,*55
$GPRMC,175419.500,A,4308.3061,N,07726.2689,W,0.11,233.52,060921,,,A*75
$GPGGA,175419.750,4308.3061,N,07726.2689,W,1,05,1.60,170.3,M,-34.4,M,,*50
$GPRMC,175420.000,A,4308.3061,N,07726.2689,W,0.18,227.44,060921,,,A*71
$GPGGA,175420.250,4308.3061,N,07726.2689,W,1,05,1.60,170.3,M,-34.4,M,,*5F
$GPRMC,175420.500,A,4308.3061,N,07726.2689,W,0.16,204.28,060921,,,A*71
$GPGGA,175420.750,4308.3061,N,07726.2689,W,1,05,1.60,170.3,M,-34.4,M,,*5A
$GPRMC,175421.000,A,4308.3061,N,07726.2689,W,0.14,192.42,060921,,,A*77
$GPGGA,175421.250,4308.3061,N,07726.2689,W,1,05,1.60,170.3,M,-34.4,M,,*5E
$GPRMC,175421.500,A,4308.3061,N,07726.2690,W,0.24,207.67,060921,,,A*71
$GPGGA,175421.750,4308.3060,N,07726.2690,W,1,05,1.60,170.3,M,-34.4,M,,*52
$GPRMC,175422.000,A,4308.3060,N,07726.2690,W,0.19,215.31,060921,,,A*78
$GPGGA,175422.250,4308.3060,N,07726.2690,W,1,05,1.60,170.3,M,-34.4,M,,*54
$GPRMC,175422.500,A,4308.3060,N,07726.2690,W,0.16,214.00,060921,,,A*71
$GPGGA,175422.750,4308.3060,N,07726.2690,W,1,05,1.60,170.3,M,-34.4,M,,*51
$GPRMC,175423.000,A,4308.3060,N,07726.2690,W,0.12,244.48,060921,,,A*78
$GPGGA,175423.250,4308.3060,N,07726.2690,W,1,05,1.60,170.3,M,-34.4,M,,*55
$GPRMC,175423.500,A,4308.3060,N,07726.2690,W,0.20,279.89,060921,,,A*7F
$GPGGA,175423.750,4308.3060,N,07726.2691,W,1,05,1.60,170.3,M,-34.4,M,,*51
$GPRMC,175424.000,A,4308.3060,N,07726.2691,W,0.24,299.90,060921,,,A*7E
$GPGGA,175424.250,4308.3060,N,07726.2691,W,1,05,1.60,170.3,M,-34.4,M,,*53
$GPRMC,175424.500,A,4308.3060,N,07726.2691,W,0.21,294.42,060921,,,A*7C
$GPGGA,175424.750,4308.3060,N,07726.2691,W,1,05,1.60,170.3,M,-34.4,M,,*56
$GPRMC,175425.000,A,4308.3060,N,07726.2692,W,0.22,293.98,060921,,,A*78
$GPGGA,175425.250,4308.3060,N,07726.2692,W,1,05,1.60,170.3,M,-34.4,M,,*51
$GPRMC,175425.500,A,4308.3060,N,07726.2692,W,0.22,300.84,060921,,,A*7B
$GPGGA,175425.750,4308.3060,N,07726.2692,W,1,05,1.60,170.3,M,-34.4,M,,*54
$GPRMC,175426.000,A,4308.3060,N,07726.2692,W,0.22,296.96,060921,,,A*70
$GPGGA,175426.250,4308.3060,N,07726.2692,W,1,05,1.60,170.3,M,-34.4,M,,*52
$GPRMC,175426.500,A,4308.3061,N,07726.2693,W,0.19,296.41,060921,,,A*77
$GPGGA,175426.750,4308.3061,N,07726.2693,W,1,05,1.60,170.3,M,-34.4,M,,*57
$GPRMC,175427.000,A,4308.3061,N,07726.2693,W,0.19,264.02,060921,,,A*79
$GPGGA,175427.250,4308.3061,N,07726.2693,W,1,05,1.60,170.3,M,-34.4,M,,*53
$GPRMC,175427.500,A,4308.3061,N,07726.2693,W,0.13,272.45,060921,,,A*72
$GPGGA,175427.750,4308.3061,N,07726.2693,W,1,05,1.60,170.3,M,-34.4,M,,*56
$GPRMC,175428.000,A,4308.3061,N,07726.2694,W,0.12,291.87,060921,,,A*7D
$GPGGA,175428.250,4308.3061,N,07726.2694,W,1,05,1.60,170.3,M,-34.4,M,,*5B
$GPRMC,175428.500,A,4308.3061,N,07726.2694,W,0.18,295.03,060921,,,A*7A
$GPGGA,175428.750,4308.3061,N,07726.2694,W,1,05,1.60,170.3,M,-34.4,M,,*5E
$GPRMC,175429.000,A,4308.3061,N,07726.2694,W,0.10,301.19,060921,,,A*71
$GPGGA,175429.250,4308.3061,N,07726.2694,W,1,05,1.60,170.3,M,-34.4,M,,*5A
$GPRMC,175429.500,A,4308.3061,N,07726.2694,W,0.02,297.40,060921,,,A*75
$GPGGA,175429.750,4308.3061,N,07726.2694,W,1,05,1.60,170.3,M,-34.4,M,,*5F
$GPRMC,175430.000,A,4308.3061,N,07726.2694,W,0.03,263.87,060921,,,A*79
$GPGGA,175430.250,4308.3061,N,07726.2694,W,1,05,1.60,170.3,M,-34.4,M,,*52
$GPRMC,175430.500,A,4308.3061,N,07726.2694,W,0.03,209.27,060921,,,A*7A
$GPGGA,175430.750,4308.3061,N,07726.2694,W,1,05,1.60,170.3,M,-34.4,M,,*57
$GPRMC,175431.000,A,4308.3061,N,07726.2694,W,0.06,276.44,060921,,,A*76
$GPGGA,175431.250,4308.3061,N,07726.2694,W,1,05,1.60,170.3,M,-34.4,M,,*53
$GPRMC,175431.500,A,4308.3061,N,07726.2695,W,0.16,273.65,060921,,,A*75
$GPGGA,175431.750,4308.3061,N,07726.2695,W,1,05,1.60,170.3,M,-34.4,M,,*57
$GPRMC,175432.000,A,4308.3061,N,07726.2695,W,0.12,268.93,060921,,,A*74
$GPGGA,175432.250,4308.3061,N,07726.2695,W,1,05,1.60,170.3,M,-34.4,M,,*51
$GPRMC,175432.500,A,4308.3061,N,07726.2695,W,0.17,277.60,060921,,,A*76
$GPGGA,175432.750,4308.3061,N,07726.2695,W,1,05,1.60,170.3,M,-34.4,M,,*54
$GPRMC,175433.000,A,4308.3061,N,07726.2695,W,0.05,353.38,060921,,,A*7B
$GPGGA,175433.250,4308.3061,N,07726.2695,W,1,05,1.66,170.3,M,-34.4,M,,*56
$GPRMC,175433.500,A,4308.3061,N,07726.2695,W,0.08,83.09,060921,,,A*4F
$GPGGA,175433.750,4308.3061,N,07726.2695,W,1,05,1.60,170.3,M,-34.4,M,,*55
$GPRMC,175434.000,A,4308.3061,N,07726.2695,W,0.04,275.36,060921,,,A*76
$GPGGA,175434.250,4308.3061,N,07726.2695,W,1,05,1.60,170.3,M,-34.4,M,,*57
$GPRMC,175434.500,A,4308.3061,N,07726.2695,W,0.06,285.58,060921,,,A*76
$GPGGA,175434.750,4308.3061,N,07726.2695,W,1,05,1.60,170.3,M,-34.4,M,,*52
$GPRMC,175435.000,A,4308.3061,N,07726.2695,W,0.07,321.70,060921,,,A*76
$GPGGA,175435.250,4308.3061,N,07726.2695,W,1,05,1.60,170.3,M,-34.4,M,,*56
$GPRMC,175435.500,A,4308.3061,N,07726.2695,W,0.08,280.26,060921,,,A*75
$GPGGA,175435.750,4308.3061,N,07726.2696,W,1,05,1.60,170.3,M,-34.4,M,,*50
$GPRMC,175436.000,A,4308.3061,N,07726.2696,W,0.07,272.61,060921,,,A*71
$GPGGA,175436.250,4308.3061,N,07726.2696,W,1,05,1.60,170.3,M,-34.4,M,,*56
$GPRMC,175436.500,A,4308.3061,N,07726.2696,W,0.04,255.63,060921,,,A*70
$GPGGA,175436.750,4308.3061,N,07726.2696,W,1,05,1.60,170.3,M,-34.4,M,,*53
$GPRMC,175437.000,A,4308.3061,N,07726.2696,W,0.03,16.58,060921,,,A*4E
$GPGGA,175437.250,4308.3061,N,07726.2696,W,1,05,1.60,170.3,M,-34.4,M,,*57
$GPRMC,175437.500,A,4308.3061,N,07726.2696,W,0.05,69.70,060921,,,A*4F
$GPGGA,175437.750,4308.3061,N,07726.2696,W,1,05,1.60,170.3,M,-34.4,M,,*52
$GPRMC,175438.000,A,4308.3061,N,07726.2696,W,0.01,90.32,060921,,,A*41
$GPGGA,175438.250,4308.3061,N,07726.2696,W,1,05,1.60,170.3,M,-34.4,M,,*58
$GPRMC,175438.500,A,4308.3061,N,07726.2696,W,0.02,36.64,060921,,,A*48
$GPGGA,175438.750,4308.3061,N,07726.2695,W,1,05,1.60,170.3,M,-34.4,M,,*5E
$GPRMC,175439.000,A,4308.3061,N,07726.2695,W,0.12,41.38,060921,,,A*47
$GPGGA,175439.250,4308.3061,N,07726.2695,W,1,05,1.60,170.3,M,-34.4,M,,*5A
$GPRMC,175439.500,A,4308.3061,N,07726.2695,W,0.16,39.64,060921,,,A*40
$GPGGA,175439.750,4308.3061,N,07726.2695,W,1,05,1.60,170.3,M,-34.4,M,,*5F
$GPRMC,175440.000,A,4308.3061,N,07726.2695,W,0.06,219.42,060921,,,A*7E
$GPGGA,175440.250,4308.3061,N,07726.2695,W,1,05,1.60,170.3,M,-34.4,M,,*54
$GPRMC,175440.500,A,4308.3061,N,07726.2695,W,0.11,165.19,060921,,,A*7B
$GPGGA,175440.750,4308.3061,N,07726.2695,W,1,05,1.60,170.3,M,-34.4,M,,*51
$GPRMC,175441.000,A,4308.3061,N,07726.2695,W,0.12,174.54,060921,,,A*75
$GPGGA,175441.250,4308.3061,N,07726.2695,W,1,05,1.60,170.2,M,-34.4,M,,*54
$GPRMC,175441.500,A,4308.3061,N,07726.2695,W,0.07,187.57,060921,,,A*7B
$GPGGA,175441.750,4308.3061,N,07726.2695,W,1,05,1.60,170.2,M,-34.4,M,,*51
$GPRMC,175442.000,A,4308.3061,N,07726.2695,W,0.17,175.44,060921,,,A*73
$GPGGA,175442.250,4308.3061,N,07726.2695,W,1,05,1.60,170.2,M,-34.4,M,,*57
$GPRMC,175442.500,A,4308.3060,N,07726.2695,W,0.24,183.44,060921,,,A*7E
$GPGGA,175442.750,4308.3060,N,07726.2695,W,1,05,1.60,170.2,M,-34.4,M,,*53
$GPRMC,175443.000,A,4308.3060,N,07726.2695,W,0.31,193.53,060921,,,A*79
$GPGGA,175443.250,4308.3060,N,07726.2695,W,1,05,1.60,170.2,M,-34.4,M,,*57
$GPRMC,175443.500,A,4308.3060,N,07726.2695,W,0.31,208.51,060921,,,A*7F
$GPGGA,175443.750,4308.3059,N,07726.2696,W,1,05,1.60,170.2,M,-34.4,M,,*5B
$GPRMC,175444.000,A,4308.3059,N,07726.2696,W,0.29,203.12,060921,,,A*71
$GPGGA,175444.250,4308.3059,N,07726.2696,W,1,05,1.60,170.2,M,-34.4,M,,*59
$GPRMC,175444.500,A,4308.3059,N,07726.2696,W,0.22,211.27,060921,,,A*7A
$GPGGA,175444.750,4308.3059,N,07726.2696,W,1,05,1.60,170.2,M,-34.4,M,,*5C
$GPRMC,175445.000,A,4308.3059,N,07726.2696,W,0.10,198.20,060921,,,A*7A
$GPGGA,175445.250,4308.3059,N,07726.2696,W,1,05,1.60,170.2,M,-34.4,M,,*58
$GPRMC,175445.500,A,4308.3059,N,07726.2696,W,0.15,193.32,060921,,,A*72
$GPGGA,175445.750,4308.3059,N,07726.2696,W,1,05,1.60,170.2,M,-34.4,M,,*5D
$GPRMC,175446.000,A,4308.3058,N,07726.2696,W,0.08,173.66,060921,,,A*76
$GPGGA,175446.250,4308.3058,N,07726.2696,W,1,05,1.60,170.2,M,-34.4,M,,*5A
$GPRMC,175446.500,A,4308.3058,N,07726.2696,W,0.09,171.85,060921,,,A*7D
$GPGGA,175446.750,4308.3058,N,07726.2696,W,1,05,1.60,170.2,M,-34.4,M,,*5F
$GPRMC,175447.000,A,4308.3058,N,07726.2696,W,0.15,202.92,060921,,,A*75
$GPGGA,175447.250,4308.3058,N,07726.2696,W,1,05,1.60,170.2,M,-34.4,M,,*5B
$GPRMC,175447.500,A,4308.3058,N,07726.2696,W,0.14,226.15,060921,,,A*78
$GPGGA,175447.750,4308.3058,N,07726.2696,W,1,05,1.60,170.2,M,-34.4,M,,*5E
$GPRMC,175448.000,A,4308.3058,N,07726.2697,W,0.09,300.24,060921,,,A*78
$GPGGA,175448.250,4308.3058,N,07726.2697,W,1,05,1.60,170.2,M,-34.4,M,,*55
$GPRMC,175448.500,A,4308.3058,N,07726.2697,W,0.14,238.74,060921,,,A*7E
$GPGGA,175448.750,4308.3058,N,07726.2697,W,1,05,1.60,170.2,M,-34.4,M,,*50
$GPRMC,175449.000,A,4308.3058,N,07726.2697,W,0.23,258.10,060921,,,A*7A
$GPGGA,175449.250,4308.3058,N,07726.2697,W,1,05,1.60,170.2,M,-34.4,M,,*54
$GPRMC,175449.500,A,4308.3058,N,07726.2697,W,0.21,271.01,060921,,,A*76
$GPGGA,175449.750,4308.3058,N,07726.2698,W,1,05,1.60,170.2,M,-34.4,M,,*5E
$GPRMC,175450.000,A,4308.3058,N,07726.2698,W,0.24,283.41,060921,,,A*78
$GPGGA,175450.250,4308.3058,N,07726.2698,W,1,05,1.60,170.2,M,-34.4,M,,*53
$GPRMC,175450.500,A,4308.3058,N,07726.2698,W,0.21,292.52,060921,,,A*7A
$GPGGA,175450.750,4308.3058,N,07726.2699,W,1,05,1.60,170.2,M,-34.4,M,,*57
$GPRMC,175451.000,A,4308.3058,N,07726.2699,W,0.25,294.47,060921,,,A*79
$GPGGA,175451.250,4308.3058,N,07726.2699,W,1,05,1.60,170.2,M,-34.4,M,,*53
$GPRMC,175451.500,A,4308.3058,N,07726.2699,W,0.25,306.04,060921,,,A*71
$GPGGA,175451.750,4308.3058,N,07726.2699,W,1,05,1.60,170.2,M,-34.4,M,,*56
$GPRMC,175452.000,A,4308.3059,N,07726.2699,W,0.22,317.92,060921,,,A*7E
$GPGGA,175452.250,4308.3059,N,07726.2700,W,1,05,1.60,170.2,M,-34.4,M,,*50
$GPRMC,175452.500,A,4308.3059,N,07726.2700,W,0.21,318.41,060921,,,A*78
$GPGGA,175452.750,4308.3059,N,07726.2700,W,1,05,1.60,170.2,M,-34.4,M,,*55
$GPRMC,175453.000,A,4308.3059,N,07726.2700,W,0.17,287.94,060921,,,A*76
$GPGGA,175453.250,4308.3059,N,07726.2700,W,1,05,1.60,170.2,M,-34.4,M,,*51
$GPRMC,175453.500,A,4308.3059,N,07726.2700,W,0.12,295.54,060921,,,A*79
$GPGGA,175453.750,4308.3059,N,07726.2700,W,1,05,1.60,170.2,M,-34.4,M,,*54
$GPRMC,175454.000,A,4308.3059,N,07726.2700,W,0.11,314.18,060921,,,A*78
$GPGGA,175454.250,4308.3059,N,07726.2700,W,1,05,1.60,170.2,M,-34.4,M,,*56
$GPRMC,175454.500,A,4308.3059,N,07726.2701,W,0.06,10.31,060921,,,A*46
$GPGGA,175454.750,4308.3059,N,07726.2700,W,1,05,1.67,170.2,M,-34.4,M,,*54
$GPRMC,175455.000,A,4308.3059,N,07726.2700,W,0.09,21.76,060921,,,A*4D
$GPGGA,175455.250,4308.3059,N,07726.2700,W,1,05,1.60,170.2,M,-34.4,M,,*57
$GPRMC,175455.500,A,4308.3059,N,07726.2700,W,0.20,20.80,060921,,,A*4B
$GPGGA,175455.750,4308.3060,N,07726.2700,W,1,05,1.60,170.2,M,-34.4,M,,*58
$GPRMC,175456.000,A,4308.3060,N,07726.2700,W,0.12,305.85,060921,,,A*77
$GPGGA,175456.250,4308.3060,N,07726.2700,W,1,05,1.60,170.2,M,-34.4,M,,*5E
$GPRMC,175456.500,A,4308.3060,N,07726.2701,W,0.10,301.00,060921,,,A*78
$GPGGA,175456.750,4308.3060,N,07726.2701,W,1,05,1.60,170.2,M,-34.4,M,,*5A
$GPRMC,175457.000,A,4308.3060,N,07726.2701,W,0.08,242.84,060921,,,A*7F
$GPGGA,175457.250,4308.3060,N,07726.2701,W,1,05,1.60,170.2,M,-34.4,M,,*5E
$GPRMC,175457.500,A,4308.3060,N,07726.2701,W,0.13,279.58,060921,,,A*79
$GPGGA,175457.750,4308.3060,N,07726.2701,W,1,05,1.60,170.2,M,-34.4,M,,*5B
$GPRMC,175458.000,A,4308.3060,N,07726.2701,W,0.19,286.05,060921,,,A*71
$GPGGA,175458.250,4308.3060,N,07726.2701,W,1,05,1.60,170.2,M,-34.4,M,,*51
$GPRMC,175458.500,A,4308.3060,N,07726.2702,W,0.20,274.72,060921,,,A*70
$GPGGA,175458.750,4308.3060,N,07726.2702,W,1,05,1.60,170.2,M,-34.4,M,,*57
$GPRMC,175459.000,A,4308.3060,N,07726.2702,W,0.17,249.79,060921,,,A*75
$GPGGA,175459.250,4308.3060,N,07726.2702,W,1,05,1.60,170.2,M,-34.4,M,,*53
$GPRMC,175459.500,A,4308.3060,N,07726.2702,W,0.12,190.34,060921,,,A*7B
$GPGGA,175459.750,4308.3060,N,07726.2702,W,1,05,1.60,170.2,M,-34.4,M,,*56
$GPRMC,175500.000,A,4308.3060,N,07726.2702,W,0.11,259.32,060921,,,A*70
$GPGGA,175500.250,4308.3060,N,07726.2702,W,1,05,1.60,170.2,M,-34.4,M,,*5E
$GPRMC,175500.500,A,4308.3060,N,07726.2702,W,0.06,316.90,060921,,,A*71
$GPGGA,175500.750,4308.3060,N,07726.2702,W,1,05,1.60,170.2,M,-34.4,M,,*5B
$GPRMC,175501.000,A,4308.3060,N,07726.2702,W,0.17,17.72,060921,,,A*4B
$GPGGA,175501.250,4308.3060,N,07726.2702,W,1,05,1.60,170.2,M,-34.4,M,,*5F
$GPRMC,175501.500,A,4308.3060,N,07726.2702,W,0.15,20.35,060921,,,A*4B
$GPGGA,175501.750,4308.3060,N,07726.2702,W,1,05,1.60,170.2,M,-34.4,M,,*5A
$GPRMC,175502.000,A,4308.3060,N,07726.2702,W,0.16,31.57,060921,,,A*4A
$GPGGA,175502.250,4308.3060,N,07726.2702,W,1,05,1.60,170.2,M,-34.4,M,,*5C
$GPRMC,175502.500,A,4308.3060,N,07726.2702,W,0.23,47.81,060921,,,A*43
$GPGGA,175502.750,4308.3060,N,07726.2702,W,1,05,1.60,170.2,M,-34.4,M,,*59
$GPRMC,175503.000,A,4308.3060,N,07726.2702,W,0.23,63.13,060921,,,A*4A
$GPGGA,175503.250,4308.3061,N,07726.2702,W,1,05,1.60,170.2,M,-34.4,M,,*5C
$GPRMC,175503.500,A,4308.3061,N,07726.2701,W,0.14,51.88,060921,,,A*4A
$GPGGA,175503.750,4308.3061,N,07726.2701,W,1,05,1.60,170.2,M,-34.4,M,,*5A
$GPRMC,175504.000,A,4308.3061,N,07726.2701,W,0.06,76.85,060921,,,A*43
$GPGGA,175504.250,4308.3061,N,07726.2701,W,1,05,1.60,170.2,M,-34.4,M,,*58
$GPRMC,175504.500,A,4308.3061,N,07726.2701,W,0.07,265.10,060921,,,A*7B
$GPGGA,175504.750,4308.3061,N,07726.2701,W,1,05,1.60,170.2,M,-34.4,M,,*5D
$GPRMC,175505.000,A,4308.3061,N,07726.2701,W,0.17,240.61,060921,,,A*7F
$GPGGA,175505.250,4308.3061,N,07726.2702,W,1,05,1.60,170.2,M,-34.4,M,,*5A
$GPRMC,175505.500,A,4308.3060,N,07726.2702,W,0.17,231.38,060921,,,A*72
$GPGGA,175505.750,4308.3060,N,07726.2702,W,1,05,1.60,170.2,M,-34.4,M,,*5E
$GPRMC,175506.000,A,4308.3060,N,07726.2702,W,0.10,245.20,060921,,,A*79
$GPGGA,175506.250,4308.3060,N,07726.2702,W,1,05,1.60,170.2,M,-34.4,M,,*58
$GPRMC,175506.500,A,4308.3060,N,07726.2702,W,0.06,269.52,060921,,,A*70
$GPGGA,175506.750,4308.3060,N,07726.2702,W,1,05,1.60,170.2,M,-34.4,M,,*5D
$GPRMC,175507.000,A,4308.3060,N,07726.2702,W,0.03,251.37,060921,,,A*79
$GPGGA,175507.250,4308.3060,N,07726.2702,W,1,05,1.60,170.2,M,-34.4,M,,*59
$GPRMC,175507.500,A,4308.3060,N,07726.2702,W,0.03,119.00,060921,,,A*77
$GPGGA,175507.750,4308.3060,N,07726.2702,W,1,05,1.60,170.2,M,-34.4,M,,*5C
$GPRMC,175508.000,A,4308.3060,N,07726.2702,W,0.10,144.23,060921,,,A*76
$GPGGA,175508.250,4308.3060,N,07726.2702,W,1,05,1.60,170.2,M,-34.4,M,,*56
$GPRMC,175508.500,A,4308.3060,N,07726.2702,W,0.14,158.37,060921,,,A*7F
$GPGGA,175508.750,4308.3060,N,07726.2702,W,1,05,1.60,170.2,M,-34.4,M,,*53
$GPRMC,175509.000,A,4308.3060,N,07726.2702,W,0.13,199.31,060921,,,A*77
$GPGGA,175509.250,4308.3060,N,07726.2702,W,1,05,1.60,170.2,M,-34.4,M,,*57
$GPRMC,175509.500,A,4308.3060,N,07726.2702,W,0.03,77.67,060921,,,A*41
$GPGGA,175509.750,4308.3060,N,07726.2702,W,1,05,1.60,170.2,M,-34.4,M,,*52
$GPRMC,175510.000,A,4308.3060,N,07726.2702,W,0.01,336.34,060921,,,A*7E
$GPGGA,175510.250,4308.3060,N,07726.2702,W,1,05,1.60,170.2,M,-34.4,M,,*5F
$GPRMC,175510.500,A,4308.3060,N,07726.2702,W,0.03,183.02,060921,,,A*70
$GPGGA,175510.750,4308.3060,N,07726.2702,W,1,05,1.60,170.2,M,-34.4,M,,*5A
$GPRMC,175511.000,A,4308.3060,N,07726.2702,W,0.08,157.56,060921,,,A*77
$GPGGA,175511.250,4308.3060,N,07726.2702,W,1,05,1.60,170.2,M,-34.4,M,,*5E
$GPRMC,175511.500,A,4308.3060,N,07726.2702,W,0.08,161.00,060921,,,A*74
$GPGGA,175511.750,4308.3060,N,07726.2702,W,1,05,1.60,170.2,M,-34.4,M,,*5B
$GPRMC,175512.000,A,4308.3060,N,07726.2702,W,0.08,93.64,060921,,,A*4C
$GPGGA,175512.250,4308.3060,N,07726.2702,W,1,05,1.60,170.2,M,-34.4,M,,*5D
$GPRMC,175512.500,A,4308.3060,N,07726.2702,W,0.10,47.79,060921,,,A*45
$GPGGA,175512.750,4308.3060,N,07726.2702,W,1,05,1.60,170.2,M,-34.4,M,,*58
$GPRMC,175513.000,A,4308.3060,N,07726.2702,W,0.17,26.45,060921,,,A*4E
$GPGGA,175513.250,4308.3060,N,07726.2702,W,1,05,1.60,170.2,M,-34.4,M,,*5C
$GPRMC,175513.500,A,4308.3060,N,07726.2701,W,0.19,26.74,060921,,,A*44
$GPGGA,175513.750,4308.3060,N,07726.2701,W,1,05,1.60,170.2,M,-34.4,M,,*5A
$GPRMC,175514.000,A,4308.3060,N,07726.2701,W,0.23,34.80,060921,,,A*47
$GPGGA,175514.250,4308.3060,N,07726.2701,W,1,05,1.60,170.2,M,-34.4,M,,*58
$GPRMC,175514.500,A,4308.3060,N,07726.2701,W,0.20,59.31,060921,,,A*40
$GPGGA,175514.750,4308.3060,N,07726.2701,W,1,05,1.60,170.2,M,-34.4,M,,*5D
$GPRMC,175515.000,A,4308.3060,N,07726.2701,W,0.16,79.55,060921,,,A*41
$GPGGA,175515.250,4308.3060,N,07726.2700,W,1,05,1.60,170.2,M,-34.4,M,,*58
$GPRMC,175515.500,A,4308.3060,N,07726.2700,W,0.18,93.39,060921,,,A*45
$GPGGA,175515.750,4308.3060,N,07726.2700,W,1,05,1.60,170.2,M,-34.4,M,,*5D
$GPRMC,175516.000,A,4308.3061,N,07726.2700,W,0.17,75.49,060921,,,A*42
$GPGGA,175516.250,4308.3061,N,07726.2700,W,1,05,1.60,170.2,M,-34.4,M,,*5A
$GPRMC,175516.500,A,4308.3061,N,07726.2700,W,0.14,33.87,060921,,,A*44
$GPGGA,175516.750,4308.3061,N,07726.2700,W,1,05,1.60,170.2,M,-34.4,M,,*5F
$GPRMC,175517.000,A,4308.3061,N,07726.2700,W,0.19,21.44,060921,,,A*41
$GPGGA,175517.250,4308.3061,N,07726.2699,W,1,05,1.60,170.2,M,-34.4,M,,*5A
$GPRMC,175517.500,A,4308.3061,N,07726.2699,W,0.16,33.19,060921,,,A*41
$GPGGA,175517.750,4308.3061,N,07726.2699,W,1,05,1.60,170.2,M,-34.4,M,,*5F
$GPRMC,175518.000,A,4308.3061,N,07726.2699,W,0.16,45.28,060921,,,A*48
$GPGGA,175518.250,4308.3061,N,07726.2699,W,1,05,1.60,170.2,M,-34.4,M,,*55
$GPRMC,175518.500,A,4308.3061,N,07726.2699,W,0.16,46.60,060921,,,A*42
$GPGGA,175518.750,4308.3061,N,07726.2699,W,1,05,1.60,170.2,M,-34.4,M,,*50
$GPRMC,175519.000,A,4308.3061,N,07726.2699,W,0.16,53.09,060921,,,A*4D
$GPGGA,175519.250,4308.3062,N,07726.2699,W,1,05,1.60,170.2,M,-34.4,M,,*57
$GPRMC,175519.500,A,4308.3062,N,07726.2698,W,0.11,70.82,060921,,,A*4F
$GPGGA,175519.750,4308.3062,N,07726.2698,W,1,05,1.60,170.2,M,-34.4,M,,*53
$GPRMC,175520.000,A,4308.3062,N,07726.2698,W,0.10,84.14,060921,,,A*45
$GPGGA,175520.250,4308.3062,N,07726.2698,W,1,05,1.60,170.2,M,-34.4,M,,*5C
$GPRMC,175520.500,A,4308.3062,N,07726.2698,W,0.06,89.36,060921,,,A*4A
$GPGGA,175520.750,4308.3062,N,07726.2698,W,1,05,1.60,170.2,M,-34.4,M,,*59
$GPRMC,175521.000,A,4308.3062,N,07726.2698,W,0.07,31.21,060921,,,A*4A
$GPGGA,175521.250,4308.3062,N,07726.2698,W,1,05,1.60,170.2,M,-34.4,M,,*5D
$GPRMC,175521.500,A,4308.3062,N,07726.2698,W,0.06,68.88,060921,,,A*41
$GPGGA,175521.750,4308.3062,N,07726.2698,W,1,05,1.60,170.2,M,-34.4,M,,*58
$GPRMC,175522.000,A,4308.3062,N,07726.2698,W,0.06,133.70,060921,,,A*7F
$GPGGA,175522.250,4308.3062,N,07726.2698,W,1,05,1.60,170.2,M,-34.4,M,,*5E
$GPRMC,175522.500,A,4308.3062,N,07726.2698,W,0.13,136.08,060921,,,A*74
$GPGGA,175522.750,4308.3061,N,07726.2698,W,1,05,1.60,170.2,M,-34.4,M,,*58
$GPRMC,175523.000,A,4308.3061,N,07726.2698,W,0.11,167.74,060921,,,A*7E
$GPGGA,175523.250,4308.3061,N,07726.2698,W,1,05,1.60,170.2,M,-34.4,M,,*5C
$GPRMC,175523.500,A,4308.3061,N,07726.2698,W,0.18,196.73,060921,,,A*7B
$GPGGA,175523.750,4308.3061,N,07726.2698,W,1,05,1.60,170.2,M,-34.4,M,,*59
$GPRMC,175524.000,A,4308.3061,N,07726.2698,W,0.14,143.85,060921,,,A*74
$GPGGA,175524.250,4308.3061,N,07726.2697,W,1,05,1.60,170.2,M,-34.4,M,,*54
$GPRMC,175524.500,A,4308.3061,N,07726.2697,W,0.21,147.71,060921,,,A*77
$GPGGA,175524.750,4308.3061,N,07726.2697,W,1,05,1.60,170.2,M,-34.4,M,,*51
$GPRMC,175525.000,A,4308.3061,N,07726.2697,W,0.32,146.81,060921,,,A*7F
$GPGGA,175525.250,4308.3060,N,07726.2697,W,1,05,1.60,170.2,M,-34.4,M,,*54
$GPRMC,175525.500,A,4308.3060,N,07726.2697,W,0.34,160.39,060921,,,A*7A
$GPGGA,175525.750,4308.3060,N,07726.2697,W,1,05,1.60,170.2,M,-34.4,M,,*51
$GPRMC,175526.000,A,4308.3060,N,07726.2697,W,0.19,153.20,060921,,,A*7B
$GPGGA,175526.250,4308.3060,N,07726.2696,W,1,05,1.60,170.2,M,-34.4,M,,*56
$GPRMC,175526.500,A,4308.3059,N,07726.2696,W,0.19,160.03,060921,,,A*74
$GPGGA,175526.750,4308.3059,N,07726.2696,W,1,05,1.60,170.2,M,-34.4,M,,*59
$GPRMC,175527.000,A,4308.3059,N,07726.2696,W,0.09,139.78,060921,,,A*71
$GPGGA,175527.250,4308.3059,N,07726.2696,W,1,05,1.60,170.2,M,-34.4,M,,*5D
$GPRMC,175527.500,A,4308.3059,N,07726.2696,W,0.09,149.08,060921,,,A*74
$GPGGA,175527.750,4308.3059,N,07726.2696,W,1,05,1.60,170.2,M,-34.4,M,,*58
$GPRMC,175528.000,A,4308.3059,N,07726.2696,W,0.02,193.38,060921,,,A*71
$GPGGA,175528.250,4308.3059,N,07726.2696,W,1,05,1.60,170.2,M,-34.4,M,,*52
$GPRMC,175528.500,A,4308.3059,N,07726.2696,W,0.08,182.11,060921,,,A*75
$GPGGA,175528.750,4308.3059,N,07726.2696,W,1,05,1.60,170.2,M,-34.4,M,,*57
$GPRMC,175529.000,A,4308.3059,N,07726.2696,W,0.12,183.18,060921,,,A*72
$GPGGA,175529.250,4308.3059,N,07726.2696,W,1,05,1.60,170.2,M,-34.4,M,,*53
$GPRMC,175529.500,A,4308.3059,N,07726.2696,W,0.09,209.31,060921,,,A*77
$GPGGA,175529.750,4308.3059,N,07726.2696,W,1,05,1.60,170.2,M,-34.4,M,,*56
$GPRMC,175530.000,A,4308.3059,N,07726.2696,W,0.12,174.71,060921,,,A*7D
$GPGGA,175530.250,4308.3058,N,07726.2696,W,1,05,1.60,170.2,M,-34.4,M,,*5A
$GPRMC,175530.500,A,4308.3058,N,07726.2696,W,0.10,179.99,060921,,,A*70
$GPGGA,175530.750,4308.3058,N,07726.2696,W,1,05,1.60,170.2,M,-34.4,M,,*5F
$GPRMC,175531.000,A,4308.3058,N,07726.2696,W,0.15,198.44,060921,,,A*7E
$GPGGA,175531.250,4308.3058,N,07726.2696,W,1,05,1.60,170.2,M,-34.4,M,,*5B
$GPRMC,175531.500,A,4308.3058,N,07726.2696,W,0.16,209.99,060921,,,A*73
$GPGGA,175531.750,4308.3058,N,07726.2696,W,1,05,1.60,170.2,M,-34.4,M,,*5E
$GPRMC,175532.000,A,4308.3058,N,07726.2697,W,0.25,217.29,060921,,,A*70
$GPGGA,175532.250,4308.3058,N,07726.2697,W,1,05,1.60,170.2,M,-34.4,M,,*59
$GPRMC,175532.500,A,4308.3057,N,07726.2697,W,0.19,208.33,060921,,,A*70
$GPGGA,175532.750,4308.3057,N,07726.2697,W,1,05,1.60,170.2,M,-34.4,M,,*53
$GPRMC,175533.000,A,4308.3057,N,07726.2697,W,0.14,197.88,060921,,,A*7C
$GPGGA,175533.250,4308.3057,N,07726.2697,W,1,05,1.60,170.2,M,-34.4,M,,*57
$GPRMC,175533.500,A,4308.3057,N,07726.2697,W,0.12,178.51,060921,,,A*7A
$GPGGA,175533.750,4308.3057,N,07726.2697,W,1,05,1.60,170.2,M,-34.4,M,,*52
$GPRMC,175534.000,A,4308.3057,N,07726.2697,W,0.16,157.39,060921,,,A*7F
$GPGGA,175534.250,4308.3057,N,07726.2697,W,1,05,1.60,170.2,M,-34.4,M,,*50
$GPRMC,175534.500,A,4308.3057,N,07726.2697,W,0.22,138.00,060921,,,A*7E
$GPGGA,175534.750,4308.3057,N,07726.2697,W,1,05,1.60,170.2,M,-34.4,M,,*55
$GPRMC,175535.000,A,4308.3056,N,07726.2696,W,0.22,145.75,060921,,,A*72
$GPGGA,175535.250,4308.3056,N,07726.2696,W,1,05,1.60,170.2,M,-34.4,M,,*51
$GPRMC,175535.500,A,4308.3056,N,07726.2696,W,0.21,152.23,060921,,,A*71
$GPGGA,175535.750,4308.3056,N,07726.2696,W,1,05,1.60,170.2,M,-34.4,M,,*54
$GPRMC,175536.000,A,4308.3056,N,07726.2696,W,0.37,159.84,060921,,,A*76
$GPGGA,175536.250,4308.3056,N,07726.2696,W,1,05,1.60,170.2,M,-34.4,M,,*52
$GPRMC,175536.500,A,4308.3055,N,07726.2696,W,0.25,157.76,060921,,,A*70
$GPGGA,175536.750,4308.3055,N,07726.2696,W,1,05,1.60,170.2,M,-34.4,M,,*54
$GPRMC,175537.000,A,4308.3055,N,07726.2696,W,0.09,155.91,060921,,,A*71
$GPGGA,175537.250,4308.3055,N,07726.2696,W,1,05,1.60,170.2,M,-34.4,M,,*50
$GPRMC,175537.500,A,4308.3055,N,07726.2695,W,0.24,144.80,060921,,,A*78
$GPGGA,175537.750,4308.3055,N,07726.2695,W,1,05,1.60,170.2,M,-34.4,M,,*56
$GPRMC,175538.000,A,4308.3055,N,07726.2695,W,0.21,143.81,060921,,,A*71
$GPGGA,175538.250,4308.3054,N,07726.2695,W,1,05,1.60,170.2,M,-34.4,M,,*5D
$GPRMC,175538.500,A,4308.3054,N,07726.2695,W,0.15,142.26,060921,,,A*7E
$GPGGA,175538.750,4308.3054,N,07726.2695,W,1,05,1.60,170.2,M,-34.4,M,,*58
$GPRMC,175539.000,A,4308.3054,N,07726.2695,W,0.20,180.56,060921,,,A*75
$GPGGA,175539.250,4308.3054,N,07726.2695,W,1,05,1.60,170.2,M,-34.4,M,,*5C
$GPRMC,175539.500,A,4308.3054,N,07726.2695,W,0.22,162.01,060921,,,A*7C
$GPGGA,175539.750,4308.3054,N,07726.2695,W,1,05,1.60,170.2,M,-34.4,M,,*59
$GPRMC,175540.000,A,4308.3054,N,07726.2695,W,0.25,170.01,060921,,,A*73
$GPGGA,175540.250,4308.3053,N,07726.2695,W,1,05,1.60,170.2,M,-34.4,M,,*55
$GPRMC,175540.500,A,4308.3053,N,07726.2694,W,0.28,157.18,060921,,,A*70
$GPGGA,175540.750,4308.3053,N,07726.2694,W,1,05,1.60,170.2,M,-34.4,M,,*51
$GPRMC,175541.000,A,4308.3053,N,07726.2694,W,0.17,143.88,060921,,,A*74
$GPGGA,175541.250,4308.3053,N,07726.2694,W,1,05,1.60,170.2,M,-34.4,M,,*55
$GPRMC,175541.500,A,4308.3053,N,07726.2694,W,0.14,138.52,060921,,,A*79
$GPGGA,175541.750,4308.3053,N,07726.2694,W,1,05,1.60,170.2,M,-34.4,M,,*50
$GPRMC,175542.000,A,4308.3053,N,07726.2694,W,0.25,91.76,060921,,,A*49
$GPGGA,175542.250,4308.3052,N,07726.2693,W,1,05,1.60,170.2,M,-34.4,M,,*50
$GPRMC,175542.500,A,4308.3052,N,07726.2693,W,0.32,106.72,060921,,,A*77
$GPGGA,175542.750,4308.3052,N,07726.2693,W,1,05,1.60,170.2,M,-34.4,M,,*55
$GPRMC,175543.000,A,4308.3052,N,07726.2693,W,0.32,107.07,060921,,,A*70
$GPGGA,175543.250,4308.3052,N,07726.2692,W,1,05,1.60,170.2,M,-34.4,M,,*50
$GPRMC,175543.500,A,4308.3052,N,07726.2692,W,0.44,103.50,060921,,,A*73
$GPGGA,175543.750,4308.3052,N,07726.2692,W,1,05,1.60,170.2,M,-34.4,M,,*55
$GPRMC,175544.000,A,4308.3052,N,07726.2691,W,0.43,123.56,060921,,,A*71
$GPGGA,175544.250,4308.3052,N,07726.2691,W,1,05,1.60,170.2,M,-34.4,M,,*54
$GPRMC,175544.500,A,4308.3052,N,07726.2691,W,0.28,124.09,060921,,,A*74
$GPGGA,175544.750,4308.3051,N,07726.2690,W,1,05,1.60,170.2,M,-34.4,M,,*53
$GPRMC,175545.000,A,4308.3051,N,07726.2690,W,0.20,115.59,060921,,,A*7D
$GPGGA,175545.250,4308.3051,N,07726.2690,W,1,05,1.60,170.2,M,-34.4,M,,*57
$GPRMC,175545.500,A,4308.3051,N,07726.2690,W,0.21,134.09,060921,,,A*7F
$GPGGA,175545.750,4308.3051,N,07726.2690,W,1,05,1.60,170.2,M,-34.4,M,,*52
$GPRMC,175546.000,A,4308.3051,N,07726.2690,W,0.21,123.89,060921,,,A*77
$GPGGA,175546.250,4308.3051,N,07726.2690,W,1,05,1.60,170.2,M,-34.4,M,,*54
$GPRMC,175546.500,A,4308.3051,N,07726.2689,W,0.14,129.34,060921,,,A*70
$GPGGA,175546.750,4308.3051,N,07726.2689,W,1,05,1.60,170.2,M,-34.4,M,,*59
$GPRMC,175547.000,A,4308.3051,N,07726.2689,W,0.04,86.59,060921,,,A*4A
$GPGGA,175547.250,4308.3051,N,07726.2689,W,1,05,1.60,170.2,M,-34.4,M,,*5D
$GPRMC,175547.500,A,4308.3051,N,07726.2689,W,0.10,103.47,060921,,,A*79
$GPGGA,175547.750,4308.3051,N,07726.2689,W,1,05,1.60,170.2,M,-34.4,M,,*58
$GPRMC,175548.000,A,4308.3051,N,07726.2689,W,0.14,128.83,060921,,,A*76
$GPGGA,175548.250,4308.3051,N,07726.2689,W,1,05,1.60,170.2,M,-34.4,M,,*52
$GPRMC,175548.500,A,4308.3051,N,07726.2689,W,0.14,108.32,060921,,,A*7B
$GPGGA,175548.750,4308.3051,N,07726.2689,W,1,05,1.60,170.2,M,-34.4,M,,*57
$GPRMC,175549.000,A,4308.3050,N,07726.2689,W,0.13,189.28,060921,,,A*7B
$GPGGA,175549.250,4308.3050,N,07726.2689,W,1,05,1.60,170.2,M,-34.4,M,,*52
$GPRMC,175549.500,A,4308.3050,N,07726.2689,W,0.21,198.11,060921,,,A*75
$GPGGA,175549.750,4308.3050,N,07726.2689,W,1,05,1.60,170.2,M,-34.4,M,,*57
$GPRMC,175550.000,A,4308.3050,N,07726.2689,W,0.24,183.76,060921,,,A*76
$GPGGA,175550.250,4308.3050,N,07726.2689,W,1,05,1.60,170.2,M,-34.4,M,,*5A
$GPRMC,175550.500,A,4308.3050,N,07726.2689,W,0.26,181.22,060921,,,A*72
$GPGGA,175550.750,4308.3049,N,07726.2689,W,1,05,1.60,170.2,M,-34.4,M,,*57
$GPRMC,175551.000,A,4308.3049,N,07726.2689,W,0.23,191.34,060921,,,A*7D
$GPGGA,175551.250,4308.3049,N,07726.2689,W,1,05,1.60,170.2,M,-34.4,M,,*53
$GPRMC,175551.500,A,4308.3049,N,07726.2689,W,0.25,155.28,060921,,,A*7B
$GPGGA,175551.750,4308.3049,N,07726.2689,W,1,05,1.60,170.2,M,-34.4,M,,*56
$GPRMC,175552.000,A,4308.3049,N,07726.2689,W,0.27,145.57,060921,,,A*76
$GPGGA,175552.250,4308.3048,N,07726.2689,W,1,05,1.60,170.2,M,-34.4,M,,*51
$GPRMC,175552.500,A,4308.3048,N,07726.2689,W,0.27,147.43,060921,,,A*75
$GPGGA,175552.750,4308.3048,N,07726.2689,W,1,05,1.60,170.2,M,-34.4,M,,*54
$GPRMC,175553.000,A,4308.3048,N,07726.2689,W,0.31,140.88,060921,,,A*76
$GPGGA,175553.250,4308.3048,N,07726.2688,W,1,05,1.60,170.2,M,-34.4,M,,*51
$GPRMC,175553.500,A,4308.3048,N,07726.2688,W,0.31,142.14,060921,,,A*75
$GPGGA,175553.750,4308.3047,N,07726.2688,W,1,05,1.60,170.2,M,-34.4,M,,*5B
$GPRMC,175554.000,A,4308.3047,N,07726.2688,W,0.27,150.06,060921,,,A*7F
$GPGGA,175554.250,4308.3047,N,07726.2688,W,1,05,1.60,170.2,M,-34.4,M,,*59
$GPRMC,175554.500,A,4308.3047,N,07726.2688,W,0.25,146.15,060921,,,A*7D
$GPGGA,175554.750,4308.3047,N,07726.2688,W,1,05,1.60,170.2,M,-34.4,M,,*5C
$GPRMC,175555.000,A,4308.3047,N,07726.2687,W,0.22,134.51,060921,,,A*74
$GPGGA,175555.250,4308.3047,N,07726.2687,W,1,05,1.60,170.2,M,-34.4,M,,*57
$GPRMC,175555.500,A,4308.3046,N,07726.2687,W,0.26,157.46,060921,,,A*77
$GPGGA,175555.750,4308.3046,N,07726.2687,W,1,05,1.60,170.2,M,-34.4,M,,*53
$GPRMC,175556.000,A,4308.3046,N,07726.2687,W,0.30,150.61,060921,,,A*74
$GPGGA,175556.250,4308.3046,N,07726.2687,W,1,05,1.60,170.2,M,-34.4,M,,*55
$GPRMC,175556.500,A,4308.3046,N,07726.2687,W,0.27,149.94,060921,,,A*75
$GPGGA,175556.750,4308.3046,N,07726.2687,W,1,05,1.60,170.2,M,-34.4,M,,*50
$GPRMC,175557.000,A,4308.3045,N,07726.2686,W,0.23,138.85,060921,,,A*71
$GPGGA,175557.250,4308.3045,N,07726.2686,W,1,05,1.60,170.2,M,-34.4,M,,*56
$GPRMC,175557.500,A,4308.3045,N,07726.2686,W,0.25,137.09,060921,,,A*79
$GPGGA,175557.750,4308.3045,N,07726.2686,W,1,05,1.60,170.2,M,-34.4,M,,*53
$GPRMC,175558.000,A,4308.3045,N,07726.2686,W,0.29,136.68,060921,,,A*79
$GPGGA,175558.250,4308.3045,N,07726.2686,W,1,05,1.60,170.2,M,-34.4,M,,*59
$GPRMC,175558.500,A,4308.3045,N,07726.2686,W,0.34,133.91,060921,,,A*73
$GPGGA,175558.750,4308.3044,N,07726.2685,W,1,05,1.60,170.2,M,-34.4,M,,*5E
$GPRMC,175559.000,A,4308.3044,N,07726.2685,W,0.40,130.80,060921,,,A*75
$GPGGA,175559.250,4308.3044,N,07726.2685,W,1,05,1.60,170.2,M,-34.4,M,,*5A
$GPRMC,175559.500,A,4308.3044,N,07726.2684,W,0.42,140.01,060921,,,A*7D
$GPGGA,175559.750,4308.3044,N,07726.2684,W,1,05,1.60,170.2,M,-34.4,M,,*5E
$GPRMC,175600.000,A,4308.3043,N,07726.2684,W,0.37,141.58,060921,,,A*7F
$GPGGA,175600.250,4308.3043,N,07726.2684,W,1,05,1.60,170.2,M,-34.4,M,,*53
$GPRMC,175600.500,A,4308.3043,N,07726.2684,W,0.32,149.55,060921,,,A*7A
$GPGGA,175600.750,4308.3043,N,07726.2684,W,1,05,1.60,170.2,M,-34.4,M,,*56
$GPRMC,175601.000,A,4308.3043,N,07726.2683,W,0.31,156.30,060921,,,A*77
