Vers 81
USE_SERIAL_FEEDBACK=true
DEVELOPMENT_MODE=false
USE_RMC_ONLY=false

$GPRMC,180426.000,A,3554.7487,N,08403.5209,W,0.17,301.09,250721,,,A*71
$GPGGA,180426.250,3554.7488,N,08403.5211,W,1,03,1.78,182.1,M,-32.1,M,,*56
$GPRMC,180426.500,A,3554.7489,N,08403.5212,W,0.10,176.00,250721,,,A*7C
$GPGGA,180426.750,3554.7490,N,08403.5213,W,1,03,1.78,182.1,M,-32.1,M,,*58
$GPRMC,180427.000,A,3554.7491,N,08403.5214,W,0.09,196.09,250721,,,A*78
$GPGGA,180427.250,3554.7492,N,08403.5214,W,1,03,1.78,182.1,M,-32.1,M,,*59
$GPRMC,180427.500,A,3554.7493,N,08403.5214,W,0.10,274.23,250721,,,A*70
$GPGGA,180427.750,3554.7494,N,08403.5213,W,1,03,1.78,182.1,M,-32.1,M,,*5D
$GPRMC,180428.000,A,3554.7494,N,08403.5212,W,0.11,224.50,250721,,,A*7B
$GPGGA,180428.250,3554.7495,N,08403.5212,W,1,03,1.78,182.1,M,-32.1,M,,*57
$GPRMC,180428.500,A,3554.7495,N,08403.5213,W,0.22,244.00,250721,,,A*7D
$GPGGA,180428.750,3554.7496,N,08403.5214,W,1,03,1.78,182.1,M,-32.1,M,,*57
$GPRMC,180429.000,A,3554.7496,N,08403.5214,W,0.20,255.46,250721,,,A*7D
$GPGGA,180429.250,3554.7496,N,08403.5215,W,1,03,1.78,182.1,M,-32.1,M,,*52
$GPRMC,180429.500,A,3554.7497,N,08403.5215,W,0.19,244.63,250721,,,A*75
$GPGGA,180429.750,3554.7497,N,08403.5216,W,1,03,1.78,182.1,M,-32.1,M,,*55
$GPRMC,180430.000,A,3554.7497,N,08403.5217,W,0.25,262.73,250721,,,A*70
$GPGGA,180430.093,3554.7547,N,08403.5383,W,1,05,1.57,253.7,M,-3.1,M,,*56
$GPRMC,180430.500,A,3554.7547,N,08403.5385,W,0.74,320.22,250721,,,A*74
$GPGGA,180430.750,3554.7546,N,08403.5385,W,1,05,1.58,254.2,M,-32.1,M,,*54
$GPRMC,180431.000,A,3554.7546,N,08403.5386,W,0.57,322.69,250721,,,A*7E
$GPGGA,180431.250,3554.7546,N,08403.5387,W,1,05,1.57,254.5,M,-32.1,M,,*5A
$GPRMC,180431.500,A,3554.7545,N,08403.5388,W,0.45,313.96,250721,,,A*77
$GPGGA,180431.750,3554.7545,N,08403.5389,W,1,05,1.58,254.9,M,-32.1,M,,*51
$GPRMC,180432.000,A,3554.7544,N,08403.5389,W,0.37,309.68,250721,,,A*7E
$GPGGA,180432.250,3554.7544,N,08403.5390,W,1,05,1.57,255.2,M,-32.1,M,,*5B
$GPRMC,180432.500,A,3554.7544,N,08403.5391,W,0.38,307.54,250721,,,A*7C
$GPGGA,180432.750,3554.7544,N,08403.5391,W,1,05,1.57,255.6,M,-32.1,M,,*5B
$GPRMC,180433.000,A,3554.7544,N,08403.5391,W,0.30,314.16,250721,,,A*74
$GPGGA,180433.250,3554.7543,N,08403.5391,W,1,05,1.57,255.8,M,-32.1,M,,*56
$GPRMC,180433.500,A,3554.7543,N,08403.5392,W,0.24,302.34,250721,,,A*77
$GPGGA,180433.750,3554.7542,N,08403.5392,W,1,05,1.57,255.9,M,-32.1,M,,*50
$GPRMC,180434.000,A,3554.7542,N,08403.5391,W,0.25,301.44,250721,,,A*72
$GPGGA,180434.250,3554.7542,N,08403.5391,W,1,05,1.58,255.9,M,-32.1,M,,*5E
$GPRMC,180434.500,A,3554.7542,N,08403.5390,W,0.17,305.54,250721,,,A*72
$GPGGA,180434.750,3554.7542,N,08403.5390,W,1,05,1.58,256.0,M,-32.1,M,,*50
$GPRMC,180435.000,A,3554.7541,N,08403.5390,W,0.20,304.23,250721,,,A*70
$GPGGA,180435.250,3554.7541,N,08403.5389,W,1,05,1.57,256.1,M,-32.1,M,,*51
$GPRMC,180435.500,A,3554.7541,N,08403.5389,W,0.12,293.44,250721,,,A*72
$GPGGA,180435.750,3554.7541,N,08403.5389,W,1,05,1.57,256.2,M,-32.1,M,,*57
$GPRMC,180436.000,A,3554.7541,N,08403.5389,W,0.13,309.46,250721,,,A*75
$GPGGA,180436.250,3554.7541,N,08403.5389,W,1,05,1.57,256.4,M,-32.1,M,,*57
$GPRMC,180436.500,A,3554.7541,N,08403.5390,W,0.25,323.82,250721,,,A*7D
$GPGGA,180436.750,3554.7541,N,08403.5390,W,1,05,1.57,256.5,M,-32.1,M,,*5B
$GPRMC,180437.000,A,3554.7541,N,08403.5390,W,0.24,314.53,250721,,,A*70
$GPGGA,180437.250,3554.7541,N,08403.5391,W,1,05,1.57,256.6,M,-32.1,M,,*5D
$GPRMC,180437.500,A,3554.7541,N,08403.5391,W,0.28,310.05,250721,,,A*7F
$GPGGA,180437.750,3554.7541,N,08403.5391,W,1,05,1.58,256.7,M,-32.1,M,,*56
$GPRMC,180438.000,A,3554.7542,N,08403.5392,W,0.28,308.25,250721,,,A*7E
$GPGGA,180438.250,3554.7542,N,08403.5392,W,1,05,1.57,256.8,M,-32.1,M,,*5C
$GPRMC,180438.500,A,3554.7541,N,08403.5392,W,0.26,299.51,250721,,,A*7C
$GPGGA,180438.750,3554.7541,N,08403.5393,W,1,05,1.57,256.9,M,-32.1,M,,*5A
$GPRMC,180439.000,A,3554.7541,N,08403.5393,W,0.26,285.81,250721,,,A*79
$GPGGA,180439.250,3554.7541,N,08403.5394,W,1,05,1.57,257.0,M,-32.1,M,,*51
$GPRMC,180439.500,A,3554.7540,N,08403.5395,W,0.31,273.73,250721,,,A*79
$GPGGA,180439.750,3554.7540,N,08403.5395,W,1,05,1.57,257.1,M,-32.1,M,,*55
$GPRMC,180440.000,A,3554.7540,N,08403.5396,W,0.34,278.30,250721,,,A*78
$GPGGA,180440.250,3554.7540,N,08403.5396,W,1,05,1.57,257.1,M,-32.1,M,,*5D
$GPRMC,180440.500,A,3554.7540,N,08403.5396,W,0.31,287.34,250721,,,A*7C
$GPGGA,180440.750,3554.7540,N,08403.5396,W,1,05,1.57,257.2,M,-32.1,M,,*5B
$GPRMC,180441.000,A,3554.7540,N,08403.5397,W,0.33,288.24,250721,,,A*75
$GPGGA,180441.250,3554.7540,N,08403.5397,W,1,05,1.57,257.2,M,-32.1,M,,*5E
$GPRMC,180441.500,A,3554.7540,N,08403.5396,W,0.28,293.08,250721,,,A*7F
$GPGGA,180441.750,3554.7540,N,08403.5397,W,1,05,1.57,257.3,M,-32.1,M,,*5A
$GPRMC,180442.000,A,3554.7540,N,08403.5397,W,0.29,296.34,250721,,,A*73
$GPGGA,180442.250,3554.7540,N,08403.5397,W,1,05,1.57,257.3,M,-32.1,M,,*5C
$GPRMC,180442.500,A,3554.7540,N,08403.5397,W,0.24,288.10,250721,,,A*72
$GPGGA,180442.750,3554.7540,N,08403.5397,W,1,05,1.57,257.5,M,-32.1,M,,*5F
$GPRMC,180443.000,A,3554.7540,N,08403.5397,W,0.20,272.22,250721,,,A*76
$GPGGA,180443.250,3554.7539,N,08403.5398,W,1,05,1.58,257.6,M,-32.1,M,,*56
$GPRMC,180443.500,A,3554.7539,N,08403.5399,W,0.27,245.00,250721,,,A*70
$GPGGA,180443.750,3554.7539,N,08403.5399,W,1,05,1.57,257.6,M,-32.1,M,,*5D
$GPRMC,180444.000,A,3554.7539,N,08403.5399,W,0.25,243.89,250721,,,A*77
$GPGGA,180444.250,3554.7539,N,08403.5399,W,1,05,1.57,257.6,M,-32.1,M,,*5F
$GPRMC,180444.500,A,3554.7540,N,08403.5398,W,0.13,247.78,250721,,,A*72
$GPGGA,180444.750,3554.7540,N,08403.5398,W,1,05,1.57,257.6,M,-32.1,M,,*55
$GPRMC,180445.000,A,3554.7540,N,08403.5398,W,0.12,243.59,250721,,,A*70
$GPGGA,180445.250,3554.7540,N,08403.5398,W,1,05,1.57,257.6,M,-32.1,M,,*51
$GPRMC,180445.500,A,3554.7539,N,08403.5398,W,0.13,212.15,250721,,,A*76
$GPGGA,180445.750,3554.7539,N,08403.5398,W,1,05,1.57,257.6,M,-32.1,M,,*5A
$GPRMC,180446.000,A,3554.7539,N,08403.5397,W,0.10,185.45,250721,,,A*74
$GPGGA,180446.250,3554.7540,N,08403.5397,W,1,05,1.57,257.6,M,-32.1,M,,*5D
$GPRMC,180446.500,A,3554.7540,N,08403.5396,W,0.03,182.41,250721,,,A*7F
$GPGGA,180446.750,3554.7540,N,08403.5396,W,1,05,1.57,257.6,M,-32.1,M,,*59
$GPRMC,180447.000,A,3554.7540,N,08403.5395,W,0.01,3.64,250721,,,A*75
$GPGGA,180447.250,3554.7541,N,08403.5395,W,1,05,2.59,257.6,M,-32.1,M,,*52
$GPRMC,180447.500,A,3554.7541,N,08403.5394,W,0.05,71.18,250721,,,A*4A
$GPGGA,180447.750,3554.7541,N,08403.5393,W,1,05,1.58,257.5,M,-32.1,M,,*50
$GPRMC,180448.000,A,3554.7541,N,08403.5393,W,0.09,62.28,250721,,,A*4A
$GPGGA,180448.250,3554.7542,N,08403.5393,W,1,05,1.57,257.5,M,-32.1,M,,*56
$GPRMC,180448.500,A,3554.7541,N,08403.5393,W,0.03,113.61,250721,,,A*7F
$GPGGA,180448.750,3554.7541,N,08403.5393,W,1,05,1.57,257.5,M,-32.1,M,,*50
$GPRMC,180449.000,A,3554.7541,N,08403.5392,W,0.06,221.90,250721,,,A*73
$GPGGA,180449.250,3554.7541,N,08403.5392,W,1,05,1.57,257.5,M,-32.1,M,,*55
$GPRMC,180449.500,A,3554.7542,N,08403.5391,W,0.06,240.22,250721,,,A*78
$GPGGA,180449.750,3554.7542,N,08403.5390,W,1,05,1.57,257.5,M,-32.1,M,,*51
$GPRMC,180450.000,A,3554.7542,N,08403.5390,W,0.03,285.21,250721,,,A*7B
$GPGGA,180450.250,3554.7543,N,08403.5389,W,1,05,1.57,257.5,M,-32.1,M,,*55
$GPRMC,180450.500,A,3554.7543,N,08403.5389,W,0.03,303.14,250721,,,A*7E
$GPGGA,180450.750,3554.7543,N,08403.5389,W,1,05,1.57,257.6,M,-32.1,M,,*53
$GPRMC,180451.000,A,3554.7543,N,08403.5389,W,0.10,296.92,250721,,,A*7B
$GPGGA,180451.250,3554.7543,N,08403.5389,W,1,05,1.57,257.6,M,-32.1,M,,*57
$GPRMC,180451.500,A,3554.7543,N,08403.5389,W,0.04,235.33,250721,,,A*79
$GPGGA,180451.750,3554.7543,N,08403.5389,W,1,05,1.57,257.6,M,-32.1,M,,*52
$GPRMC,180452.000,A,3554.7543,N,08403.5388,W,0.05,156.41,250721,,,A*7C
$GPGGA,180452.250,3554.7543,N,08403.5389,W,1,05,1.57,257.7,M,-32.1,M,,*55
$GPRMC,180452.500,A,3554.7543,N,08403.5388,W,0.08,127.19,250721,,,A*7F
$GPGGA,180452.750,3554.7544,N,08403.5388,W,1,05,1.57,257.7,M,-32.1,M,,*56
$GPRMC,180453.000,A,3554.7544,N,08403.5388,W,0.12,121.28,250721,,,A*73
$GPGGA,180453.250,3554.7544,N,08403.5388,W,1,05,1.57,257.7,M,-32.1,M,,*52
$GPRMC,180453.500,A,3554.7544,N,08403.5387,W,0.13,111.70,250721,,,A*76
$GPGGA,180453.750,3554.7544,N,08403.5387,W,1,05,1.58,257.7,M,-32.1,M,,*57
$GPRMC,180454.000,A,3554.7544,N,08403.5386,W,0.18,112.25,250721,,,A*7D
$GPGGA,180454.250,3554.7544,N,08403.5386,W,1,05,1.57,257.8,M,-32.1,M,,*54
$GPRMC,180454.500,A,3554.7544,N,08403.5386,W,0.16,103.53,250721,,,A*77
$GPGGA,180454.750,3554.7545,N,08403.5386,W,1,05,1.57,257.8,M,-32.1,M,,*50
$GPRMC,180455.000,A,3554.7545,N,08403.5386,W,0.12,76.92,250721,,,A*48
$GPGGA,180455.250,3554.7546,N,08403.5386,W,1,05,1.57,257.9,M,-32.1,M,,*56
$GPRMC,180455.500,A,3554.7546,N,08403.5385,W,0.15,76.20,250721,,,A*43
$GPGGA,180455.750,3554.7546,N,08403.5385,W,1,05,1.57,257.9,M,-32.1,M,,*50
$GPRMC,180456.000,A,3554.7546,N,08403.5385,W,0.17,77.70,250721,,,A*43
$GPGGA,180456.250,3554.7547,N,08403.5385,W,1,05,1.57,257.9,M,-32.1,M,,*57
$GPRMC,180456.500,A,3554.7547,N,08403.5384,W,0.18,56.35,250721,,,A*4B
$GPGGA,180456.750,3554.7547,N,08403.5384,W,1,05,1.57,258.0,M,-32.1,M,,*55
$GPRMC,180457.000,A,3554.7547,N,08403.5384,W,0.19,69.86,250721,,,A*4A
$GPGGA,180457.250,3554.7547,N,08403.5383,W,1,05,1.57,258.0,M,-32.1,M,,*56
$GPRMC,180457.500,A,3554.7547,N,08403.5383,W,0.22,108.27,250721,,,A*7D
$GPGGA,180457.750,3554.7547,N,08403.5383,W,1,05,1.58,258.0,M,-32.1,M,,*5C
$GPRMC,180458.000,A,3554.7546,N,08403.5383,W,0.20,115.55,250721,,,A*7D
$GPGGA,180458.250,3554.7546,N,08403.5383,W,1,05,1.57,258.0,M,-32.1,M,,*58
$GPRMC,180458.500,A,3554.7546,N,08403.5383,W,0.19,138.22,250721,,,A*7D
$GPGGA,180458.750,3554.7546,N,08403.5383,W,1,05,1.57,258.0,M,-32.1,M,,*5D
$GPRMC,180459.000,A,3554.7546,N,08403.5382,W,0.16,139.05,250721,,,A*73
$GPGGA,180459.250,3554.7546,N,08403.5382,W,1,05,1.57,258.0,M,-32.1,M,,*58
$GPRMC,180459.500,A,3554.7546,N,08403.5382,W,0.19,143.07,250721,,,A*76
$GPGGA,180459.750,3554.7546,N,08403.5382,W,1,05,1.57,258.0,M,-32.1,M,,*5D
$GPRMC,180500.000,A,3554.7546,N,08403.5382,W,0.16,143.50,250721,,,A*73
$GPGGA,180500.250,3554.7546,N,08403.5382,W,1,05,1.57,258.0,M,-32.1,M,,*55
$GPRMC,180500.500,A,3554.7546,N,08403.5382,W,0.10,128.65,250721,,,A*7B
$GPGGA,180500.750,3554.7546,N,08403.5382,W,1,05,1.57,258.0,M,-32.1,M,,*50
$GPRMC,180501.000,A,3554.7546,N,08403.5382,W,0.13,113.52,250721,,,A*70
$GPGGA,180501.250,3554.7546,N,08403.5382,W,1,05,1.57,258.0,M,-32.1,M,,*54
$GPRMC,180501.500,A,3554.7546,N,08403.5382,W,0.11,72.30,250721,,,A*45
$GPGGA,180501.750,3554.7546,N,08403.5381,W,1,05,1.57,258.0,M,-32.1,M,,*52
$GPRMC,180502.000,A,3554.7546,N,08403.5381,W,0.16,31.52,250721,,,A*44
$GPGGA,180502.250,3554.7546,N,08403.5381,W,1,05,1.57,258.0,M,-32.1,M,,*54
$GPRMC,180502.500,A,3554.7546,N,08403.5381,W,0.13,67.41,250721,,,A*45
$GPGGA,180502.750,3554.7546,N,08403.5381,W,1,05,1.57,258.0,M,-32.1,M,,*51
$GPRMC,180503.000,A,3554.7546,N,08403.5381,W,0.14,92.19,250721,,,A*41
$GPGGA,180503.250,3554.7546,N,08403.5381,W,1,05,1.57,258.0,M,-32.1,M,,*55
$GPRMC,180503.500,A,3554.7546,N,08403.5381,W,0.18,125.87,250721,,,A*72
$GPGGA,180503.750,3554.7546,N,08403.5381,W,1,05,1.57,258.0,M,-32.1,M,,*50
$GPRMC,180504.000,A,3554.7546,N,08403.5380,W,0.29,136.25,250721,,,A*79
$GPGGA,180504.250,3554.7546,N,08403.5380,W,1,05,1.57,258.0,M,-32.1,M,,*53
$GPRMC,180504.500,A,3554.7545,N,08403.5380,W,0.34,136.31,250721,,,A*76
$GPGGA,180504.750,3554.7545,N,08403.5380,W,1,05,1.57,258.0,M,-32.1,M,,*55
$GPRMC,180505.000,A,3554.7545,N,08403.5380,W,0.28,123.00,250721,,,A*79
$GPGGA,180505.250,3554.7545,N,08403.5379,W,1,05,1.57,258.0,M,-32.1,M,,*57
$GPRMC,180505.500,A,3554.7545,N,08403.5379,W,0.27,116.20,250721,,,A*71
$GPGGA,180505.750,3554.7545,N,08403.5379,W,1,05,1.57,258.0,M,-32.1,M,,*52
$GPRMC,180506.000,A,3554.7545,N,08403.5379,W,0.28,109.27,250721,,,A*71
$GPGGA,180506.250,3554.7545,N,08403.5379,W,1,05,1.57,258.0,M,-32.1,M,,*54
$GPRMC,180506.500,A,3554.7545,N,08403.5378,W,0.24,98.59,250721,,,A*49
$GPGGA,180506.750,3554.7545,N,08403.5378,W,1,05,1.57,258.0,M,-32.1,M,,*50
$GPRMC,180507.000,A,3554.7545,N,08403.5378,W,0.22,91.99,250721,,,A*4E
$GPGGA,180507.250,3554.7545,N,08403.5378,W,1,05,1.57,258.0,M,-32.1,M,,*54
$GPRMC,180507.500,A,3554.7545,N,08403.5378,W,0.21,84.22,250721,,,A*4C
$GPGGA,180507.750,3554.7545,N,08403.5377,W,1,05,1.57,258.0,M,-32.1,M,,*5E
$GPRMC,180508.000,A,3554.7545,N,08403.5377,W,0.26,92.68,250721,,,A*47
$GPGGA,180508.250,3554.7545,N,08403.5377,W,1,05,1.57,258.0,M,-32.1,M,,*54
$GPRMC,180508.500,A,3554.7545,N,08403.5377,W,0.36,104.44,250721,,,A*73
$GPGGA,180508.750,3554.7545,N,08403.5376,W,1,05,1.57,258.0,M,-32.1,M,,*50
$GPRMC,180509.000,A,3554.7545,N,08403.5376,W,0.34,97.78,250721,,,A*40
$GPGGA,180509.250,3554.7545,N,08403.5376,W,1,05,1.57,258.0,M,-32.1,M,,*54
$GPRMC,180509.500,A,3554.7545,N,08403.5375,W,0.48,63.66,250721,,,A*49
$GPGGA,180509.750,3554.7545,N,08403.5375,W,1,05,1.57,258.0,M,-32.1,M,,*52
$GPRMC,180510.000,A,3554.7545,N,08403.5375,W,0.64,63.28,250721,,,A*40
$GPGGA,180510.250,3554.7546,N,08403.5371,W,1,05,1.57,257.9,M,-32.1,M,,*5E
$GPRMC,180510.500,A,3554.7549,N,08403.5369,W,0.82,56.35,250721,,,A*46
$GPGGA,180510.750,3554.7551,N,08403.5368,W,1,05,1.57,257.8,M,-32.1,M,,*54
$GPRMC,180511.000,A,3554.7552,N,08403.5368,W,0.90,47.31,250721,,,A*4E
$GPGGA,180511.250,3554.7553,N,08403.5367,W,1,05,1.57,257.7,M,-32.1,M,,*52
$GPRMC,180511.500,A,3554.7555,N,08403.5367,W,0.96,41.61,250721,,,A*46
$GPGGA,180511.750,3554.7556,N,08403.5365,W,1,05,1.57,257.6,M,-32.1,M,,*51
$GPRMC,180512.000,A,3554.7556,N,08403.5363,W,1.07,41.08,250721,,,A*41
$GPGGA,180512.250,3554.7558,N,08403.5361,W,1,05,1.57,257.6,M,-32.1,M,,*5D
$GPRMC,180512.500,A,3554.7559,N,08403.5359,W,1.20,40.80,250721,,,A*46
$GPGGA,180512.750,3554.7560,N,08403.5359,W,1,05,1.57,257.6,M,-32.1,M,,*58
$GPRMC,180513.000,A,3554.7560,N,08403.5358,W,1.20,39.92,250721,,,A*44
$GPGGA,180513.250,3554.7561,N,08403.5357,W,1,05,1.57,257.6,M,-32.1,M,,*53
$GPRMC,180513.500,A,3554.7562,N,08403.5356,W,1.23,38.61,250721,,,A*43
$GPGGA,180513.750,3554.7564,N,08403.5356,W,1,05,1.57,257.7,M,-32.1,M,,*53
$GPRMC,180514.000,A,3554.7566,N,08403.5355,W,1.35,32.53,250721,,,A*4A
$GPGGA,180514.250,3554.7568,N,08403.5354,W,1,05,1.57,257.8,M,-32.1,M,,*50
$GPRMC,180514.500,A,3554.7570,N,08403.5354,W,1.49,28.41,250721,,,A*4A
$GPGGA,180514.750,3554.7571,N,08403.5353,W,1,05,1.57,257.9,M,-32.1,M,,*5B
$GPRMC,180515.000,A,3554.7573,N,08403.5353,W,1.55,25.35,250721,,,A*49
$GPGGA,180515.250,3554.7575,N,08403.5354,W,1,05,1.57,258.0,M,-32.1,M,,*5A
$GPRMC,180515.500,A,3554.7577,N,08403.5355,W,1.69,14.41,250721,,,A*40
$GPGGA,180515.750,3554.7579,N,08403.5355,W,1,05,2.54,258.1,M,-32.1,M,,*53
$GPRMC,180516.000,A,3554.7581,N,08403.5356,W,1.72,10.32,250721,,,A*46
$GPGGA,180516.250,3554.7582,N,08403.5357,W,1,05,2.54,258.3,M,-32.1,M,,*51
$GPRMC,180516.500,A,3554.7582,N,08403.5360,W,1.58,358.23,250721,,,A*72
$GPGGA,180516.750,3554.7583,N,08403.5362,W,1,05,2.54,258.5,M,-32.1,M,,*55
$GPRMC,180517.000,A,3554.7584,N,08403.5364,W,1.47,346.78,250721,,,A*7B
$GPGGA,180517.250,3554.7584,N,08403.5366,W,1,05,2.54,258.7,M,-32.1,M,,*50
$GPRMC,180517.500,A,3554.7585,N,08403.5367,W,1.44,336.35,250721,,,A*71
$GPGGA,180517.750,3554.7585,N,08403.5367,W,1,05,1.57,258.9,M,-32.1,M,,*5B
$GPRMC,180518.000,A,3554.7585,N,08403.5368,W,1.22,336.43,250721,,,A*75
$GPGGA,180518.250,3554.7585,N,08403.5367,W,1,05,1.57,259.1,M,-32.1,M,,*58
$GPRMC,180518.500,A,3554.7585,N,08403.5365,W,0.89,347.79,250721,,,A*72
$GPGGA,180518.750,3554.7584,N,08403.5364,W,1,05,2.54,259.2,M,-32.1,M,,*5C
$GPRMC,180519.000,A,3554.7584,N,08403.5364,W,0.68,356.29,250721,,,A*7C
$GPGGA,180519.250,3554.7583,N,08403.5363,W,1,05,2.53,259.3,M,-32.1,M,,*5E
$GPRMC,180519.500,A,3554.7582,N,08403.5363,W,0.36,26.39,250721,,,A*46
$GPGGA,180519.750,3554.7581,N,08403.5362,W,1,05,1.57,259.4,M,-32.1,M,,*58
$GPRMC,180520.000,A,3554.7581,N,08403.5362,W,0.28,48.58,250721,,,A*4B
$GPGGA,180520.250,3554.7580,N,08403.5362,W,1,05,1.57,259.7,M,-32.1,M,,*55
$GPRMC,180520.500,A,3554.7580,N,08403.5361,W,0.28,71.28,250721,,,A*41
$GPGGA,180520.750,3554.7580,N,08403.5361,W,1,05,1.57,259.7,M,-32.1,M,,*53
$GPRMC,180521.000,A,3554.7579,N,08403.5360,W,0.33,81.97,250721,,,A*43
$GPGGA,180521.250,3554.7579,N,08403.5359,W,1,05,1.57,259.9,M,-32.1,M,,*54
$GPRMC,180521.500,A,3554.7578,N,08403.5358,W,0.58,98.45,250721,,,A*46
$GPGGA,180521.750,3554.7577,N,08403.5355,W,1,05,1.57,260.1,M,-32.1,M,,*51
$GPRMC,180522.000,A,3554.7576,N,08403.5353,W,1.03,96.49,250721,,,A*48
$GPGGA,180522.250,3554.7574,N,08403.5351,W,1,05,1.57,260.4,M,-32.1,M,,*55
$GPRMC,180522.500,A,3554.7573,N,08403.5350,W,1.27,109.81,250721,,,A*7E
$GPGGA,180522.750,3554.7571,N,08403.5348,W,1,05,1.57,260.7,M,-32.1,M,,*5E
$GPRMC,180523.000,A,3554.7570,N,08403.5346,W,1.45,115.11,250721,,,A*7E
$GPGGA,180523.250,3554.7569,N,08403.5344,W,1,05,1.57,260.9,M,-32.1,M,,*51
$GPRMC,180523.500,A,3554.7568,N,08403.5343,W,1.62,119.70,250721,,,A*79
$GPGGA,180523.750,3554.7567,N,08403.5340,W,1,05,1.57,261.0,M,-32.1,M,,*56
$GPRMC,180524.000,A,3554.7566,N,08403.5339,W,1.77,119.89,250721,,,A*7A
$GPGGA,180524.250,3554.7564,N,08403.5336,W,1,05,1.57,261.0,M,-32.1,M,,*56
$GPRMC,180524.500,A,3554.7562,N,08403.5334,W,1.98,123.65,250721,,,A*7C
$GPGGA,180524.750,3554.7560,N,08403.5331,W,1,05,1.57,261.1,M,-32.1,M,,*51
$GPRMC,180525.000,A,3554.7558,N,08403.5329,W,2.75,130.85,250721,,,A*71
$GPGGA,180525.250,3554.7556,N,08403.5326,W,1,05,1.57,261.1,M,-32.1,M,,*56
$GPRMC,180525.500,A,3554.7555,N,08403.5323,W,3.47,128.20,250721,,,A*75
$GPGGA,180525.750,3554.7554,N,08403.5319,W,1,05,1.57,261.0,M,-32.1,M,,*5C
$GPRMC,180526.000,A,3554.7552,N,08403.5316,W,3.69,121.47,250721,,,A*76
$GPGGA,180526.250,3554.7550,N,08403.5313,W,1,05,1.57,260.9,M,-32.1,M,,*5C
$GPRMC,180526.500,A,3554.7549,N,08403.5309,W,4.01,120.67,250721,,,A*7D
$GPGGA,180526.750,3554.7548,N,08403.5304,W,1,05,2.53,260.8,M,-32.1,M,,*50
$GPRMC,180527.000,A,3554.7546,N,08403.5300,W,4.46,115.38,250721,,,A*70
$GPGGA,180527.250,3554.7545,N,08403.5296,W,1,05,2.52,260.8,M,-32.1,M,,*52
$GPRMC,180527.500,A,3554.7543,N,08403.5291,W,4.96,115.55,250721,,,A*7F
$GPGGA,180527.750,3554.7542,N,08403.5286,W,1,05,2.52,261.0,M,-32.1,M,,*58
$GPRMC,180528.000,A,3554.7540,N,08403.5282,W,4.97,111.57,250721,,,A*73
$GPGGA,180528.250,3554.7539,N,08403.5279,W,1,05,2.52,261.3,M,-32.1,M,,*5D
$GPRMC,180528.500,A,3554.7538,N,08403.5275,W,4.75,110.09,250721,,,A*77
$GPGGA,180528.750,3554.7537,N,08403.5272,W,1,05,2.52,261.5,M,-32.1,M,,*5B
$GPRMC,180529.000,A,3554.7536,N,08403.5268,W,5.00,109.16,250721,,,A*74
$GPGGA,180529.250,3554.7535,N,08403.5263,W,1,05,2.52,261.7,M,-32.1,M,,*5F
$GPRMC,180529.500,A,3554.7534,N,08403.5259,W,4.96,105.24,250721,,,A*72
$GPGGA,180529.750,3554.7534,N,08403.5256,W,1,05,2.52,261.8,M,-32.1,M,,*52
$GPRMC,180530.000,A,3554.7534,N,08403.5251,W,4.91,99.42,250721,,,A*44
$GPGGA,180530.250,3554.7533,N,08403.5247,W,1,05,2.52,261.8,M,-32.1,M,,*58
$GPRMC,180530.500,A,3554.7533,N,08403.5243,W,5.13,94.08,250721,,,A*4D
$GPGGA,180530.750,3554.7533,N,08403.5239,W,1,05,2.52,261.8,M,-32.1,M,,*54
$GPRMC,180531.000,A,3554.7533,N,08403.5234,W,5.35,91.67,250721,,,A*41
$GPGGA,180531.250,3554.7533,N,08403.5229,W,1,05,2.52,261.9,M,-32.1,M,,*50
$GPRMC,180531.500,A,3554.7534,N,08403.5225,W,5.22,85.42,250721,,,A*47
$GPGGA,180531.750,3554.7534,N,08403.5220,W,1,05,2.52,261.9,M,-32.1,M,,*5B
$GPRMC,180532.000,A,3554.7533,N,08403.5215,W,5.07,91.02,250721,,,A*43
$GPGGA,180532.250,3554.7534,N,08403.5211,W,1,05,2.52,261.9,M,-32.1,M,,*5F
$GPRMC,180532.500,A,3554.7533,N,08403.5206,W,5.37,93.10,250721,,,A*46
$GPGGA,180532.750,3554.7533,N,08403.5202,W,1,05,2.52,262.1,M,-32.1,M,,*54
$GPRMC,180533.000,A,3554.7533,N,08403.5197,W,5.32,91.33,250721,,,A*4F
$GPGGA,180533.250,3554.7533,N,08403.5192,W,1,05,2.52,262.1,M,-32.1,M,,*5A
$GPRMC,180533.500,A,3554.7533,N,08403.5187,W,5.36,85.23,250721,,,A*4B
$GPGGA,180533.750,3554.7534,N,08403.5181,W,1,05,2.51,262.2,M,-32.1,M,,*5A
$GPRMC,180534.000,A,3554.7534,N,08403.5176,W,5.34,87.39,250721,,,A*4B
$GPGGA,180534.250,3554.7533,N,08403.5172,W,1,05,2.51,262.3,M,-32.1,M,,*52
$GPRMC,180534.500,A,3554.7533,N,08403.5166,W,5.44,91.07,250721,,,A*45
$GPGGA,180534.750,3554.7533,N,08403.5160,W,1,05,2.51,262.3,M,-32.1,M,,*54
$GPRMC,180535.000,A,3554.7533,N,08403.5155,W,5.50,89.58,250721,,,A*47
$GPGGA,180535.250,3554.7533,N,08403.5149,W,1,05,2.51,262.3,M,-32.1,M,,*5B
$GPRMC,180535.500,A,3554.7532,N,08403.5143,W,5.82,92.33,250721,,,A*4C
$GPGGA,180535.750,3554.7532,N,08403.5137,W,1,05,2.51,262.1,M,-32.1,M,,*54
$GPRMC,180536.000,A,3554.7532,N,08403.5133,W,5.17,90.71,250721,,,A*45
$GPGGA,180536.250,3554.7532,N,08403.5129,W,1,05,2.51,262.0,M,-32.1,M,,*5C
$GPRMC,180536.500,A,3554.7532,N,08403.5125,W,4.66,92.13,250721,,,A*46
$GPGGA,180536.750,3554.7531,N,08403.5120,W,1,05,2.51,262.0,M,-32.1,M,,*53
$GPRMC,180537.000,A,3554.7530,N,08403.5116,W,4.52,100.92,250721,,,A*74
$GPGGA,180537.250,3554.7529,N,08403.5111,W,1,05,2.51,261.9,M,-32.1,M,,*56
$GPRMC,180537.500,A,3554.7528,N,08403.5106,W,4.79,104.92,250721,,,A*74
$GPGGA,180537.750,3554.7527,N,08403.5101,W,1,05,2.51,261.9,M,-32.1,M,,*5C
$GPRMC,180538.000,A,3554.7526,N,08403.5096,W,5.13,102.98,250721,,,A*79
$GPGGA,180538.250,3554.7525,N,08403.5092,W,1,05,2.51,262.0,M,-32.1,M,,*55
$GPRMC,180538.500,A,3554.7525,N,08403.5088,W,5.05,101.01,250721,,,A*74
$GPGGA,180538.750,3554.7525,N,08403.5084,W,1,05,2.51,262.1,M,-32.1,M,,*56
$GPRMC,180539.000,A,3554.7525,N,08403.5079,W,4.76,96.05,250721,,,A*40
$GPGGA,180539.250,3554.7524,N,08403.5075,W,1,05,2.50,262.2,M,-32.1,M,,*5F
$GPRMC,180539.500,A,3554.7523,N,08403.5071,W,4.59,97.18,250721,,,A*4B
$GPGGA,180539.750,3554.7524,N,08403.5068,W,1,05,2.50,262.3,M,-32.1,M,,*57
$GPRMC,180540.000,A,3554.7523,N,08403.5064,W,3.59,99.22,250721,,,A*44
$GPGGA,180540.250,3554.7522,N,08403.5062,W,1,05,1.57,262.2,M,-32.1,M,,*55
$GPRMC,180540.500,A,3554.7522,N,08403.5060,W,2.31,106.94,250721,,,A*71
$GPGGA,180540.750,3554.7522,N,08403.5059,W,1,05,1.57,262.2,M,-32.1,M,,*58
$GPRMC,180541.000,A,3554.7522,N,08403.5058,W,1.37,113.03,250721,,,A*71
$GPGGA,180541.250,3554.7522,N,08403.5057,W,1,05,1.57,262.2,M,-32.1,M,,*52
$GPRMC,180541.500,A,3554.7523,N,08403.5057,W,0.84,95.74,250721,,,A*4C
$GPGGA,180541.750,3554.7524,N,08403.5057,W,1,05,1.57,262.3,M,-32.1,M,,*50
$GPRMC,180542.000,A,3554.7524,N,08403.5059,W,0.37,70.26,250721,,,A*47
$GPGGA,180542.250,3554.7524,N,08403.5060,W,1,05,1.57,262.4,M,-32.1,M,,*55
$GPRMC,180542.500,A,3554.7524,N,08403.5061,W,0.17,13.99,250721,,,A*4A
$GPGGA,180542.750,3554.7524,N,08403.5062,W,1,05,2.50,262.4,M,-32.1,M,,*56
$GPRMC,180543.000,A,3554.7523,N,08403.5062,W,0.11,11.21,250721,,,A*4D
$GPGGA,180543.250,3554.7523,N,08403.5062,W,1,05,2.50,262.5,M,-32.1,M,,*54
$GPRMC,180543.500,A,3554.7524,N,08403.5062,W,0.32,358.33,250721,,,A*73
$GPGGA,180543.750,3554.7524,N,08403.5062,W,1,05,2.50,262.6,M,-32.1,M,,*55
$GPRMC,180544.000,A,3554.7523,N,08403.5061,W,0.29,359.87,250721,,,A*71
$GPGGA,180544.250,3554.7522,N,08403.5061,W,1,05,2.50,262.8,M,-32.1,M,,*5C
$GPRMC,180544.500,A,3554.7521,N,08403.5061,W,0.14,5.52,250721,,,A*7A
$GPGGA,180544.750,3554.7521,N,08403.5060,W,1,05,2.50,262.8,M,-32.1,M,,*5B
$GPRMC,180545.000,A,3554.7520,N,08403.5060,W,0.11,12.28,250721,,,A*40
$GPGGA,180545.250,3554.7520,N,08403.5061,W,1,05,2.50,262.8,M,-32.1,M,,*5F
$GPRMC,180545.500,A,3554.7520,N,08403.5061,W,0.19,340.39,250721,,,A*78
$GPGGA,180545.750,3554.7521,N,08403.5061,W,1,05,1.57,262.8,M,-32.1,M,,*5F
$GPRMC,180546.000,A,3554.7521,N,08403.5061,W,0.21,316.72,250721,,,A*78
$GPGGA,180546.250,3554.7521,N,08403.5061,W,1,05,1.57,262.8,M,-32.1,M,,*59
$GPRMC,180546.500,A,3554.7521,N,08403.5061,W,0.11,328.84,250721,,,A*7A
$GPGGA,180546.750,3554.7521,N,08403.5061,W,1,05,1.57,262.8,M,-32.1,M,,*5C
$GPRMC,180547.000,A,3554.7521,N,08403.5061,W,0.12,274.86,250721,,,A*77
$GPGGA,180547.250,3554.7521,N,08403.5061,W,1,05,1.57,262.8,M,-32.1,M,,*58
$GPRMC,180547.500,A,3554.7521,N,08403.5061,W,0.18,256.13,250721,,,A*74
$GPGGA,180547.750,3554.7521,N,08403.5062,W,1,05,1.57,262.9,M,-32.1,M,,*5F
$GPRMC,180548.000,A,3554.7521,N,08403.5062,W,0.18,259.10,250721,,,A*71
$GPGGA,180548.250,3554.7521,N,08403.5062,W,1,05,1.57,262.9,M,-32.1,M,,*55
$GPRMC,180548.500,A,3554.7521,N,08403.5062,W,0.27,265.22,250721,,,A*76
$GPGGA,180548.750,3554.7521,N,08403.5062,W,1,05,1.57,262.9,M,-32.1,M,,*50
$GPRMC,180549.000,A,3554.7521,N,08403.5063,W,0.28,269.61,250721,,,A*77
$GPGGA,180549.250,3554.7521,N,08403.5063,W,1,05,1.57,262.9,M,-32.1,M,,*55
$GPRMC,180549.500,A,3554.7521,N,08403.5063,W,0.20,260.55,250721,,,A*74
$GPGGA,180549.750,3554.7521,N,08403.5063,W,1,05,1.57,262.9,M,-32.1,M,,*50
$GPRMC,180550.000,A,3554.7521,N,08403.5063,W,0.19,240.80,250721,,,A*79
$GPGGA,180550.250,3554.7520,N,08403.5063,W,1,05,1.57,262.9,M,-32.1,M,,*5C
$GPRMC,180550.500,A,3554.7520,N,08403.5063,W,0.15,203.93,250721,,,A*74
$GPGGA,180550.750,3554.7520,N,08403.5064,W,1,05,1.57,262.9,M,-32.1,M,,*5E
$GPRMC,180551.000,A,3554.7520,N,08403.5064,W,0.22,192.97,250721,,,A*7C
$GPGGA,180551.250,3554.7520,N,08403.5064,W,1,05,1.57,262.9,M,-32.1,M,,*5A
$GPRMC,180551.500,A,3554.7520,N,08403.5064,W,0.26,197.31,250721,,,A*74
$GPGGA,180551.750,3554.7520,N,08403.5064,W,1,05,1.57,262.9,M,-32.1,M,,*5F
$GPRMC,180552.000,A,3554.7519,N,08403.5064,W,0.20,195.34,250721,,,A*79
$GPGGA,180552.250,3554.7519,N,08403.5064,W,1,05,1.57,262.9,M,-32.1,M,,*53
$GPRMC,180552.500,A,3554.7519,N,08403.5064,W,0.22,161.75,250721,,,A*70
$GPGGA,180552.750,3554.7519,N,08403.5064,W,1,05,1.57,262.9,M,-32.1,M,,*56
$GPRMC,180553.000,A,3554.7519,N,08403.5064,W,0.15,183.04,250721,,,A*7A
$GPGGA,180553.250,3554.7519,N,08403.5064,W,1,05,1.57,262.9,M,-32.1,M,,*52
$GPRMC,180553.500,A,3554.7519,N,08403.5064,W,0.18,139.30,250721,,,A*74
$GPGGA,180553.750,3554.7519,N,08403.5064,W,1,05,1.57,262.9,M,-32.1,M,,*57
$GPRMC,180554.000,A,3554.7518,N,08403.5063,W,0.34,122.16,250721,,,A*70
$GPGGA,180554.250,3554.7518,N,08403.5063,W,1,06,1.52,262.9,M,-32.1,M,,*55
$GPRMC,180554.500,A,3554.7518,N,08403.5063,W,0.61,116.95,250721,,,A*79
$GPGGA,180554.750,3554.7517,N,08403.5062,W,1,06,1.52,263.1,M,-32.1,M,,*57
$GPRMC,180555.000,A,3554.7517,N,08403.5062,W,0.76,119.09,250721,,,A*7F
$GPGGA,180555.250,3554.7516,N,08403.5061,W,1,06,1.52,263.3,M,-32.1,M,,*53
$GPRMC,180555.500,A,3554.7515,N,08403.5060,W,0.97,119.56,250721,,,A*7F
$GPGGA,180555.750,3554.7511,N,08403.5057,W,1,06,1.52,263.6,M,-32.1,M,,*51
$GPRMC,180556.000,A,3554.7509,N,08403.5056,W,1.46,129.22,250721,,,A*7C
$GPGGA,180556.250,3554.7507,N,08403.5055,W,1,06,1.52,263.7,M,-32.1,M,,*53
$GPRMC,180556.500,A,3554.7506,N,08403.5054,W,1.58,130.99,250721,,,A*73
$GPGGA,180556.750,3554.7505,N,08403.5053,W,1,06,1.52,263.9,M,-32.1,M,,*5C
$GPRMC,180557.000,A,3554.7503,N,08403.5051,W,1.67,133.60,250721,,,A*7E
$GPGGA,180557.250,3554.7501,N,08403.5049,W,1,06,1.52,264.3,M,-32.1,M,,*5A
$GPRMC,180557.500,A,3554.7498,N,08403.5047,W,2.26,140.11,250721,,,A*7B
$GPGGA,180557.750,3554.7496,N,08403.5045,W,1,06,1.52,264.4,M,-32.1,M,,*5B
$GPRMC,180558.000,A,3554.7494,N,08403.5044,W,2.50,139.09,250721,,,A*78
$GPGGA,180558.250,3554.7493,N,08403.5043,W,1,06,1.52,264.6,M,-32.1,M,,*50
$GPRMC,180558.500,A,3554.7491,N,08403.5043,W,2.18,152.91,250721,,,A*7F
$GPGGA,180558.750,3554.7488,N,08403.5043,W,1,06,1.52,264.9,M,-32.1,M,,*50
$GPRMC,180559.000,A,3554.7486,N,08403.5042,W,2.63,158.43,250721,,,A*75
$GPGGA,180559.250,3554.7483,N,08403.5042,W,1,06,1.52,265.0,M,-32.1,M,,*56
$GPRMC,180559.500,A,3554.7480,N,08403.5041,W,3.68,164.72,250721,,,A*72
$GPGGA,180559.750,3554.7477,N,08403.5040,W,1,06,1.52,265.2,M,-32.1,M,,*58
$GPRMC,180600.000,A,3554.7474,N,08403.5038,W,3.72,164.28,250721,,,A*79
$GPGGA,180600.250,3554.7471,N,08403.5037,W,1,06,1.52,265.4,M,-32.1,M,,*52
$GPRMC,180600.500,A,3554.7467,N,08403.5035,W,4.75,161.54,250721,,,A*7D
$GPGGA,180600.750,3554.7463,N,08403.5034,W,1,06,2.27,265.6,M,-32.1,M,,*54
$GPRMC,180601.000,A,3554.7460,N,08403.5032,W,5.38,157.94,250721,,,A*78
$GPGGA,180601.250,3554.7456,N,08403.5030,W,1,06,2.27,265.7,M,-32.1,M,,*53
$GPRMC,180601.500,A,3554.7452,N,08403.5028,W,5.75,156.54,250721,,,A*73
$GPGGA,180601.750,3554.7448,N,08403.5024,W,1,06,2.26,265.9,M,-32.1,M,,*53
$GPRMC,180602.000,A,3554.7444,N,08403.5019,W,6.79,144.46,250721,,,A*7F
$GPGGA,180602.250,3554.7440,N,08403.5015,W,1,06,2.27,265.9,M,-32.1,M,,*5E
$GPRMC,180602.500,A,3554.7437,N,08403.5010,W,7.09,137.69,250721,,,A*78
$GPGGA,180602.750,3554.7434,N,08403.5006,W,1,06,2.27,266.1,M,-32.1,M,,*51
$GPRMC,180603.000,A,3554.7430,N,08403.5001,W,7.07,133.07,250721,,,A*79
$GPGGA,180603.250,3554.7427,N,08403.4996,W,1,06,2.26,266.1,M,-32.1,M,,*57
$GPRMC,180603.500,A,3554.7424,N,08403.4991,W,7.39,127.81,250721,,,A*7E
$GPGGA,180603.750,3554.7421,N,08403.4985,W,1,06,2.26,266.1,M,-32.1,M,,*56
$GPRMC,180604.000,A,3554.7418,N,08403.4980,W,7.42,124.09,250721,,,A*7C
$GPGGA,180604.250,3554.7415,N,08403.4975,W,1,06,2.26,266.1,M,-32.1,M,,*5C
$GPRMC,180604.500,A,3554.7412,N,08403.4969,W,7.52,121.09,250721,,,A*70
$GPGGA,180604.750,3554.7409,N,08403.4962,W,1,06,2.26,266.2,M,-32.1,M,,*51
$GPRMC,180605.000,A,3554.7406,N,08403.4956,W,7.79,119.74,250721,,,A*75
$GPGGA,180605.250,3554.7403,N,08403.4950,W,1,06,2.26,266.2,M,-32.1,M,,*5E
$GPRMC,180605.500,A,3554.7399,N,08403.4944,W,7.94,120.41,250721,,,A*7D
$GPGGA,180605.750,3554.7395,N,08403.4937,W,1,06,2.26,266.1,M,-32.1,M,,*51
$GPRMC,180606.000,A,3554.7391,N,08403.4930,W,8.34,124.29,250721,,,A*7F
$GPGGA,180606.250,3554.7385,N,08403.4921,W,1,06,2.26,266.0,M,-32.1,M,,*50
$GPRMC,180606.500,A,3554.7378,N,08403.4912,W,9.98,125.73,250721,,,A*74
$GPGGA,180606.750,3554.7374,N,08403.4904,W,1,06,2.26,266.0,M,-32.1,M,,*5C
$GPRMC,180607.000,A,3554.7368,N,08403.4893,W,10.40,125.62,250721,,,A*44
$GPGGA,180607.250,3554.7362,N,08403.4884,W,1,06,2.26,266.0,M,-32.1,M,,*56
$GPRMC,180607.500,A,3554.7355,N,08403.4876,W,10.76,126.38,250721,,,A*4D
$GPGGA,180607.750,3554.7348,N,08403.4867,W,1,06,2.26,266.0,M,-32.1,M,,*56
$GPRMC,180608.000,A,3554.7342,N,08403.4857,W,11.22,128.35,250721,,,A*41
$GPGGA,180608.250,3554.7334,N,08403.4848,W,1,06,2.26,266.0,M,-32.1,M,,*5A
$GPRMC,180608.500,A,3554.7328,N,08403.4838,W,11.84,130.69,250721,,,A*4D
$GPGGA,180608.750,3554.7321,N,08403.4828,W,1,06,2.26,266.0,M,-32.1,M,,*5D
$GPRMC,180609.000,A,3554.7315,N,08403.4819,W,12.10,131.90,250721,,,A*4D
$GPGGA,180609.250,3554.7308,N,08403.4809,W,1,06,2.26,265.9,M,-32.1,M,,*5B
$GPRMC,180609.500,A,3554.7301,N,08403.4800,W,12.64,132.70,250721,,,A*4B
$GPGGA,180609.750,3554.7294,N,08403.4790,W,1,06,2.26,265.9,M,-32.1,M,,*55
$GPRMC,180610.000,A,3554.7287,N,08403.4781,W,12.90,132.70,250721,,,A*44
$GPGGA,180610.250,3554.7280,N,08403.4771,W,1,06,2.26,265.8,M,-32.1,M,,*53
$GPRMC,180610.500,A,3554.7272,N,08403.4761,W,13.36,133.38,250721,,,A*45
$GPGGA,180610.750,3554.7265,N,08403.4751,W,1,06,2.26,265.7,M,-32.1,M,,*50
$GPRMC,180611.000,A,3554.7258,N,08403.4741,W,13.50,133.61,250721,,,A*47
$GPGGA,180611.250,3554.7251,N,08403.4732,W,1,06,2.26,265.6,M,-32.1,M,,*57
$GPRMC,180611.500,A,3554.7245,N,08403.4722,W,13.69,133.35,250721,,,A*40
$GPGGA,180611.750,3554.7238,N,08403.4713,W,1,06,2.26,265.5,M,-32.1,M,,*5D
$GPRMC,180612.000,A,3554.7231,N,08403.4703,W,13.73,132.56,250721,,,A*49
$GPGGA,180612.250,3554.7224,N,08403.4694,W,1,06,2.26,265.6,M,-32.1,M,,*5B
$GPRMC,180612.500,A,3554.7217,N,08403.4684,W,13.63,132.21,250721,,,A*47
$GPGGA,180612.750,3554.7210,N,08403.4675,W,1,06,2.26,265.6,M,-32.1,M,,*56
$GPRMC,180613.000,A,3554.7203,N,08403.4665,W,13.58,131.89,250721,,,A*40
$GPGGA,180613.250,3554.7197,N,08403.4656,W,1,06,2.25,265.6,M,-32.1,M,,*5C
$GPRMC,180613.500,A,3554.7190,N,08403.4646,W,13.21,131.99,250721,,,A*42
$GPGGA,180613.750,3554.7184,N,08403.4637,W,1,06,2.25,265.6,M,-32.1,M,,*5C
$GPRMC,180614.000,A,3554.7177,N,08403.4628,W,12.91,131.79,250721,,,A*45
$GPGGA,180614.250,3554.7171,N,08403.4619,W,1,06,2.26,265.6,M,-32.1,M,,*5B
$GPRMC,180614.500,A,3554.7165,N,08403.4610,W,12.46,132.19,250721,,,A*47
$GPGGA,180614.750,3554.7157,N,08403.4598,W,1,06,2.25,265.7,M,-32.1,M,,*52
$GPRMC,180615.000,A,3554.7150,N,08403.4591,W,12.24,132.10,250721,,,A*42
$GPGGA,180615.250,3554.7143,N,08403.4585,W,1,06,2.26,265.9,M,-32.1,M,,*52
$GPRMC,180615.500,A,3554.7136,N,08403.4578,W,11.97,132.34,250721,,,A*4D
$GPGGA,180615.750,3554.7130,N,08403.4571,W,1,06,2.25,266.0,M,-32.1,M,,*51
$GPRMC,180616.000,A,3554.7124,N,08403.4564,W,11.88,132.46,250721,,,A*4E
$GPGGA,180616.250,3554.7118,N,08403.4557,W,1,06,2.25,266.2,M,-32.1,M,,*5B
$GPRMC,180616.500,A,3554.7112,N,08403.4550,W,11.76,132.83,250721,,,A*41
$GPGGA,180616.750,3554.7106,N,08403.4543,W,1,06,2.25,266.3,M,-32.1,M,,*55
$GPRMC,180617.000,A,3554.7101,N,08403.4537,W,10.97,131.63,250721,,,A*45
$GPGGA,180617.250,3554.7096,N,08403.4532,W,1,06,2.25,266.1,M,-32.1,M,,*5D
$GPRMC,180617.500,A,3554.7090,N,08403.4525,W,10.77,131.84,250721,,,A*4D
$GPGGA,180617.750,3554.7084,N,08403.4517,W,1,06,2.25,266.1,M,-32.1,M,,*5C
$GPRMC,180618.000,A,3554.7079,N,08403.4510,W,10.50,131.96,250721,,,A*40
$GPGGA,180618.250,3554.7074,N,08403.4502,W,1,06,2.25,266.0,M,-32.1,M,,*5C
$GPRMC,180618.500,A,3554.7069,N,08403.4496,W,9.91,131.72,250721,,,A*74
$GPGGA,180618.750,3554.7063,N,08403.4490,W,1,06,2.25,265.7,M,-32.1,M,,*51
$GPRMC,180619.000,A,3554.7058,N,08403.4484,W,9.72,132.46,250721,,,A*78
$GPGGA,180619.250,3554.7053,N,08403.4477,W,1,06,2.25,265.5,M,-32.1,M,,*5D
$GPRMC,180619.500,A,3554.7048,N,08403.4472,W,9.50,133.09,250721,,,A*7F
$GPGGA,180619.750,3554.7044,N,08403.4466,W,1,06,2.25,265.4,M,-32.1,M,,*5F
$GPRMC,180620.000,A,3554.7040,N,08403.4461,W,9.05,132.21,250721,,,A*71
$GPGGA,180620.250,3554.7036,N,08403.4455,W,1,06,2.25,265.2,M,-32.1,M,,*53
$GPRMC,180620.500,A,3554.7032,N,08403.4450,W,8.51,131.33,250721,,,A*73
$GPGGA,180620.750,3554.7028,N,08403.4445,W,1,06,2.25,265.2,M,-32.1,M,,*58
$GPRMC,180621.000,A,3554.7024,N,08403.4440,W,8.14,131.16,250721,,,A*77
$GPGGA,180621.250,3554.7020,N,08403.4434,W,1,06,2.25,265.2,M,-32.1,M,,*52
$GPRMC,180621.500,A,3554.7016,N,08403.4429,W,7.79,130.32,250721,,,A*7F
$GPGGA,180621.750,3554.7012,N,08403.4424,W,1,06,2.25,265.1,M,-32.1,M,,*54
$GPRMC,180622.000,A,3554.7008,N,08403.4420,W,7.75,131.00,250721,,,A*73
$GPGGA,180622.250,3554.7004,N,08403.4415,W,1,06,2.25,265.0,M,-32.1,M,,*56
$GPRMC,180622.500,A,3554.7000,N,08403.4404,W,7.71,132.05,250721,,,A*7A
$GPGGA,180622.750,3554.6996,N,08403.4398,W,1,06,2.25,265.0,M,-32.1,M,,*52
$GPRMC,180623.000,A,3554.6992,N,08403.4391,W,7.40,132.98,250721,,,A*70
$GPGGA,180623.250,3554.6988,N,08403.4384,W,1,06,2.25,265.0,M,-32.1,M,,*54
$GPRMC,180623.500,A,3554.6984,N,08403.4377,W,7.30,131.71,250721,,,A*79
$GPGGA,180623.750,3554.6980,N,08403.4371,W,1,06,2.25,265.0,M,-32.1,M,,*53
$GPRMC,180624.000,A,3554.6977,N,08403.4365,W,7.28,131.46,250721,,,A*79
$GPGGA,180624.250,3554.6974,N,08403.4360,W,1,06,2.25,265.0,M,-32.1,M,,*5A
$GPRMC,180624.500,A,3554.6971,N,08403.4354,W,7.29,130.59,250721,,,A*76
$GPGGA,180624.750,3554.6968,N,08403.4348,W,1,06,2.25,265.0,M,-32.1,M,,*58
$GPRMC,180625.000,A,3554.6964,N,08403.4342,W,7.48,129.77,250721,,,A*72
$GPGGA,180625.250,3554.6961,N,08403.4336,W,1,06,2.24,265.1,M,-32.1,M,,*5C
$GPRMC,180625.500,A,3554.6957,N,08403.4330,W,7.98,129.72,250721,,,A*7A
$GPGGA,180625.750,3554.6952,N,08403.4324,W,1,06,2.24,265.3,M,-32.1,M,,*58
$GPRMC,180626.000,A,3554.6948,N,08403.4318,W,8.44,129.31,250721,,,A*71
$GPGGA,180626.250,3554.6943,N,08403.4312,W,1,06,2.24,265.4,M,-32.1,M,,*5C
$GPRMC,180626.500,A,3554.6938,N,08403.4305,W,8.86,129.40,250721,,,A*77
$GPGGA,180626.750,3554.6934,N,08403.4299,W,1,06,2.24,265.4,M,-32.1,M,,*5B
$GPRMC,180627.000,A,3554.6930,N,08403.4292,W,9.00,129.98,250721,,,A*7E
$GPGGA,180627.250,3554.6926,N,08403.4286,W,1,06,2.24,265.5,M,-32.1,M,,*53
$GPRMC,180627.500,A,3554.6922,N,08403.4279,W,9.09,130.06,250721,,,A*7B
$GPGGA,180627.750,3554.6918,N,08403.4273,W,1,06,2.24,265.5,M,-32.1,M,,*51
$GPRMC,180628.000,A,3554.6914,N,08403.4267,W,9.13,130.04,250721,,,A*72
$GPGGA,180628.250,3554.6910,N,08403.4261,W,1,06,2.24,265.6,M,-32.1,M,,*53
$GPRMC,180628.500,A,3554.6905,N,08403.4254,W,9.16,130.83,250721,,,A*7D
$GPGGA,180628.750,3554.6901,N,08403.4248,W,1,06,2.24,265.6,M,-32.1,M,,*5D
$GPRMC,180629.000,A,3554.6897,N,08403.4242,W,9.39,131.20,250721,,,A*71
$GPGGA,180629.250,3554.6892,N,08403.4236,W,1,06,2.24,265.7,M,-32.1,M,,*5A
$GPRMC,180629.500,A,3554.6888,N,08403.4230,W,9.51,131.48,250721,,,A*7F
$GPGGA,180629.750,3554.6884,N,08403.4223,W,1,06,2.24,265.8,M,-32.1,M,,*53
$GPRMC,180630.000,A,3554.6880,N,08403.4217,W,9.57,132.65,250721,,,A*75
$GPGGA,180630.250,3554.6876,N,08403.4211,W,1,06,2.24,266.0,M,-32.1,M,,*59
$GPRMC,180630.500,A,3554.6872,N,08403.4204,W,9.78,134.02,250721,,,A*75
$GPGGA,180630.750,3554.6867,N,08403.4196,W,1,06,2.24,266.1,M,-32.1,M,,*51
$GPRMC,180631.000,A,3554.6862,N,08403.4189,W,9.95,134.11,250721,,,A*77
$GPGGA,180631.250,3554.6857,N,08403.4182,W,1,06,2.24,266.3,M,-32.1,M,,*51
$GPRMC,180631.500,A,3554.6853,N,08403.4176,W,10.21,134.42,250721,,,A*41
$GPGGA,180631.750,3554.6849,N,08403.4169,W,1,06,2.24,266.5,M,-32.1,M,,*58
$GPRMC,180632.000,A,3554.6844,N,08403.4162,W,10.30,135.94,250721,,,A*4E
$GPGGA,180632.250,3554.6840,N,08403.4155,W,1,06,2.24,266.6,M,-32.1,M,,*5B
$GPRMC,180632.500,A,3554.6835,N,08403.4148,W,10.48,136.41,250721,,,A*41
$GPGGA,180632.750,3554.6831,N,08403.4140,W,1,06,2.24,266.7,M,-32.1,M,,*5D
$GPRMC,180633.000,A,3554.6826,N,08403.4133,W,10.39,135.29,250721,,,A*40
$GPGGA,180633.250,3554.6820,N,08403.4125,W,1,06,2.24,266.8,M,-32.1,M,,*55
$GPRMC,180633.500,A,3554.6815,N,08403.4117,W,10.33,134.08,250721,,,A*4B
$GPGGA,180633.750,3554.6811,N,08403.4109,W,1,06,2.24,266.9,M,-32.1,M,,*5D
$GPRMC,180634.000,A,3554.6805,N,08403.4102,W,9.83,133.33,250721,,,A*70
$GPGGA,180634.250,3554.6801,N,08403.4095,W,1,06,2.24,266.9,M,-32.1,M,,*5A
$GPRMC,180634.500,A,3554.6796,N,08403.4088,W,9.41,132.79,250721,,,A*72
$GPGGA,180634.750,3554.6792,N,08403.4082,W,1,06,2.24,266.9,M,-32.1,M,,*5C
$GPRMC,180635.000,A,3554.6788,N,08403.4075,W,9.12,132.07,250721,,,A*74
$GPGGA,180635.250,3554.6784,N,08403.4069,W,1,06,2.24,266.8,M,-32.1,M,,*5B
$GPRMC,180635.500,A,3554.6780,N,08403.4064,W,8.78,133.52,250721,,,A*75
$GPGGA,180635.750,3554.6776,N,08403.4058,W,1,06,2.23,266.8,M,-32.1,M,,*56
$GPRMC,180636.000,A,3554.6772,N,08403.4053,W,8.46,133.03,250721,,,A*73
$GPGGA,180636.250,3554.6769,N,08403.4048,W,1,06,2.23,266.7,M,-32.1,M,,*50
$GPRMC,180636.500,A,3554.6767,N,08403.4045,W,7.79,132.47,250721,,,A*77
$GPGGA,180636.750,3554.6765,N,08403.4042,W,1,06,2.23,266.7,M,-32.1,M,,*53
$GPRMC,180637.000,A,3554.6762,N,08403.4040,W,7.66,135.13,250721,,,A*7B
$GPGGA,180637.250,3554.6759,N,08403.4039,W,1,06,2.23,266.9,M,-32.1,M,,*5A
$GPRMC,180637.500,A,3554.6755,N,08403.4036,W,7.41,138.10,250721,,,A*70
$GPGGA,180637.750,3554.6753,N,08403.4032,W,1,06,2.23,267.0,M,-32.1,M,,*56
$GPRMC,180638.000,A,3554.6754,N,08403.4038,W,7.15,139.69,250721,,,A*7B
$GPGGA,180638.250,3554.6753,N,08403.4046,W,1,06,2.23,267.1,M,-32.1,M,,*5E
$GPRMC,180638.500,A,3554.6749,N,08403.4049,W,6.89,148.91,250721,,,A*71
$GPGGA,180638.750,3554.6745,N,08403.4048,W,1,06,2.23,267.2,M,-32.1,M,,*51
$GPRMC,180639.000,A,3554.6740,N,08403.4047,W,7.11,158.45,250721,,,A*7A
$GPGGA,180639.250,3554.6735,N,08403.4045,W,1,06,2.23,267.3,M,-32.1,M,,*5E
$GPRMC,180639.500,A,3554.6732,N,08403.4044,W,7.04,170.10,250721,,,A*77
$GPGGA,180639.750,3554.6726,N,08403.4049,W,1,06,2.23,267.5,M,-32.1,M,,*53
$GPRMC,180640.000,A,3554.6722,N,08403.4050,W,7.27,184.29,250721,,,A*78
$GPGGA,180640.250,3554.6718,N,08403.4053,W,1,06,2.23,267.6,M,-32.1,M,,*5D
$GPRMC,180640.500,A,3554.6714,N,08403.4055,W,7.01,196.96,250721,,,A*7E
$GPGGA,180640.750,3554.6711,N,08403.4060,W,1,06,2.23,267.7,M,-32.1,M,,*50
$GPRMC,180641.000,A,3554.6707,N,08403.4064,W,7.42,205.72,250721,,,A*7E
$GPGGA,180641.250,3554.6702,N,08403.4070,W,1,06,2.23,267.9,M,-32.1,M,,*59
$GPRMC,180641.500,A,3554.6697,N,08403.4076,W,8.16,211.39,250721,,,A*74
$GPGGA,180641.750,3554.6693,N,08403.4083,W,1,06,2.23,268.0,M,-32.1,M,,*5F
$GPRMC,180642.000,A,3554.6689,N,08403.4088,W,9.06,217.99,250721,,,A*70
$GPGGA,180642.250,3554.6685,N,08403.4094,W,1,06,2.23,268.1,M,-32.1,M,,*59
$GPRMC,180642.500,A,3554.6681,N,08403.4099,W,9.72,223.18,250721,,,A*70
$GPGGA,180642.750,3554.6677,N,08403.4105,W,1,06,2.23,268.2,M,-32.1,M,,*5B
$GPRMC,180643.000,A,3554.6672,N,08403.4112,W,10.36,225.33,250721,,,A*4D
$GPGGA,180643.250,3554.6667,N,08403.4118,W,1,06,2.23,268.4,M,-32.1,M,,*54
$GPRMC,180643.500,A,3554.6662,N,08403.4126,W,10.56,226.20,250721,,,A*49
$GPGGA,180643.750,3554.6657,N,08403.4132,W,1,06,2.23,268.5,M,-32.1,M,,*5B
$GPRMC,180644.000,A,3554.6651,N,08403.4139,W,10.64,226.78,250721,,,A*49
$GPGGA,180644.250,3554.6646,N,08403.4146,W,1,06,2.23,268.6,M,-32.1,M,,*59
$GPRMC,180644.500,A,3554.6641,N,08403.4152,W,10.72,227.42,250721,,,A*4F
$GPGGA,180644.750,3554.6636,N,08403.4159,W,1,06,2.23,268.6,M,-32.1,M,,*55
$GPRMC,180645.000,A,3554.6630,N,08403.4166,W,10.94,227.72,250721,,,A*41
$GPGGA,180645.250,3554.6625,N,08403.4173,W,1,06,2.23,268.7,M,-32.1,M,,*5A
$GPRMC,180645.500,A,3554.6619,N,08403.4179,W,10.91,226.47,250721,,,A*43
$GPGGA,180645.750,3554.6614,N,08403.4186,W,1,06,2.23,268.7,M,-32.1,M,,*57
$GPRMC,180646.000,A,3554.6608,N,08403.4193,W,10.92,225.96,250721,,,A*4D
$GPGGA,180646.250,3554.6603,N,08403.4200,W,1,06,2.23,268.7,M,-32.1,M,,*5A
$GPRMC,180646.500,A,3554.6599,N,08403.4207,W,10.64,224.46,250721,,,A*48
$GPGGA,180646.750,3554.6594,N,08403.4213,W,1,06,2.22,268.7,M,-32.1,M,,*51
$GPRMC,180647.000,A,3554.6589,N,08403.4219,W,10.51,224.41,250721,,,A*43
$GPGGA,180647.250,3554.6585,N,08403.4224,W,1,06,2.22,268.8,M,-32.1,M,,*5E
$GPRMC,180647.500,A,3554.6580,N,08403.4230,W,10.39,224.31,250721,,,A*4D
$GPGGA,180647.750,3554.6575,N,08403.4235,W,1,06,2.22,268.8,M,-32.1,M,,*54
$GPRMC,180648.000,A,3554.6570,N,08403.4241,W,10.26,224.73,250721,,,A*46
$GPGGA,180648.250,3554.6565,N,08403.4246,W,1,06,2.22,268.8,M,-32.1,M,,*5B
$GPRMC,180648.500,A,3554.6559,N,08403.4252,W,10.17,224.32,250721,,,A*4D
$GPGGA,180648.750,3554.6554,N,08403.4257,W,1,06,2.22,268.8,M,-32.1,M,,*5C
$GPRMC,180649.000,A,3554.6549,N,08403.4263,W,10.11,224.98,250721,,,A*4C
$GPGGA,180649.250,3554.6543,N,08403.4269,W,1,06,2.22,268.8,M,-32.1,M,,*53
$GPRMC,180649.500,A,3554.6538,N,08403.4275,W,10.02,225.17,250721,,,A*4C
$GPGGA,180649.750,3554.6534,N,08403.4281,W,1,06,2.22,268.8,M,-32.1,M,,*50
$GPRMC,180650.000,A,3554.6529,N,08403.4288,W,9.77,225.54,250721,,,A*7E
$GPGGA,180650.250,3554.6525,N,08403.4294,W,1,06,2.22,268.9,M,-32.1,M,,*58
$GPRMC,180650.500,A,3554.6521,N,08403.4302,W,9.65,228.09,250721,,,A*76
$GPGGA,180650.750,3554.6516,N,08403.4310,W,1,06,2.22,268.9,M,-32.1,M,,*50
$GPRMC,180651.000,A,3554.6512,N,08403.4317,W,9.55,229.00,250721,,,A*7D
$GPGGA,180651.250,3554.6508,N,08403.4323,W,1,06,1.52,269.0,M,-32.1,M,,*57
$GPRMC,180651.500,A,3554.6505,N,08403.4330,W,9.43,230.40,250721,,,A*70
$GPGGA,180651.750,3554.6501,N,08403.4336,W,1,06,2.22,269.0,M,-32.1,M,,*5B
$GPRMC,180652.000,A,3554.6497,N,08403.4343,W,9.19,230.59,250721,,,A*7F
$GPGGA,180652.250,3554.6493,N,08403.4350,W,1,06,1.52,268.9,M,-32.1,M,,*5B
$GPRMC,180652.500,A,3554.6490,N,08403.4357,W,9.42,231.87,250721,,,A*74
$GPGGA,180652.750,3554.6486,N,08403.4366,W,1,06,2.22,268.9,M,-32.1,M,,*5B
$GPRMC,180653.000,A,3554.6483,N,08403.4374,W,9.87,233.44,250721,,,A*77
$GPGGA,180653.250,3554.6480,N,08403.4383,W,1,06,1.52,268.8,M,-32.1,M,,*57
$GPRMC,180653.500,A,3554.6475,N,08403.4394,W,10.43,234.76,250721,,,A*43
$GPGGA,180653.750,3554.6471,N,08403.4408,W,1,06,2.22,268.7,M,-32.1,M,,*53
$GPRMC,180654.000,A,3554.6467,N,08403.4420,W,10.65,235.86,250721,,,A*40
$GPGGA,180654.250,3554.6462,N,08403.4430,W,1,06,2.22,268.7,M,-32.1,M,,*58
$GPRMC,180654.500,A,3554.6457,N,08403.4440,W,10.82,237.47,250721,,,A*46
$GPGGA,180654.750,3554.6453,N,08403.4449,W,1,06,2.22,268.6,M,-32.1,M,,*50
$GPRMC,180655.000,A,3554.6449,N,08403.4458,W,10.86,237.97,250721,,,A*4D
$GPGGA,180655.250,3554.6445,N,08403.4466,W,1,06,2.22,268.5,M,-32.1,M,,*5D
$GPRMC,180655.500,A,3554.6441,N,08403.4472,W,11.33,239.19,250721,,,A*4F
$GPGGA,180655.750,3554.6437,N,08403.4480,W,1,06,2.22,268.3,M,-32.1,M,,*53
$GPRMC,180656.000,A,3554.6432,N,08403.4487,W,11.72,239.74,250721,,,A*49
$GPGGA,180656.250,3554.6427,N,08403.4494,W,1,06,2.22,268.0,M,-32.1,M,,*52
$GPRMC,180656.500,A,3554.6423,N,08403.4502,W,12.38,240.35,250721,,,A*46
$GPGGA,180656.750,3554.6418,N,08403.4511,W,1,06,2.22,267.8,M,-32.1,M,,*50
$GPRMC,180657.000,A,3554.6413,N,08403.4519,W,12.78,241.33,250721,,,A*48
$GPGGA,180657.250,3554.6409,N,08403.4529,W,1,06,2.22,267.7,M,-32.1,M,,*50
$GPRMC,180657.500,A,3554.6404,N,08403.4539,W,12.78,242.32,250721,,,A*4B
$GPGGA,180657.750,3554.6400,N,08403.4549,W,1,06,2.21,267.6,M,-32.1,M,,*58
$GPRMC,180658.000,A,3554.6395,N,08403.4559,W,12.80,241.85,250721,,,A*40
$GPGGA,180658.250,3554.6390,N,08403.4569,W,1,06,2.22,267.4,M,-32.1,M,,*5F
$GPRMC,180658.500,A,3554.6386,N,08403.4579,W,12.84,240.30,250721,,,A*4E
$GPGGA,180658.750,3554.6382,N,08403.4589,W,1,06,2.21,267.3,M,-32.1,M,,*53
$GPRMC,180659.000,A,3554.6377,N,08403.4599,W,12.99,239.30,250721,,,A*48
$GPGGA,180659.250,3554.6372,N,08403.4609,W,1,06,2.21,267.3,M,-32.1,M,,*53
$GPRMC,180659.500,A,3554.6367,N,08403.4620,W,13.22,239.09,250721,,,A*46
$GPGGA,180659.750,3554.6362,N,08403.4630,W,1,06,2.21,267.2,M,-32.1,M,,*5C
$GPRMC,180700.000,A,3554.6357,N,08403.4642,W,13.51,238.91,250721,,,A*4D
$GPGGA,180700.250,3554.6352,N,08403.4653,W,1,06,2.21,267.1,M,-32.1,M,,*51
$GPRMC,180700.500,A,3554.6347,N,08403.4664,W,13.59,238.66,250721,,,A*4D
$GPGGA,180700.750,3554.6341,N,08403.4676,W,1,06,2.21,266.9,M,-32.1,M,,*58
$GPRMC,180701.000,A,3554.6336,N,08403.4688,W,13.68,238.75,250721,,,A*4D
$GPGGA,180701.250,3554.6329,N,08403.4705,W,1,06,1.52,266.9,M,-32.1,M,,*50
$GPRMC,180701.500,A,3554.6322,N,08403.4723,W,13.71,239.09,250721,,,A*4F
$GPGGA,180701.750,3554.6315,N,08403.4739,W,1,06,2.21,266.9,M,-32.1,M,,*52
$GPRMC,180702.000,A,3554.6309,N,08403.4753,W,14.07,239.22,250721,,,A*48
$GPGGA,180702.250,3554.6304,N,08403.4764,W,1,06,2.21,266.9,M,-32.1,M,,*5C
$GPRMC,180702.500,A,3554.6298,N,08403.4774,W,14.19,239.12,250721,,,A*4D
$GPGGA,180702.750,3554.6292,N,08403.4784,W,1,06,2.21,266.8,M,-32.1,M,,*58
$GPRMC,180703.000,A,3554.6287,N,08403.4793,W,14.28,237.64,250721,,,A*43
$GPGGA,180703.250,3554.6281,N,08403.4803,W,1,06,2.21,266.7,M,-32.1,M,,*51
$GPRMC,180703.500,A,3554.6275,N,08403.4812,W,14.36,236.80,250721,,,A*49
$GPGGA,180703.750,3554.6268,N,08403.4822,W,1,06,2.21,266.6,M,-32.1,M,,*51
$GPRMC,180704.000,A,3554.6262,N,08403.4833,W,14.59,236.10,250721,,,A*4E
$GPGGA,180704.250,3554.6257,N,08403.4845,W,1,06,1.52,266.5,M,-32.1,M,,*5A
$GPRMC,180704.500,A,3554.6250,N,08403.4858,W,15.24,237.01,250721,,,A*4D
$GPGGA,180704.750,3554.6243,N,08403.4870,W,1,06,2.21,266.4,M,-32.1,M,,*5A
$GPRMC,180705.000,A,3554.6237,N,08403.4880,W,15.35,236.19,250721,,,A*45
$GPGGA,180705.250,3554.6231,N,08403.4892,W,1,06,2.21,266.3,M,-32.1,M,,*50
$GPRMC,180705.500,A,3554.6225,N,08403.4903,W,15.47,236.32,250721,,,A*45
$GPGGA,180705.750,3554.6219,N,08403.4914,W,1,06,2.21,266.2,M,-32.1,M,,*51
$GPRMC,180706.000,A,3554.6213,N,08403.4926,W,15.65,236.42,250721,,,A*46
$GPGGA,180706.250,3554.6207,N,08403.4938,W,1,06,2.21,266.1,M,-32.1,M,,*55
$GPRMC,180706.500,A,3554.6200,N,08403.4950,W,16.03,236.56,250721,,,A*46
$GPGGA,180706.750,3554.6194,N,08403.4963,W,1,06,2.21,266.0,M,-32.1,M,,*56
$GPRMC,180707.000,A,3554.6188,N,08403.4975,W,16.07,236.27,250721,,,A*44
$GPGGA,180707.250,3554.6181,N,08403.4986,W,1,06,2.21,265.8,M,-32.1,M,,*56
$GPRMC,180707.500,A,3554.6174,N,08403.4998,W,16.13,234.82,250721,,,A*49
$GPGGA,180707.750,3554.6167,N,08403.5008,W,1,06,2.21,265.7,M,-32.1,M,,*5A
$GPRMC,180708.000,A,3554.6160,N,08403.5020,W,16.19,233.80,250721,,,A*42
$GPGGA,180708.250,3554.6153,N,08403.5031,W,1,06,1.52,265.6,M,-32.1,M,,*5B
$GPRMC,180708.500,A,3554.6145,N,08403.5042,W,16.23,232.53,250721,,,A*42
$GPGGA,180708.750,3554.6137,N,08403.5055,W,1,06,2.20,265.5,M,-32.1,M,,*5B
$GPRMC,180709.000,A,3554.6130,N,08403.5070,W,16.38,231.07,250721,,,A*4D
$GPGGA,180709.250,3554.6122,N,08403.5083,W,1,06,1.52,265.4,M,-32.1,M,,*57
$GPRMC,180709.500,A,3554.6117,N,08403.5093,W,15.83,228.72,250721,,,A*49
$GPGGA,180709.750,3554.6114,N,08403.5107,W,1,06,2.20,265.3,M,-32.1,M,,*5B
$GPRMC,180710.000,A,3554.6110,N,08403.5120,W,15.35,225.96,250721,,,A*40
$GPGGA,180710.250,3554.6104,N,08403.5130,W,1,06,1.52,265.2,M,-32.1,M,,*54
$GPRMC,180710.500,A,3554.6098,N,08403.5139,W,15.05,224.42,250721,,,A*47
$GPGGA,180710.750,3554.6090,N,08403.5149,W,1,06,2.20,265.0,M,-32.1,M,,*57
$GPRMC,180711.000,A,3554.6083,N,08403.5156,W,14.57,222.94,250721,,,A*4B
$GPGGA,180711.250,3554.6076,N,08403.5164,W,1,06,1.52,264.9,M,-32.1,M,,*5A
$GPRMC,180711.500,A,3554.6068,N,08403.5172,W,14.15,222.01,250721,,,A*47
$GPGGA,180711.750,3554.6062,N,08403.5179,W,1,06,2.20,264.7,M,-32.1,M,,*5E
$GPRMC,180712.000,A,3554.6055,N,08403.5186,W,13.48,220.85,250721,,,A*45
$GPGGA,180712.250,3554.6048,N,08403.5191,W,1,06,2.20,264.6,M,-32.1,M,,*57
$GPRMC,180712.500,A,3554.6042,N,08403.5197,W,12.79,218.96,250721,,,A*4C
$GPGGA,180712.750,3554.6034,N,08403.5202,W,1,06,2.20,264.4,M,-32.1,M,,*52
$GPRMC,180713.000,A,3554.6027,N,08403.5208,W,12.35,216.75,250721,,,A*45
$GPGGA,180713.250,3554.6021,N,08403.5213,W,1,06,1.52,264.3,M,-32.1,M,,*53
$GPRMC,180713.500,A,3554.6014,N,08403.5217,W,11.55,214.80,250721,,,A*43
$GPGGA,180713.750,3554.6007,N,08403.5221,W,1,06,2.20,264.2,M,-32.1,M,,*54
$GPRMC,180714.000,A,3554.6000,N,08403.5224,W,11.12,212.13,250721,,,A*4B
$GPGGA,180714.250,3554.5993,N,08403.5228,W,1,06,1.52,264.1,M,-32.1,M,,*5D
$GPRMC,180714.500,A,3554.5986,N,08403.5231,W,11.04,209.86,250721,,,A*4F
$GPGGA,180714.750,3554.5979,N,08403.5234,W,1,06,2.20,264.0,M,-32.1,M,,*56
$GPRMC,180715.000,A,3554.5973,N,08403.5237,W,10.63,207.49,250721,,,A*4A
$GPGGA,180715.250,3554.5967,N,08403.5240,W,1,06,1.52,263.9,M,-32.1,M,,*56
$GPRMC,180715.500,A,3554.5961,N,08403.5241,W,9.77,205.23,250721,,,A*7E
$GPGGA,180715.750,3554.5956,N,08403.5243,W,1,06,2.20,263.8,M,-32.1,M,,*55
$GPRMC,180716.000,A,3554.5950,N,08403.5245,W,9.30,202.81,250721,,,A*72
$GPGGA,180716.250,3554.5944,N,08403.5246,W,1,06,1.52,263.8,M,-32.1,M,,*53
$GPRMC,180716.500,A,3554.5938,N,08403.5247,W,9.09,199.90,250721,,,A*70
$GPGGA,180716.750,3554.5933,N,08403.5246,W,1,06,2.20,263.7,M,-32.1,M,,*5F
$GPRMC,180717.000,A,3554.5927,N,08403.5246,W,8.34,196.44,250721,,,A*72
$GPGGA,180717.250,3554.5924,N,08403.5240,W,1,06,1.52,263.6,M,-32.1,M,,*5C
$GPRMC,180717.500,A,3554.5920,N,08403.5237,W,7.65,193.47,250721,,,A*7B
$GPGGA,180717.750,3554.5918,N,08403.5232,W,1,06,2.20,263.5,M,-32.1,M,,*56
$GPRMC,180718.000,A,3554.5914,N,08403.5229,W,7.05,191.50,250721,,,A*7B
$GPGGA,180718.250,3554.5909,N,08403.5226,W,1,06,1.52,263.4,M,-32.1,M,,*5E
$GPRMC,180718.500,A,3554.5906,N,08403.5223,W,6.30,187.45,250721,,,A*73
$GPGGA,180718.750,3554.5903,N,08403.5221,W,1,06,2.20,263.2,M,-32.1,M,,*56
$GPRMC,180719.000,A,3554.5899,N,08403.5221,W,5.38,181.06,250721,,,A*78
$GPGGA,180719.250,3554.5895,N,08403.5220,W,1,06,1.52,263.2,M,-32.1,M,,*5B
$GPRMC,180719.500,A,3554.5892,N,08403.5220,W,4.64,179.24,250721,,,A*78
$GPGGA,180719.750,3554.5892,N,08403.5222,W,1,06,2.20,263.1,M,-32.1,M,,*5E
$GPRMC,180720.000,A,3554.5889,N,08403.5221,W,3.94,183.54,250721,,,A*76
$GPGGA,180720.250,3554.5887,N,08403.5220,W,1,06,2.20,263.0,M,-32.1,M,,*56
$GPRMC,180720.500,A,3554.5885,N,08403.5220,W,3.52,184.70,250721,,,A*75
$GPGGA,180720.750,3554.5884,N,08403.5219,W,1,06,1.52,262.9,M,-32.1,M,,*54
$GPRMC,180721.000,A,3554.5882,N,08403.5218,W,2.91,187.95,250721,,,A*7B
$GPGGA,180721.250,3554.5881,N,08403.5218,W,1,06,1.52,262.8,M,-32.1,M,,*55
$GPRMC,180721.500,A,3554.5880,N,08403.5217,W,2.43,187.95,250721,,,A*7C
$GPGGA,180721.750,3554.5879,N,08403.5215,W,1,06,1.52,262.7,M,-32.1,M,,*55
$GPRMC,180722.000,A,3554.5878,N,08403.5214,W,1.97,187.95,250721,,,A*74
$GPGGA,180722.250,3554.5877,N,08403.5213,W,1,06,1.52,262.6,M,-32.1,M,,*5A
$GPRMC,180722.500,A,3554.5876,N,08403.5212,W,1.71,187.95,250721,,,A*71
$GPGGA,180722.750,3554.5875,N,08403.5211,W,1,06,1.52,262.5,M,-32.1,M,,*5C
$GPRMC,180723.000,A,3554.5875,N,08403.5210,W,1.43,187.95,250721,,,A*75
$GPGGA,180723.250,3554.5875,N,08403.5210,W,1,06,1.52,262.4,M,-32.1,M,,*58
$GPRMC,180723.500,A,3554.5874,N,08403.5209,W,1.13,187.95,250721,,,A*7C
$GPGGA,180723.750,3554.5874,N,08403.5209,W,1,06,1.52,262.4,M,-32.1,M,,*54
$GPRMC,180724.000,A,3554.5874,N,08403.5208,W,1.03,187.95,250721,,,A*7E
$GPGGA,180724.250,3554.5874,N,08403.5207,W,1,06,1.52,262.3,M,-32.1,M,,*5F
$GPRMC,180724.500,A,3554.5874,N,08403.5206,W,0.92,187.95,250721,,,A*7C
$GPGGA,180724.750,3554.5874,N,08403.5206,W,1,06,1.52,262.2,M,-32.1,M,,*5A
$GPRMC,180725.000,A,3554.5874,N,08403.5206,W,0.81,187.95,250721,,,A*7A
$GPGGA,180725.250,3554.5874,N,08403.5205,W,1,06,1.52,262.2,M,-32.1,M,,*5D
$GPRMC,180725.500,A,3554.5874,N,08403.5204,W,0.74,187.95,250721,,,A*77
$GPGGA,180725.750,3554.5874,N,08403.5204,W,1,06,1.52,262.1,M,-32.1,M,,*5A
$GPRMC,180726.000,A,3554.5873,N,08403.5204,W,0.72,187.95,250721,,,A*70
$GPGGA,180726.250,3554.5873,N,08403.5204,W,1,06,1.52,262.1,M,-32.1,M,,*5B
$GPRMC,180726.500,A,3554.5872,N,08403.5204,W,0.66,187.95,250721,,,A*71
$GPGGA,180726.750,3554.5872,N,08403.5204,W,1,06,1.52,262.0,M,-32.1,M,,*5E
$GPRMC,180727.000,A,3554.5871,N,08403.5204,W,0.58,187.95,250721,,,A*7B
$GPGGA,180727.250,3554.5871,N,08403.5204,W,1,06,1.52,262.0,M,-32.1,M,,*59
$GPRMC,180727.500,A,3554.5871,N,08403.5204,W,0.52,187.95,250721,,,A*74
$GPGGA,180727.750,3554.5870,N,08403.5204,W,1,06,1.52,261.9,M,-32.1,M,,*57
$GPRMC,180728.000,A,3554.5870,N,08403.5204,W,0.48,187.95,250721,,,A*74
$GPGGA,180728.250,3554.5870,N,08403.5204,W,1,06,1.52,261.9,M,-32.1,M,,*5D
$GPRMC,180728.500,A,3554.5869,N,08403.5204,W,0.43,187.95,250721,,,A*72
$GPGGA,180728.750,3554.5869,N,08403.5204,W,1,06,1.52,261.9,M,-32.1,M,,*50
$GPRMC,180729.000,A,3554.5869,N,08403.5204,W,0.40,187.95,250721,,,A*75
$GPGGA,180729.250,3554.5869,N,08403.5204,W,1,06,1.52,261.8,M,-32.1,M,,*55
$GPRMC,180729.500,A,3554.5868,N,08403.5204,W,0.36,187.95,250721,,,A*70
$GPGGA,180729.750,3554.5868,N,08403.5204,W,1,06,1.52,261.8,M,-32.1,M,,*51
$GPRMC,180730.000,A,3554.5868,N,08403.5204,W,0.33,187.95,250721,,,A*78
$GPGGA,180730.250,3554.5868,N,08403.5204,W,1,07,1.13,261.8,M,-32.1,M,,*58
$GPRMC,180730.500,A,3554.5867,N,08403.5204,W,0.36,187.95,250721,,,A*77
$GPGGA,180730.750,3554.5867,N,08403.5204,W,1,07,1.13,261.8,M,-32.1,M,,*52
$GPRMC,180731.000,A,3554.5867,N,08403.5204,W,0.39,187.95,250721,,,A*7C
$GPGGA,180731.250,3554.5867,N,08403.5204,W,1,07,1.13,261.7,M,-32.1,M,,*59
$GPRMC,180731.500,A,3554.5867,N,08403.5204,W,0.34,187.95,250721,,,A*74
$GPGGA,180731.750,3554.5866,N,08403.5204,W,1,07,1.13,261.7,M,-32.1,M,,*5D
$GPRMC,180732.000,A,3554.5866,N,08403.5204,W,0.32,187.95,250721,,,A*75
$GPGGA,180732.250,3554.5866,N,08403.5204,W,1,07,1.13,261.7,M,-32.1,M,,*5B
$GPRMC,180732.500,A,3554.5866,N,08403.5205,W,0.00,187.95,250721,,,A*70
$GPGGA,180732.750,3554.5866,N,08403.5205,W,1,07,1.17,261.7,M,-32.1,M,,*5B
$GPRMC,180733.000,A,3554.5866,N,08403.5205,W,0.00,187.95,250721,,,A*74
$GPGGA,180733.250,3554.5866,N,08403.5205,W,1,07,1.17,261.7,M,-32.1,M,,*5F
$GPRMC,180733.500,A,3554.5866,N,08403.5205,W,0.00,187.95,250721,,,A*71
$GPGGA,180733.750,3554.5866,N,08403.5205,W,1,07,1.13,261.7,M,-32.1,M,,*5E
$GPRMC,180734.000,A,3554.5866,N,08403.5205,W,0.06,187.95,250721,,,A*75
$GPGGA,180734.250,3554.5866,N,08403.5205,W,1,07,1.13,261.7,M,-32.1,M,,*5C
$GPRMC,180734.500,A,3554.5866,N,08403.5205,W,0.11,187.95,250721,,,A*76
$GPGGA,180734.750,3554.5866,N,08403.5205,W,1,07,1.13,261.7,M,-32.1,M,,*59
$GPRMC,180735.000,A,3554.5866,N,08403.5205,W,0.00,187.95,250721,,,A*72
$GPGGA,180735.250,3554.5866,N,08403.5205,W,1,07,1.17,261.7,M,-32.1,M,,*59
$GPRMC,180735.500,A,3554.5866,N,08403.5205,W,0.00,187.95,250721,,,A*77
$GPGGA,180735.750,3554.5866,N,08403.5205,W,1,07,1.17,261.7,M,-32.1,M,,*5C
$GPRMC,180736.000,A,3554.5866,N,08403.5205,W,0.00,187.95,250721,,,A*71
$GPGGA,180736.250,3554.5866,N,08403.5205,W,1,07,1.13,261.7,M,-32.1,M,,*5E
$GPRMC,180736.500,A,3554.5866,N,08403.5205,W,0.05,187.95,250721,,,A*71
$GPGGA,180736.750,3554.5866,N,08403.5205,W,1,07,1.13,261.7,M,-32.1,M,,*5B
$GPRMC,180737.000,A,3554.5866,N,08403.5205,W,0.09,187.95,250721,,,A*79
$GPGGA,180737.250,3554.5866,N,08403.5205,W,1,07,1.13,261.7,M,-32.1,M,,*5F
$GPRMC,180737.500,A,3554.5866,N,08403.5205,W,0.13,187.95,250721,,,A*77
$GPGGA,180737.750,3554.5866,N,08403.5205,W,1,07,1.13,261.7,M,-32.1,M,,*5A
$GPRMC,180738.000,A,3554.5866,N,08403.5205,W,0.00,187.95,250721,,,A*7F
$GPGGA,180738.250,3554.5866,N,08403.5205,W,1,07,1.17,261.7,M,-32.1,M,,*54
$GPRMC,180738.500,A,3554.5866,N,08403.5205,W,0.00,187.95,250721,,,A*7A
$GPGGA,180738.750,3554.5866,N,08403.5205,W,1,07,1.17,261.7,M,-32.1,M,,*51
$GPRMC,180739.000,A,3554.5866,N,08403.5205,W,0.00,187.95,250721,,,A*7E
$GPGGA,180739.250,3554.5866,N,08403.5205,W,1,07,1.17,261.7,M,-32.1,M,,*55
$GPRMC,180739.500,A,3554.5866,N,08403.5205,W,0.00,187.95,250721,,,A*7B
$GPGGA,180739.750,3554.5866,N,08403.5205,W,1,07,1.17,261.7,M,-32.1,M,,*50
$GPRMC,180740.000,A,3554.5866,N,08403.5205,W,0.03,187.95,250721,,,A*73
$GPGGA,180740.250,3554.5866,N,08403.5205,W,1,07,1.13,261.7,M,-32.1,M,,*5F
$GPRMC,180740.500,A,3554.5866,N,08403.5205,W,0.00,187.95,250721,,,A*75
$GPGGA,180740.750,3554.5866,N,08403.5205,W,1,07,1.13,261.7,M,-32.1,M,,*5A
$GPRMC,180741.000,A,3554.5866,N,08403.5205,W,0.08,187.95,250721,,,A*79
$GPGGA,180741.250,3554.5866,N,08403.5205,W,1,07,1.13,261.7,M,-32.1,M,,*5E
$GPRMC,180741.500,A,3554.5866,N,08403.5205,W,0.14,187.95,250721,,,A*71
$GPGGA,180741.750,3554.5866,N,08403.5205,W,1,07,1.13,261.7,M,-32.1,M,,*5B
$GPRMC,180742.000,A,3554.5866,N,08403.5206,W,0.19,187.95,250721,,,A*79
$GPGGA,180742.250,3554.5867,N,08403.5206,W,1,07,1.13,261.7,M,-32.1,M,,*5F
$GPRMC,180742.500,A,3554.5867,N,08403.5206,W,0.27,187.95,250721,,,A*70
$GPGGA,180742.750,3554.5867,N,08403.5206,W,1,07,1.13,261.7,M,-32.1,M,,*5A
$GPRMC,180743.000,A,3554.5867,N,08403.5206,W,0.35,187.95,250721,,,A*77
$GPGGA,180743.250,3554.5867,N,08403.5206,W,1,07,1.13,261.7,M,-32.1,M,,*5E
$GPRMC,180743.500,A,3554.5868,N,08403.5207,W,0.38,187.95,250721,,,A*71
$GPGGA,180743.750,3554.5868,N,08403.5207,W,1,07,1.13,261.8,M,-32.1,M,,*5A
$GPRMC,180744.000,A,3554.5868,N,08403.5207,W,0.41,187.95,250721,,,A*7D
$GPGGA,180744.250,3554.5868,N,08403.5207,W,1,07,1.13,261.8,M,-32.1,M,,*58
$GPRMC,180744.500,A,3554.5869,N,08403.5208,W,0.45,187.95,250721,,,A*72
$GPGGA,180744.750,3554.5869,N,08403.5208,W,1,07,1.13,261.8,M,-32.1,M,,*53
$GPRMC,180745.000,A,3554.5869,N,08403.5208,W,0.50,187.95,250721,,,A*72
$GPGGA,180745.250,3554.5869,N,08403.5209,W,1,07,1.13,261.8,M,-32.1,M,,*56
$GPRMC,180745.500,A,3554.5869,N,08403.5209,W,0.54,187.95,250721,,,A*72
$GPGGA,180745.750,3554.5870,N,08403.5209,W,1,07,1.13,261.8,M,-32.1,M,,*5B
$GPRMC,180746.000,A,3554.5870,N,08403.5209,W,0.57,187.95,250721,,,A*7F
$GPGGA,180746.250,3554.5870,N,08403.5210,W,1,07,1.13,261.8,M,-32.1,M,,*55
$GPRMC,180746.500,A,3554.5870,N,08403.5210,W,0.00,187.95,250721,,,A*70
$GPGGA,180746.750,3554.5870,N,08403.5210,W,1,07,1.13,261.8,M,-32.1,M,,*50
$GPRMC,180747.000,A,3554.5871,N,08403.5210,W,0.06,187.95,250721,,,A*73
$GPGGA,180747.250,3554.5871,N,08403.5210,W,1,07,1.13,261.8,M,-32.1,M,,*55
$GPRMC,180747.500,A,3554.5871,N,08403.5210,W,0.11,187.95,250721,,,A*70
$GPGGA,180747.750,3554.5871,N,08403.5210,W,1,07,1.13,261.8,M,-32.1,M,,*50
$GPRMC,180748.000,A,3554.5871,N,08403.5210,W,0.10,187.95,250721,,,A*7B
$GPGGA,180748.250,3554.5871,N,08403.5210,W,1,08,1.02,261.8,M,-32.1,M,,*55
$GPRMC,180748.500,A,3554.5871,N,08403.5210,W,0.11,187.95,250721,,,A*7F
$GPGGA,180748.750,3554.5871,N,08403.5210,W,1,08,1.06,261.8,M,-32.1,M,,*54
$GPRMC,180749.000,A,3554.5871,N,08403.5210,W,0.13,187.95,250721,,,A*79
$GPGGA,180749.250,3554.5871,N,08403.5210,W,1,08,1.06,261.8,M,-32.1,M,,*50
$GPRMC,180749.500,A,3554.5871,N,08403.5210,W,0.00,187.95,250721,,,A*7E
$GPGGA,180749.750,3554.5871,N,08403.5210,W,1,08,1.06,261.8,M,-32.1,M,,*55
$GPRMC,180750.000,A,3554.5871,N,08403.5210,W,0.03,187.95,250721,,,A*70
$GPGGA,180750.250,3554.5871,N,08403.5210,W,1,08,1.02,261.8,M,-32.1,M,,*5C
$GPRMC,180750.500,A,3554.5871,N,08403.5210,W,0.09,187.95,250721,,,A*7F
$GPGGA,180750.750,3554.5872,N,08403.5210,W,1,08,1.06,261.8,M,-32.1,M,,*5E
$GPRMC,180751.000,A,3554.5872,N,08403.5210,W,0.11,187.95,250721,,,A*71
$GPGGA,180751.250,3554.5872,N,08403.5210,W,1,08,1.06,261.8,M,-32.1,M,,*5A
$GPRMC,180751.500,A,3554.5872,N,08403.5210,W,0.11,187.95,250721,,,A*74
$GPGGA,180751.750,3554.5872,N,08403.5210,W,1,08,1.06,261.8,M,-32.1,M,,*5F
$GPRMC,180752.000,A,3554.5872,N,08403.5210,W,0.14,187.95,250721,,,A*77
$GPGGA,180752.250,3554.5872,N,08403.5210,W,1,08,1.06,261.8,M,-32.1,M,,*59
