Vers 81
USE_SERIAL_FEEDBACK=true
DEVELOPMENT_MODE=false
USE_RMC_ONLY=false

$GPRMC,121721.500,A,4308.3079,N,07726.2556,W,0.44,349.72,240821,,,A*7B
$GPGGA,121721.750,4308.3080,N,07726.2557,W,1,04,5.74,182.7,M,-34.4,M,,*5F
$GPRMC,121722.000,A,4308.3081,N,07726.2558,W,0.41,354.13,240821,,,A*7A
$GPGGA,121722.250,4308.3082,N,07726.2561,W,1,04,5.74,182.3,M,-34.4,M,,*5A
$GPRMC,121722.500,A,4308.3084,N,07726.2562,W,0.46,353.74,240821,,,A*72
$GPGGA,121722.750,4308.3085,N,07726.2565,W,1,04,5.74,181.9,M,-34.4,M,,*55
$GPRMC,121723.000,A,4308.3086,N,07726.2567,W,0.49,350.48,240821,,,A*72
$GPGGA,121723.250,4308.3086,N,07726.2568,W,1,04,5.74,181.5,M,-34.4,M,,*53
$GPRMC,121723.500,A,4308.3087,N,07726.2568,W,0.38,0.86,240821,,,A*7B
$GPGGA,121723.750,4308.3088,N,07726.2569,W,1,04,5.74,180.9,M,-34.4,M,,*54
$GPRMC,121724.000,A,4308.3089,N,07726.2570,W,0.28,8.78,240821,,,A*76
$GPGGA,121724.250,4308.3090,N,07726.2572,W,1,04,5.74,180.3,M,-34.4,M,,*5F
$GPRMC,121724.500,A,4308.3091,N,07726.2575,W,0.28,2.88,240821,,,A*7A
$GPGGA,121724.750,4308.3092,N,07726.2577,W,1,04,5.74,179.7,M,-34.4,M,,*5F
$GPRMC,121725.000,A,4308.3093,N,07726.2580,W,0.34,351.08,240821,,,A*76
$GPGGA,121725.250,4308.3093,N,07726.2583,W,1,04,5.74,179.2,M,-34.4,M,,*54
$GPRMC,121725.500,A,4308.3094,N,07726.2585,W,0.26,331.32,240821,,,A*7D
$GPGGA,121725.750,4308.3094,N,07726.2587,W,1,04,4.15,178.7,M,-34.4,M,,*50
$GPRMC,121726.000,A,4308.3094,N,07726.2588,W,0.15,324.54,240821,,,A*72
$GPGGA,121726.250,4308.3095,N,07726.2590,W,1,04,4.15,178.3,M,-34.4,M,,*55
$GPRMC,121726.500,A,4308.3095,N,07726.2591,W,0.17,318.97,240821,,,A*7C
$GPGGA,121726.750,4308.3096,N,07726.2594,W,1,04,4.16,177.9,M,-34.4,M,,*51
$GPRMC,121727.000,A,4308.3096,N,07726.2596,W,0.23,319.40,240821,,,A*70
$GPGGA,121727.250,4308.3096,N,07726.2597,W,1,04,4.16,177.6,M,-34.4,M,,*59
$GPRMC,121727.500,A,4308.3096,N,07726.2597,W,0.08,319.21,240821,,,A*7A
$GPGGA,121727.750,4308.3096,N,07726.2598,W,1,04,4.16,177.2,M,-34.4,M,,*57
$GPRMC,121728.000,A,4308.3096,N,07726.2600,W,0.06,316.08,240821,,,A*77
$GPGGA,121728.250,4308.3096,N,07726.2601,W,1,04,4.16,176.9,M,-34.4,M,,*54
$GPRMC,121728.500,A,4308.3096,N,07726.2602,W,0.05,312.85,240821,,,A*72
$GPGGA,121728.750,4308.3096,N,07726.2603,W,1,04,4.16,176.5,M,-34.4,M,,*5F
$GPRMC,121729.000,A,4308.3097,N,07726.2603,W,0.06,25.76,240821,,,A*4E
$GPGGA,121729.250,4308.3096,N,07726.2602,W,1,04,4.16,176.3,M,-34.4,M,,*5C
$GPRMC,121729.500,A,4308.3096,N,07726.2601,W,0.13,107.12,240821,,,A*7F
$GPGGA,121729.750,4308.3095,N,07726.2601,W,1,04,4.16,176.1,M,-34.4,M,,*5B
$GPRMC,121730.000,A,4308.3094,N,07726.2600,W,0.24,134.92,240821,,,A*7D
$GPGGA,121730.250,4308.3094,N,07726.2600,W,1,04,4.16,175.9,M,-34.4,M,,*5D
$GPRMC,121730.500,A,4308.3094,N,07726.2600,W,0.24,126.72,240821,,,A*75
$GPGGA,121730.750,4308.3094,N,07726.2601,W,1,04,4.16,175.7,M,-34.4,M,,*57
$GPRMC,121731.000,A,4308.3095,N,07726.2601,W,0.18,109.56,240821,,,A*75
$GPGGA,121731.250,4308.3095,N,07726.2601,W,1,04,4.17,175.6,M,-34.4,M,,*52
$GPRMC,121731.500,A,4308.3094,N,07726.2601,W,0.18,107.44,240821,,,A*7C
$GPGGA,121731.750,4308.3094,N,07726.2601,W,1,04,4.17,175.4,M,-34.4,M,,*54
$GPRMC,121732.000,A,4308.3094,N,07726.2601,W,0.21,126.78,240821,,,A*7C
$GPGGA,121732.250,4308.3093,N,07726.2601,W,1,04,4.17,175.2,M,-34.4,M,,*53
$GPRMC,121732.500,A,4308.3093,N,07726.2601,W,0.27,133.54,240821,,,A*72
$GPGGA,121732.750,4308.3093,N,07726.2601,W,1,04,4.17,175.0,M,-34.4,M,,*54
$GPRMC,121733.000,A,4308.3093,N,07726.2602,W,0.23,122.36,240821,,,A*75
$GPGGA,121733.250,4308.3094,N,07726.2602,W,1,04,4.17,174.8,M,-34.4,M,,*5D
$GPRMC,121733.500,A,4308.3094,N,07726.2602,W,0.20,117.62,240821,,,A*73
$GPGGA,121733.750,4308.3094,N,07726.2603,W,1,04,4.17,174.6,M,-34.4,M,,*57
$GPRMC,121734.000,A,4308.3094,N,07726.2604,W,0.17,122.33,240821,,,A*71
$GPGGA,121734.250,4308.3094,N,07726.2605,W,1,04,4.17,174.4,M,-34.4,M,,*51
$GPRMC,121734.500,A,4308.3094,N,07726.2606,W,0.13,99.02,240821,,,A*41
$GPGGA,121734.750,4308.3094,N,07726.2609,W,1,04,4.17,174.2,M,-34.4,M,,*5E
$GPRMC,121735.000,A,4308.3094,N,07726.2610,W,0.14,110.85,240821,,,A*7A
$GPGGA,121735.250,4308.3094,N,07726.2611,W,1,04,4.17,173.9,M,-34.4,M,,*5F
$GPRMC,121735.500,A,4308.3094,N,07726.2611,W,0.19,99.02,240821,,,A*4C
$GPGGA,121735.750,4308.3094,N,07726.2611,W,1,04,4.17,173.9,M,-34.4,M,,*5A
$GPRMC,121736.000,A,4308.3094,N,07726.2610,W,0.17,74.79,240821,,,A*4A
$GPGGA,121736.250,4308.3094,N,07726.2610,W,1,04,4.17,173.9,M,-34.4,M,,*5D
$GPRMC,121736.500,A,4308.3094,N,07726.2610,W,0.12,17.66,240821,,,A*41
$GPGGA,121736.750,4308.3094,N,07726.2610,W,1,04,4.17,173.9,M,-34.4,M,,*58
$GPRMC,121737.000,A,4308.3094,N,07726.2610,W,0.12,4.75,240821,,,A*75
$GPGGA,121737.250,4308.3094,N,07726.2610,W,1,04,5.77,173.9,M,-34.4,M,,*5B
$GPRMC,121737.500,A,4308.3094,N,07726.2610,W,0.16,66.78,240821,,,A*4D
$GPGGA,121737.750,4308.3094,N,07726.2610,W,1,04,4.18,173.9,M,-34.4,M,,*56
$GPRMC,121738.000,A,4308.3094,N,07726.2610,W,0.20,56.27,240821,,,A*4B
$GPGGA,121738.250,4308.3094,N,07726.2610,W,1,04,4.18,173.9,M,-34.4,M,,*5C
$GPRMC,121738.500,A,4308.3094,N,07726.2610,W,0.25,50.32,240821,,,A*49
$GPGGA,121738.750,4308.3094,N,07726.2609,W,1,04,4.18,173.9,M,-34.4,M,,*51
$GPRMC,121739.000,A,4308.3094,N,07726.2609,W,0.30,52.54,240821,,,A*43
$GPGGA,121739.250,4308.3095,N,07726.2609,W,1,04,4.18,173.9,M,-34.4,M,,*54
$GPRMC,121739.500,A,4308.3095,N,07726.2609,W,0.23,73.64,240821,,,A*45
$GPGGA,121739.750,4308.3095,N,07726.2609,W,1,04,4.18,173.9,M,-34.4,M,,*51
$GPRMC,121740.000,A,4308.3095,N,07726.2608,W,0.25,87.43,240821,,,A*47
$GPGGA,121740.250,4308.3095,N,07726.2608,W,1,04,4.18,173.9,M,-34.4,M,,*5B
$GPRMC,121740.500,A,4308.3095,N,07726.2608,W,0.30,90.45,240821,,,A*46
$GPGGA,121740.750,4308.3095,N,07726.2608,W,1,04,4.18,173.9,M,-34.4,M,,*5E
$GPRMC,121741.000,A,4308.3095,N,07726.2607,W,0.29,85.88,240821,,,A*40
$GPGGA,121741.250,4308.3095,N,07726.2607,W,1,04,4.19,173.9,M,-34.4,M,,*54
$GPRMC,121741.500,A,4308.3095,N,07726.2607,W,0.29,92.73,240821,,,A*47
$GPGGA,121741.750,4308.3095,N,07726.2606,W,1,04,4.19,173.9,M,-34.4,M,,*50
$GPRMC,121742.000,A,4308.3095,N,07726.2606,W,0.31,98.19,240821,,,A*4F
$GPGGA,121742.250,4308.3095,N,07726.2606,W,1,04,4.19,173.9,M,-34.4,M,,*56
$GPRMC,121742.500,A,4308.3095,N,07726.2606,W,0.30,94.92,240821,,,A*44
$GPGGA,121742.750,4308.3095,N,07726.2605,W,1,04,4.19,173.9,M,-34.4,M,,*50
$GPRMC,121743.000,A,4308.3095,N,07726.2605,W,0.40,90.58,240821,,,A*46
$GPGGA,121743.250,4308.3095,N,07726.2605,W,1,04,4.19,173.9,M,-34.4,M,,*54
$GPRMC,121743.500,A,4308.3095,N,07726.2604,W,0.35,92.09,240821,,,A*46
$GPGGA,121743.750,4308.3095,N,07726.2604,W,1,04,4.19,173.9,M,-34.4,M,,*50
$GPRMC,121744.000,A,4308.3094,N,07726.2604,W,0.28,90.37,240821,,,A*46
$GPGGA,121744.250,4308.3094,N,07726.2603,W,1,04,4.19,173.9,M,-34.4,M,,*54
$GPRMC,121744.500,A,4308.3094,N,07726.2603,W,0.30,92.77,240821,,,A*4B
$GPGGA,121744.750,4308.3094,N,07726.2603,W,1,04,4.19,173.9,M,-34.4,M,,*51
$GPRMC,121745.000,A,4308.3094,N,07726.2603,W,0.31,98.85,240821,,,A*49
$GPGGA,121745.250,4308.3094,N,07726.2602,W,1,04,4.19,173.9,M,-34.4,M,,*54
$GPRMC,121745.500,A,4308.3094,N,07726.2602,W,0.38,108.57,240821,,,A*73
$GPGGA,121745.750,4308.3094,N,07726.2602,W,1,04,4.20,173.9,M,-34.4,M,,*5B
$GPRMC,121746.000,A,4308.3094,N,07726.2601,W,0.36,107.78,240821,,,A*7A
$GPGGA,121746.250,4308.3094,N,07726.2601,W,1,04,4.19,173.9,M,-34.4,M,,*54
$GPRMC,121746.500,A,4308.3094,N,07726.2601,W,0.39,101.43,240821,,,A*7E
$GPGGA,121746.750,4308.3094,N,07726.2600,W,1,04,4.20,173.8,M,-34.4,M,,*5B
$GPRMC,121747.000,A,4308.3094,N,07726.2600,W,0.38,97.10,240821,,,A*42
$GPGGA,121747.250,4308.3094,N,07726.2600,W,1,04,4.20,173.8,M,-34.4,M,,*5F
$GPRMC,121747.500,A,4308.3094,N,07726.2599,W,0.42,104.25,240821,,,A*74
$GPGGA,121747.750,4308.3094,N,07726.2599,W,1,04,4.20,173.8,M,-34.4,M,,*59
$GPRMC,121748.000,A,4308.3094,N,07726.2598,W,0.41,109.05,240821,,,A*73
$GPGGA,121748.250,4308.3094,N,07726.2598,W,1,04,4.20,173.8,M,-34.4,M,,*52
$GPRMC,121748.500,A,4308.3094,N,07726.2598,W,0.34,107.33,240821,,,A*7F
$GPGGA,121748.750,4308.3093,N,07726.2598,W,1,04,4.20,173.8,M,-34.4,M,,*50
$GPRMC,121749.000,A,4308.3093,N,07726.2597,W,0.26,120.67,240821,,,A*74
$GPGGA,121749.250,4308.3093,N,07726.2597,W,1,04,4.20,173.8,M,-34.4,M,,*5B
$GPRMC,121749.500,A,4308.3093,N,07726.2597,W,0.31,121.56,240821,,,A*74
$GPGGA,121749.750,4308.3093,N,07726.2597,W,1,04,4.20,173.8,M,-34.4,M,,*5E
$GPRMC,121750.000,A,4308.3093,N,07726.2596,W,0.35,125.85,240821,,,A*76
$GPGGA,121750.250,4308.3093,N,07726.2596,W,1,04,4.20,173.8,M,-34.4,M,,*52
$GPRMC,121750.500,A,4308.3093,N,07726.2596,W,0.30,116.55,240821,,,A*7B
$GPGGA,121750.750,4308.3093,N,07726.2596,W,1,04,4.20,173.8,M,-34.4,M,,*57
$GPRMC,121751.000,A,4308.3092,N,07726.2595,W,0.31,107.87,240821,,,A*73
$GPGGA,121751.250,4308.3092,N,07726.2595,W,1,04,4.21,173.8,M,-34.4,M,,*50
$GPRMC,121751.500,A,4308.3092,N,07726.2595,W,0.29,95.89,240821,,,A*4B
$GPGGA,121751.750,4308.3092,N,07726.2595,W,1,04,4.21,173.8,M,-34.4,M,,*55
$GPRMC,121752.000,A,4308.3092,N,07726.2594,W,0.23,92.14,240821,,,A*45
$GPGGA,121752.250,4308.3092,N,07726.2594,W,1,04,4.21,173.8,M,-34.4,M,,*52
$GPRMC,121752.500,A,4308.3092,N,07726.2594,W,0.20,82.10,240821,,,A*46
$GPGGA,121752.750,4308.3092,N,07726.2594,W,1,04,4.21,173.8,M,-34.4,M,,*57
$GPRMC,121753.000,A,4308.3092,N,07726.2594,W,0.19,74.11,240821,,,A*40
$GPGGA,121753.250,4308.3092,N,07726.2593,W,1,04,4.21,173.8,M,-34.4,M,,*54
$GPRMC,121753.500,A,4308.3092,N,07726.2593,W,0.18,66.20,240821,,,A*42
$GPGGA,121753.750,4308.3092,N,07726.2593,W,1,04,4.21,173.8,M,-34.4,M,,*51
$GPRMC,121754.000,A,4308.3092,N,07726.2593,W,0.20,62.49,240821,,,A*40
$GPGGA,121754.250,4308.3093,N,07726.2593,W,1,04,4.21,173.8,M,-34.4,M,,*52
$GPRMC,121754.500,A,4308.3093,N,07726.2593,W,0.14,42.55,240821,,,A*4C
$GPGGA,121754.750,4308.3093,N,07726.2593,W,1,04,4.21,173.8,M,-34.4,M,,*57
$GPRMC,121755.000,A,4308.3093,N,07726.2593,W,0.14,334.49,240821,,,A*77
$GPGGA,121755.250,4308.3093,N,07726.2593,W,1,04,4.21,173.8,M,-34.4,M,,*53
$GPRMC,121755.500,A,4308.3093,N,07726.2593,W,0.20,331.33,240821,,,A*7D
$GPGGA,121755.750,4308.3093,N,07726.2593,W,1,04,4.21,173.8,M,-34.4,M,,*56
$GPRMC,121756.000,A,4308.3093,N,07726.2593,W,0.21,339.06,240821,,,A*74
$GPGGA,121756.250,4308.3093,N,07726.2594,W,1,05,1.76,173.8,M,-34.4,M,,*51
$GPRMC,121756.500,A,4308.3095,N,07726.2600,W,0.36,14.66,240821,,,A*42
$GPGGA,121756.750,4308.3098,N,07726.2607,W,1,05,1.94,172.8,M,-34.4,M,,*5B
$GPRMC,121757.000,A,4308.3100,N,07726.2609,W,0.65,3.91,240821,,,A*7A
$GPGGA,121757.250,4308.3104,N,07726.2624,W,1,05,1.94,171.8,M,-34.4,M,,*59
$GPRMC,121757.500,A,4308.3107,N,07726.2632,W,1.11,12.58,240821,,,A*47
$GPGGA,121757.750,4308.3112,N,07726.2640,W,1,05,1.94,170.2,M,-34.4,M,,*52
$GPRMC,121758.000,A,4308.3115,N,07726.2646,W,2.06,21.41,240821,,,A*40
$GPGGA,121758.250,4308.3118,N,07726.2651,W,1,05,1.76,169.4,M,-34.4,M,,*50
$GPRMC,121758.500,A,4308.3120,N,07726.2653,W,2.46,20.48,240821,,,A*4B
$GPGGA,121758.750,4308.3121,N,07726.2652,W,1,05,1.76,169.1,M,-34.4,M,,*59
$GPRMC,121759.000,A,4308.3122,N,07726.2652,W,2.42,25.98,240821,,,A*40
$GPGGA,121759.250,4308.3125,N,07726.2652,W,1,05,1.76,168.9,M,-34.4,M,,*50
$GPRMC,121759.500,A,4308.3127,N,07726.2651,W,2.96,24.51,240821,,,A*4E
$GPGGA,121759.750,4308.3130,N,07726.2651,W,1,05,1.76,168.6,M,-34.4,M,,*5D
$GPRMC,121800.000,A,4308.3133,N,07726.2652,W,3.51,22.37,240821,,,A*42
$GPGGA,121800.250,4308.3136,N,07726.2654,W,1,05,1.76,167.9,M,-34.4,M,,*58
$GPRMC,121800.500,A,4308.3139,N,07726.2654,W,3.55,23.08,240821,,,A*42
$GPGGA,121800.750,4308.3141,N,07726.2654,W,1,05,1.76,167.6,M,-34.4,M,,*52
$GPRMC,121801.000,A,4308.3143,N,07726.2653,W,3.33,28.29,240821,,,A*44
$GPGGA,121801.250,4308.3145,N,07726.2652,W,1,05,1.76,167.4,M,-34.4,M,,*56
$GPRMC,121801.500,A,4308.3147,N,07726.2651,W,3.28,34.26,240821,,,A*4F
$GPGGA,121801.750,4308.3150,N,07726.2650,W,1,05,1.76,167.1,M,-34.4,M,,*50
$GPRMC,121802.000,A,4308.3152,N,07726.2648,W,3.37,34.66,240821,,,A*4F
$GPGGA,121802.250,4308.3154,N,07726.2647,W,1,05,1.76,167.0,M,-34.4,M,,*55
$GPRMC,121802.500,A,4308.3156,N,07726.2645,W,2.91,43.48,240821,,,A*42
$GPGGA,121802.750,4308.3157,N,07726.2644,W,1,05,1.76,166.6,M,-34.4,M,,*57
$GPRMC,121803.000,A,4308.3158,N,07726.2643,W,1.80,54.34,240821,,,A*40
$GPGGA,121803.250,4308.3159,N,07726.2643,W,1,05,1.76,166.3,M,-34.4,M,,*5F
$GPRMC,121803.500,A,4308.3158,N,07726.2643,W,0.58,87.21,240821,,,A*4B
$GPGGA,121803.750,4308.3157,N,07726.2643,W,1,05,1.76,166.1,M,-34.4,M,,*56
$GPRMC,121804.000,A,4308.3157,N,07726.2644,W,0.74,162.11,240821,,,A*76
$GPGGA,121804.250,4308.3156,N,07726.2646,W,1,05,1.76,165.8,M,-34.4,M,,*5A
$GPRMC,121804.500,A,4308.3156,N,07726.2648,W,0.95,195.93,240821,,,A*73
$GPGGA,121804.750,4308.3158,N,07726.2658,W,1,05,1.76,165.5,M,-34.4,M,,*53
$GPRMC,121805.000,A,4308.3158,N,07726.2661,W,1.52,244.86,240821,,,A*73
$GPGGA,121805.250,4308.3158,N,07726.2665,W,1,05,1.76,165.4,M,-34.4,M,,*58
$GPRMC,121805.500,A,4308.3159,N,07726.2674,W,2.21,256.92,240821,,,A*72
$GPGGA,121805.750,4308.3162,N,07726.2690,W,1,05,1.76,165.2,M,-34.4,M,,*58
$GPRMC,121806.000,A,4308.3161,N,07726.2695,W,4.63,259.81,240821,,,A*7D
$GPGGA,121806.250,4308.3161,N,07726.2703,W,1,05,1.94,165.0,M,-34.4,M,,*58
$GPRMC,121806.500,A,4308.3162,N,07726.2711,W,6.20,268.78,240821,,,A*77
$GPGGA,121806.750,4308.3164,N,07726.2718,W,1,05,1.94,164.9,M,-34.4,M,,*5A
$GPRMC,121807.000,A,4308.3164,N,07726.2726,W,6.90,272.11,240821,,,A*7E
$GPGGA,121807.250,4308.3165,N,07726.2733,W,1,05,1.94,164.7,M,-34.4,M,,*58
$GPRMC,121807.500,A,4308.3166,N,07726.2741,W,7.32,272.65,240821,,,A*72
$GPGGA,121807.750,4308.3167,N,07726.2748,W,1,05,1.94,164.4,M,-34.4,M,,*50
$GPRMC,121808.000,A,4308.3168,N,07726.2755,W,7.54,274.59,240821,,,A*7A
$GPGGA,121808.250,4308.3170,N,07726.2763,W,1,05,1.93,164.2,M,-34.4,M,,*54
$GPRMC,121808.500,A,4308.3172,N,07726.2773,W,8.86,277.54,240821,,,A*7E
$GPGGA,121808.750,4308.3175,N,07726.2783,W,1,05,1.94,164.0,M,-34.4,M,,*5F
$GPRMC,121809.000,A,4308.3178,N,07726.2793,W,9.75,281.00,240821,,,A*7B
$GPGGA,121809.250,4308.3180,N,07726.2804,W,1,05,1.94,163.8,M,-34.4,M,,*5E
$GPRMC,121809.500,A,4308.3183,N,07726.2815,W,10.84,281.28,240821,,,A*47
$GPGGA,121809.750,4308.3185,N,07726.2826,W,1,05,1.93,163.6,M,-34.4,M,,*57
$GPRMC,121810.000,A,4308.3187,N,07726.2837,W,11.32,282.68,240821,,,A*45
$GPGGA,121810.250,4308.3189,N,07726.2848,W,1,05,1.94,163.5,M,-34.4,M,,*5A
$GPRMC,121810.500,A,4308.3192,N,07726.2860,W,11.63,283.77,240821,,,A*4D
$GPGGA,121810.750,4308.3195,N,07726.2872,W,1,05,1.94,163.3,M,-34.4,M,,*5D
$GPRMC,121811.000,A,4308.3198,N,07726.2884,W,11.89,285.53,240821,,,A*4D
$GPGGA,121811.250,4308.3201,N,07726.2896,W,1,05,1.94,163.3,M,-34.4,M,,*5D
$GPRMC,121811.500,A,4308.3205,N,07726.2908,W,12.42,288.37,240821,,,A*41
$GPGGA,121811.750,4308.3210,N,07726.2920,W,1,05,1.93,163.2,M,-34.4,M,,*52
$GPRMC,121812.000,A,4308.3214,N,07726.2932,W,12.64,291.78,240821,,,A*49
$GPGGA,121812.250,4308.3219,N,07726.2944,W,1,05,1.94,163.1,M,-34.4,M,,*5B
$GPRMC,121812.500,A,4308.3224,N,07726.2956,W,12.97,294.63,240821,,,A*4E
$GPGGA,121812.750,4308.3229,N,07726.2968,W,1,05,1.93,163.0,M,-34.4,M,,*55
$GPRMC,121813.000,A,4308.3233,N,07726.2979,W,13.21,296.15,240821,,,A*4E
$GPGGA,121813.250,4308.3238,N,07726.2992,W,1,05,1.75,163.0,M,-34.4,M,,*5C
$GPRMC,121813.500,A,4308.3243,N,07726.3004,W,13.84,297.22,240821,,,A*44
$GPGGA,121813.750,4308.3250,N,07726.3019,W,1,05,1.94,162.9,M,-34.4,M,,*5B
$GPRMC,121814.000,A,4308.3256,N,07726.3033,W,14.99,298.55,240821,,,A*42
$GPGGA,121814.250,4308.3262,N,07726.3047,W,1,05,1.94,162.9,M,-34.4,M,,*53
$GPRMC,121814.500,A,4308.3268,N,07726.3061,W,16.01,298.80,240821,,,A*46
$GPGGA,121814.750,4308.3275,N,07726.3076,W,1,05,1.94,162.7,M,-34.4,M,,*5C
$GPRMC,121815.000,A,4308.3282,N,07726.3090,W,16.44,300.14,240821,,,A*44
$GPGGA,121815.250,4308.3289,N,07726.3104,W,1,05,1.94,162.6,M,-34.4,M,,*5E
$GPRMC,121815.500,A,4308.3296,N,07726.3119,W,16.89,301.74,240821,,,A*42
$GPGGA,121815.750,4308.3304,N,07726.3133,W,1,05,1.93,162.5,M,-34.4,M,,*5F
$GPRMC,121816.000,A,4308.3311,N,07726.3147,W,17.25,303.17,240821,,,A*41
$GPGGA,121816.250,4308.3319,N,07726.3161,W,1,05,1.93,162.3,M,-34.4,M,,*54
$GPRMC,121816.500,A,4308.3328,N,07726.3176,W,17.81,303.82,240821,,,A*4E
$GPGGA,121816.750,4308.3336,N,07726.3191,W,1,05,1.94,162.1,M,-34.4,M,,*56
$GPRMC,121817.000,A,4308.3344,N,07726.3206,W,18.21,303.89,240821,,,A*4A
$GPGGA,121817.250,4308.3352,N,07726.3221,W,1,05,1.93,162.0,M,-34.4,M,,*5E
$GPRMC,121817.500,A,4308.3360,N,07726.3236,W,18.56,303.71,240821,,,A*4D
$GPGGA,121817.750,4308.3367,N,07726.3251,W,1,05,1.93,161.9,M,-34.4,M,,*50
$GPRMC,121818.000,A,4308.3375,N,07726.3266,W,18.70,303.27,240821,,,A*41
$GPGGA,121818.250,4308.3382,N,07726.3281,W,1,05,1.93,161.8,M,-34.4,M,,*5D
$GPRMC,121818.500,A,4308.3390,N,07726.3297,W,18.99,302.57,240821,,,A*40
$GPGGA,121818.750,4308.3398,N,07726.3312,W,1,05,1.93,161.7,M,-34.4,M,,*57
$GPRMC,121819.000,A,4308.3405,N,07726.3328,W,19.21,303.09,240821,,,A*42
$GPGGA,121819.250,4308.3413,N,07726.3343,W,1,05,1.93,161.7,M,-34.4,M,,*53
$GPRMC,121819.500,A,4308.3421,N,07726.3359,W,19.26,303.78,240821,,,A*46
$GPGGA,121819.750,4308.3429,N,07726.3374,W,1,05,1.93,161.6,M,-34.4,M,,*5A
$GPRMC,121820.000,A,4308.3437,N,07726.3390,W,19.49,303.32,240821,,,A*4C
$GPGGA,121820.250,4308.3445,N,07726.3406,W,1,05,1.93,161.5,M,-34.4,M,,*5E
$GPRMC,121820.500,A,4308.3454,N,07726.3422,W,19.74,303.22,240821,,,A*4D
$GPGGA,121820.750,4308.3462,N,07726.3439,W,1,05,1.94,161.4,M,-34.4,M,,*54
$GPRMC,121821.000,A,4308.3470,N,07726.3455,W,19.93,303.44,240821,,,A*46
$GPGGA,121821.250,4308.3478,N,07726.3471,W,1,05,1.93,161.3,M,-34.4,M,,*57
$GPRMC,121821.500,A,4308.3487,N,07726.3487,W,20.22,303.59,240821,,,A*48
$GPGGA,121821.750,4308.3495,N,07726.3503,W,1,05,1.93,161.2,M,-34.4,M,,*54
$GPRMC,121822.000,A,4308.3503,N,07726.3519,W,20.26,304.46,240821,,,A*48
$GPGGA,121822.250,4308.3512,N,07726.3535,W,1,05,1.93,161.1,M,-34.4,M,,*5A
$GPRMC,121822.500,A,4308.3520,N,07726.3551,W,20.29,305.81,240821,,,A*45
$GPGGA,121822.750,4308.3528,N,07726.3566,W,1,05,1.93,161.1,M,-34.4,M,,*50
$GPRMC,121823.000,A,4308.3536,N,07726.3581,W,20.06,306.18,240821,,,A*45
$GPGGA,121823.250,4308.3545,N,07726.3596,W,1,05,1.94,161.0,M,-34.4,M,,*56
$GPRMC,121823.500,A,4308.3554,N,07726.3609,W,19.82,309.54,240821,,,A*46
$GPGGA,121823.750,4308.3563,N,07726.3623,W,1,05,1.93,161.0,M,-34.4,M,,*5D
$GPRMC,121824.000,A,4308.3572,N,07726.3637,W,19.62,311.93,240821,,,A*41
$GPGGA,121824.250,4308.3582,N,07726.3650,W,1,05,1.93,160.9,M,-34.4,M,,*5C
$GPRMC,121824.500,A,4308.3593,N,07726.3665,W,20.14,316.57,240821,,,A*48
$GPGGA,121824.750,4308.3605,N,07726.3678,W,1,05,1.93,160.7,M,-34.4,M,,*51
$GPRMC,121825.000,A,4308.3615,N,07726.3690,W,20.37,320.40,240821,,,A*49
$GPGGA,121825.250,4308.3626,N,07726.3701,W,1,05,1.93,160.5,M,-34.4,M,,*59
$GPRMC,121825.500,A,4308.3637,N,07726.3711,W,19.96,324.29,240821,,,A*4E
$GPGGA,121825.750,4308.3648,N,07726.3720,W,1,05,1.93,160.5,M,-34.4,M,,*57
$GPRMC,121826.000,A,4308.3659,N,07726.3730,W,19.91,328.08,240821,,,A*4B
$GPGGA,121826.250,4308.3672,N,07726.3740,W,1,05,1.93,160.4,M,-34.4,M,,*5F
$GPRMC,121826.500,A,4308.3685,N,07726.3750,W,20.42,331.73,240821,,,A*49
$GPGGA,121826.750,4308.3698,N,07726.3757,W,1,05,1.93,160.3,M,-34.4,M,,*5F
$GPRMC,121827.000,A,4308.3710,N,07726.3765,W,20.39,334.93,240821,,,A*41
$GPGGA,121827.250,4308.3723,N,07726.3772,W,1,05,1.93,160.3,M,-34.4,M,,*5D
$GPRMC,121827.500,A,4308.3736,N,07726.3779,W,20.34,337.68,240821,,,A*47
$GPGGA,121827.750,4308.3749,N,07726.3785,W,1,05,1.93,160.2,M,-34.4,M,,*5D
$GPRMC,121828.000,A,4308.3763,N,07726.3791,W,20.35,340.88,240821,,,A*44
$GPGGA,121828.250,4308.3775,N,07726.3795,W,1,05,1.93,160.2,M,-34.4,M,,*59
$GPRMC,121828.500,A,4308.3789,N,07726.3800,W,20.28,344.22,240821,,,A*4A
$GPGGA,121828.750,4308.3802,N,07726.3803,W,1,05,1.93,160.1,M,-34.4,M,,*50
$GPRMC,121829.000,A,4308.3815,N,07726.3806,W,20.22,347.13,240821,,,A*49
$GPGGA,121829.250,4308.3829,N,07726.3808,W,1,05,1.93,159.8,M,-34.4,M,,*55
$GPRMC,121829.500,A,4308.3843,N,07726.3812,W,20.44,349.30,240821,,,A*45
$GPGGA,121829.750,4308.3857,N,07726.3814,W,1,05,1.93,159.6,M,-34.4,M,,*5A
$GPRMC,121830.000,A,4308.3871,N,07726.3816,W,20.69,352.58,240821,,,A*46
$GPGGA,121830.250,4308.3885,N,07726.3817,W,1,05,1.93,159.5,M,-34.4,M,,*58
$GPRMC,121830.500,A,4308.3900,N,07726.3817,W,21.01,355.75,240821,,,A*42
$GPGGA,121830.750,4308.3914,N,07726.3817,W,1,05,1.93,159.5,M,-34.4,M,,*54
$GPRMC,121831.000,A,4308.3929,N,07726.3816,W,21.25,359.50,240821,,,A*41
$GPGGA,121831.250,4308.3943,N,07726.3815,W,1,05,1.93,159.4,M,-34.4,M,,*51
$GPRMC,121831.500,A,4308.3958,N,07726.3813,W,21.58,3.00,240821,,,A*44
$GPGGA,121831.750,4308.3972,N,07726.3811,W,1,05,1.93,159.4,M,-34.4,M,,*52
$GPRMC,121832.000,A,4308.3986,N,07726.3808,W,21.60,5.38,240821,,,A*4D
$GPGGA,121832.250,4308.4000,N,07726.3805,W,1,05,1.93,159.4,M,-34.4,M,,*5A
$GPRMC,121832.500,A,4308.4014,N,07726.3801,W,21.19,7.00,240821,,,A*43
$GPGGA,121832.750,4308.4028,N,07726.3797,W,1,05,1.93,159.3,M,-34.4,M,,*56
$GPRMC,121833.000,A,4308.4042,N,07726.3793,W,21.20,8.26,240821,,,A*41
$GPGGA,121833.250,4308.4056,N,07726.3787,W,1,05,1.93,159.3,M,-34.4,M,,*5A
$GPRMC,121833.500,A,4308.4070,N,07726.3783,W,21.28,11.04,240821,,,A*74
$GPGGA,121833.750,4308.4083,N,07726.3777,W,1,05,1.93,159.3,M,-34.4,M,,*58
$GPRMC,121834.000,A,4308.4098,N,07726.3773,W,21.27,11.77,240821,,,A*74
$GPGGA,121834.250,4308.4112,N,07726.3768,W,1,05,1.93,159.3,M,-34.4,M,,*5D
$GPRMC,121834.500,A,4308.4126,N,07726.3763,W,20.78,11.99,240821,,,A*7F
$GPGGA,121834.750,4308.4140,N,07726.3759,W,1,05,1.93,159.2,M,-34.4,M,,*5C
$GPRMC,121835.000,A,4308.4154,N,07726.3754,W,20.37,11.66,240821,,,A*71
$GPGGA,121835.250,4308.4166,N,07726.3748,W,1,05,1.93,159.2,M,-34.4,M,,*5C
$GPRMC,121835.500,A,4308.4180,N,07726.3744,W,19.78,11.96,240821,,,A*72
$GPGGA,121835.750,4308.4193,N,07726.3740,W,1,05,1.93,159.3,M,-34.4,M,,*5A
$GPRMC,121836.000,A,4308.4207,N,07726.3735,W,19.64,11.60,240821,,,A*7A
$GPGGA,121836.250,4308.4221,N,07726.3731,W,1,05,1.93,159.3,M,-34.4,M,,*50
$GPRMC,121836.500,A,4308.4234,N,07726.3727,W,19.47,10.52,240821,,,A*7D
$GPGGA,121836.750,4308.4247,N,07726.3722,W,1,05,1.93,159.4,M,-34.4,M,,*50
$GPRMC,121837.000,A,4308.4260,N,07726.3718,W,19.18,10.29,240821,,,A*72
$GPGGA,121837.250,4308.4273,N,07726.3714,W,1,05,1.93,159.4,M,-34.4,M,,*56
$GPRMC,121837.500,A,4308.4286,N,07726.3711,W,19.04,10.19,240821,,,A*78
$GPGGA,121837.750,4308.4299,N,07726.3708,W,1,05,1.93,159.5,M,-34.4,M,,*5B
$GPRMC,121838.000,A,4308.4311,N,07726.3705,W,18.60,9.70,240821,,,A*4C
$GPGGA,121838.250,4308.4324,N,07726.3702,W,1,05,1.93,159.8,M,-34.4,M,,*51
$GPRMC,121838.500,A,4308.4336,N,07726.3700,W,18.06,8.72,240821,,,A*4A
$GPGGA,121838.750,4308.4349,N,07726.3697,W,1,05,1.93,160.1,M,-34.4,M,,*51
$GPRMC,121839.000,A,4308.4360,N,07726.3694,W,17.72,8.22,240821,,,A*48
$GPGGA,121839.250,4308.4372,N,07726.3691,W,1,05,1.93,160.3,M,-34.4,M,,*59
$GPRMC,121839.500,A,4308.4383,N,07726.3688,W,17.35,8.35,240821,,,A*48
$GPGGA,121839.750,4308.4397,N,07726.3687,W,1,05,1.93,160.6,M,-34.4,M,,*55
$GPRMC,121840.000,A,4308.4410,N,07726.3686,W,17.25,7.72,240821,,,A*4D
$GPGGA,121840.250,4308.4421,N,07726.3684,W,1,05,1.93,160.8,M,-34.4,M,,*59
$GPRMC,121840.500,A,4308.4433,N,07726.3682,W,16.98,7.46,240821,,,A*4D
$GPGGA,121840.750,4308.4445,N,07726.3680,W,1,05,1.93,161.0,M,-34.4,M,,*53
$GPRMC,121841.000,A,4308.4457,N,07726.3678,W,16.74,7.59,240821,,,A*42
$GPGGA,121841.250,4308.4469,N,07726.3675,W,1,05,1.93,161.2,M,-34.4,M,,*51
$GPRMC,121841.500,A,4308.4480,N,07726.3673,W,16.37,7.85,240821,,,A*40
$GPGGA,121841.750,4308.4491,N,07726.3670,W,1,05,1.93,161.4,M,-34.4,M,,*50
$GPRMC,121842.000,A,4308.4502,N,07726.3668,W,15.93,8.06,240821,,,A*4E
$GPGGA,121842.250,4308.4513,N,07726.3666,W,1,05,1.93,161.6,M,-34.4,M,,*58
$GPRMC,121842.500,A,4308.4524,N,07726.3665,W,15.23,7.60,240821,,,A*46
$GPGGA,121842.750,4308.4534,N,07726.3663,W,1,05,1.93,161.8,M,-34.4,M,,*53
$GPRMC,121843.000,A,4308.4545,N,07726.3662,W,14.61,6.53,240821,,,A*44
$GPGGA,121843.250,4308.4556,N,07726.3662,W,1,05,1.93,162.0,M,-34.4,M,,*59
$GPRMC,121843.500,A,4308.4565,N,07726.3662,W,13.70,3.85,240821,,,A*4A
$GPGGA,121843.750,4308.4572,N,07726.3660,W,1,05,1.93,162.3,M,-34.4,M,,*5B
$GPRMC,121844.000,A,4308.4580,N,07726.3660,W,12.23,1.20,240821,,,A*4B
$GPGGA,121844.250,4308.4587,N,07726.3659,W,1,05,1.93,162.5,M,-34.4,M,,*5F
$GPRMC,121844.500,A,4308.4592,N,07726.3659,W,10.40,355.72,240821,,,A*45
$GPGGA,121844.750,4308.4599,N,07726.3660,W,1,05,1.93,162.7,M,-34.4,M,,*5D
$GPRMC,121845.000,A,4308.4605,N,07726.3661,W,9.49,350.06,240821,,,A*70
$GPGGA,121845.250,4308.4611,N,07726.3663,W,1,05,1.93,162.8,M,-34.4,M,,*56
$GPRMC,121845.500,A,4308.4617,N,07726.3666,W,8.77,344.13,240821,,,A*7C
$GPGGA,121845.750,4308.4622,N,07726.3668,W,1,05,1.93,163.0,M,-34.4,M,,*51
$GPRMC,121846.000,A,4308.4627,N,07726.3670,W,8.36,343.14,240821,,,A*7B
$GPGGA,121846.250,4308.4632,N,07726.3672,W,1,05,1.93,163.2,M,-34.4,M,,*5F
$GPRMC,121846.500,A,4308.4637,N,07726.3674,W,8.14,344.94,240821,,,A*74
$GPGGA,121846.750,4308.4645,N,07726.3680,W,1,05,1.93,164.7,M,-34.4,M,,*55
$GPRMC,121847.000,A,4308.4649,N,07726.3680,W,7.62,348.67,240821,,,A*7C
$GPGGA,121847.250,4308.4652,N,07726.3681,W,1,05,1.93,165.2,M,-34.4,M,,*52
$GPRMC,121847.500,A,4308.4656,N,07726.3682,W,7.06,348.07,240821,,,A*71
$GPGGA,121847.750,4308.4661,N,07726.3686,W,1,05,1.93,166.0,M,-34.4,M,,*51
$GPRMC,121848.000,A,4308.4665,N,07726.3687,W,6.84,341.36,240821,,,A*7E
$GPGGA,121848.250,4308.4668,N,07726.3690,W,1,05,1.75,166.5,M,-34.4,M,,*58
$GPRMC,121848.500,A,4308.4673,N,07726.3695,W,7.14,328.27,240821,,,A*78
$GPGGA,121848.750,4308.4677,N,07726.3705,W,1,05,1.93,166.6,M,-34.4,M,,*55
$GPRMC,121849.000,A,4308.4681,N,07726.3714,W,8.61,308.10,240821,,,A*72
$GPGGA,121849.250,4308.4686,N,07726.3727,W,1,05,1.75,166.7,M,-34.4,M,,*56
$GPRMC,121849.500,A,4308.4690,N,07726.3740,W,11.46,293.02,240821,,,A*4B
$GPGGA,121849.750,4308.4694,N,07726.3756,W,1,05,1.93,166.6,M,-34.4,M,,*5F
$GPRMC,121850.000,A,4308.4697,N,07726.3774,W,15.59,284.33,240821,,,A*48
$GPGGA,121850.250,4308.4702,N,07726.3794,W,1,05,1.93,166.3,M,-34.4,M,,*57
$GPRMC,121850.500,A,4308.4703,N,07726.3812,W,20.04,281.30,240821,,,A*46
$GPGGA,121850.750,4308.4705,N,07726.3833,W,1,05,1.93,166.1,M,-34.4,M,,*55
$GPRMC,121851.000,A,4308.4706,N,07726.3853,W,22.30,278.33,240821,,,A*42
$GPGGA,121851.250,4308.4705,N,07726.3875,W,1,05,1.93,166.0,M,-34.4,M,,*52
$GPRMC,121851.500,A,4308.4705,N,07726.3900,W,25.66,273.91,240821,,,A*44
$GPGGA,121851.750,4308.4706,N,07726.3927,W,1,05,1.93,165.7,M,-34.4,M,,*56
$GPRMC,121852.000,A,4308.4707,N,07726.3954,W,28.81,273.46,240821,,,A*4F
$GPGGA,121852.250,4308.4708,N,07726.3984,W,1,05,1.93,165.5,M,-34.4,M,,*55
$GPRMC,121852.500,A,4308.4709,N,07726.4014,W,31.58,274.17,240821,,,A*41
$GPGGA,121852.750,4308.4711,N,07726.4044,W,1,05,1.93,165.1,M,-34.4,M,,*5E
$GPRMC,121853.000,A,4308.4713,N,07726.4074,W,32.80,275.28,240821,,,A*43
$GPGGA,121853.250,4308.4715,N,07726.4105,W,1,05,1.93,164.6,M,-34.4,M,,*5C
$GPRMC,121853.500,A,4308.4717,N,07726.4136,W,33.02,275.97,240821,,,A*4A
$GPGGA,121853.750,4308.4719,N,07726.4168,W,1,05,1.93,164.0,M,-34.4,M,,*58
$GPRMC,121854.000,A,4308.4721,N,07726.4200,W,33.25,275.87,240821,,,A*4F
$GPGGA,121854.250,4308.4723,N,07726.4232,W,1,05,1.93,163.5,M,-34.4,M,,*5D
$GPRMC,121854.500,A,4308.4725,N,07726.4263,W,32.91,276.70,240821,,,A*4E
$GPGGA,121854.750,4308.4727,N,07726.4293,W,1,05,1.93,163.1,M,-34.4,M,,*53
$GPRMC,121855.000,A,4308.4729,N,07726.4321,W,29.66,277.02,240821,,,A*47
$GPGGA,121855.250,4308.4731,N,07726.4348,W,1,05,1.92,162.7,M,-34.4,M,,*51
$GPRMC,121855.500,A,4308.4732,N,07726.4373,W,26.88,276.82,240821,,,A*49
$GPGGA,121855.750,4308.4734,N,07726.4399,W,1,05,1.93,162.5,M,-34.4,M,,*5E
$GPRMC,121856.000,A,4308.4736,N,07726.4424,W,26.36,276.57,240821,,,A*43
$GPGGA,121856.250,4308.4738,N,07726.4448,W,1,05,1.93,162.6,M,-34.4,M,,*5C
$GPRMC,121856.500,A,4308.4740,N,07726.4472,W,25.22,276.44,240821,,,A*40
$GPGGA,121856.750,4308.4741,N,07726.4494,W,1,05,1.93,162.7,M,-34.4,M,,*57
$GPRMC,121857.000,A,4308.4743,N,07726.4516,W,23.83,276.94,240821,,,A*44
$GPGGA,121857.250,4308.4744,N,07726.4536,W,1,05,1.74,162.8,M,-34.4,M,,*59
$GPRMC,121857.500,A,4308.4745,N,07726.4554,W,22.23,277.10,240821,,,A*47
$GPGGA,121857.750,4308.4744,N,07726.4573,W,1,05,1.93,162.8,M,-34.4,M,,*54
$GPRMC,121858.000,A,4308.4745,N,07726.4592,W,21.51,275.55,240821,,,A*42
$GPGGA,121858.250,4308.4743,N,07726.4608,W,1,05,1.93,162.9,M,-34.4,M,,*57
$GPRMC,121858.500,A,4308.4740,N,07726.4622,W,20.00,273.48,240821,,,A*45
$GPGGA,121858.750,4308.4735,N,07726.4636,W,1,05,1.93,163.0,M,-34.4,M,,*56
$GPRMC,121859.000,A,4308.4731,N,07726.4648,W,18.36,270.80,240821,,,A*42
$GPGGA,121859.250,4308.4726,N,07726.4659,W,1,05,1.93,163.1,M,-34.4,M,,*58
$GPRMC,121859.500,A,4308.4724,N,07726.4674,W,17.40,268.45,240821,,,A*42
$GPGGA,121859.750,4308.4721,N,07726.4688,W,1,05,1.92,163.3,M,-34.4,M,,*55
$GPRMC,121900.000,A,4308.4718,N,07726.4701,W,16.67,266.65,240821,,,A*4E
$GPGGA,121900.250,4308.4709,N,07726.4707,W,1,05,1.93,163.4,M,-34.4,M,,*57
$GPRMC,121900.500,A,4308.4695,N,07726.4710,W,14.75,256.96,240821,,,A*41
$GPGGA,121900.750,4308.4679,N,07726.4712,W,1,05,1.93,163.7,M,-34.4,M,,*53
$GPRMC,121901.000,A,4308.4666,N,07726.4716,W,14.20,245.10,240821,,,A*43
$GPGGA,121901.250,4308.4648,N,07726.4716,W,1,05,1.92,163.9,M,-34.4,M,,*5E
$GPRMC,121901.500,A,4308.4630,N,07726.4716,W,14.17,232.12,240821,,,A*43
$GPGGA,121901.750,4308.4612,N,07726.4717,W,1,05,1.93,164.1,M,-34.4,M,,*5B
$GPRMC,121902.000,A,4308.4595,N,07726.4718,W,15.19,221.83,240821,,,A*42
$GPGGA,121902.250,4308.4579,N,07726.4720,W,1,05,1.92,164.4,M,-34.4,M,,*53
$GPRMC,121902.500,A,4308.4562,N,07726.4723,W,16.52,216.01,240821,,,A*45
$GPGGA,121902.750,4308.4544,N,07726.4725,W,1,05,1.92,164.7,M,-34.4,M,,*5E
$GPRMC,121903.000,A,4308.4527,N,07726.4728,W,18.00,211.70,240821,,,A*43
$GPGGA,121903.250,4308.4511,N,07726.4733,W,1,05,1.92,164.9,M,-34.4,M,,*53
$GPRMC,121903.500,A,4308.4491,N,07726.4736,W,19.95,208.73,240821,,,A*43
$GPGGA,121903.750,4308.4471,N,07726.4738,W,1,05,1.93,165.3,M,-34.4,M,,*50
$GPRMC,121904.000,A,4308.4431,N,07726.4720,W,23.69,197.14,240821,,,A*42
$GPGGA,121904.250,4308.4404,N,07726.4717,W,1,05,1.92,165.3,M,-34.4,M,,*5C
$GPRMC,121904.500,A,4308.4382,N,07726.4718,W,25.91,193.54,240821,,,A*42
$GPGGA,121904.750,4308.4361,N,07726.4722,W,1,05,1.93,165.5,M,-34.4,M,,*5C
$GPRMC,121905.000,A,4308.4341,N,07726.4726,W,27.19,193.12,240821,,,A*44
$GPGGA,121905.250,4308.4320,N,07726.4730,W,1,05,1.93,165.7,M,-34.4,M,,*5C
$GPRMC,121905.500,A,4308.4299,N,07726.4735,W,28.35,193.27,240821,,,A*40
$GPGGA,121905.750,4308.4278,N,07726.4740,W,1,05,1.92,166.0,M,-34.4,M,,*57
$GPRMC,121906.000,A,4308.4257,N,07726.4746,W,29.12,193.80,240821,,,A*49
$GPGGA,121906.250,4308.4235,N,07726.4752,W,1,05,1.93,166.2,M,-34.4,M,,*58
$GPRMC,121906.500,A,4308.4213,N,07726.4758,W,29.81,194.42,240821,,,A*40
$GPGGA,121906.750,4308.4191,N,07726.4763,W,1,05,1.93,166.5,M,-34.4,M,,*55
$GPRMC,121907.000,A,4308.4169,N,07726.4769,W,30.49,193.82,240821,,,A*4F
$GPGGA,121907.250,4308.4147,N,07726.4775,W,1,05,1.93,166.8,M,-34.4,M,,*50
$GPRMC,121907.500,A,4308.4125,N,07726.4781,W,30.81,193.93,240821,,,A*40
$GPGGA,121907.750,4308.4103,N,07726.4788,W,1,05,1.93,167.0,M,-34.4,M,,*5E
$GPRMC,121908.000,A,4308.4081,N,07726.4794,W,31.03,193.92,240821,,,A*4B
$GPGGA,121908.250,4308.4060,N,07726.4802,W,1,05,1.92,167.3,M,-34.4,M,,*5F
$GPRMC,121908.500,A,4308.4038,N,07726.4809,W,31.62,193.38,240821,,,A*40
$GPGGA,121908.750,4308.4015,N,07726.4817,W,1,05,1.92,167.5,M,-34.4,M,,*5A
$GPRMC,121909.000,A,4308.3993,N,07726.4824,W,32.18,192.99,240821,,,A*40
$GPGGA,121909.250,4308.3970,N,07726.4831,W,1,05,1.92,167.7,M,-34.4,M,,*55
$GPRMC,121909.500,A,4308.3947,N,07726.4838,W,33.00,191.35,240821,,,A*4C
$GPGGA,121909.750,4308.3923,N,07726.4844,W,1,05,1.92,167.8,M,-34.4,M,,*5B
$GPRMC,121910.000,A,4308.3900,N,07726.4851,W,33.34,190.65,240821,,,A*4E
$GPGGA,121910.250,4308.3876,N,07726.4858,W,1,05,1.92,168.0,M,-34.4,M,,*5D
$GPRMC,121910.500,A,4308.3853,N,07726.4864,W,33.36,189.51,240821,,,A*47
$GPGGA,121910.750,4308.3829,N,07726.4869,W,1,05,1.92,168.2,M,-34.4,M,,*52
$GPRMC,121911.000,A,4308.3806,N,07726.4875,W,33.35,188.98,240821,,,A*44
$GPGGA,121911.250,4308.3782,N,07726.4880,W,1,05,1.74,168.4,M,-34.4,M,,*51
$GPRMC,121911.500,A,4308.3759,N,07726.4885,W,33.32,188.28,240821,,,A*47
$GPGGA,121911.750,4308.3735,N,07726.4891,W,1,05,1.92,168.7,M,-34.4,M,,*53
$GPRMC,121912.000,A,4308.3711,N,07726.4897,W,33.80,187.62,240821,,,A*46
$GPGGA,121912.250,4308.3688,N,07726.4904,W,1,05,1.92,168.9,M,-34.4,M,,*51
$GPRMC,121912.500,A,4308.3664,N,07726.4909,W,34.07,187.02,240821,,,A*48
$GPGGA,121912.750,4308.3640,N,07726.4913,W,1,05,1.92,169.2,M,-34.4,M,,*5C
$GPRMC,121913.000,A,4308.3616,N,07726.4919,W,34.13,186.50,240821,,,A*4B
$GPGGA,121913.250,4308.3592,N,07726.4924,W,1,05,1.92,169.4,M,-34.4,M,,*56
$GPRMC,121913.500,A,4308.3568,N,07726.4930,W,34.15,186.20,240821,,,A*4E
$GPGGA,121913.750,4308.3544,N,07726.4935,W,1,05,1.92,169.7,M,-34.4,M,,*5B
$GPRMC,121914.000,A,4308.3519,N,07726.4939,W,34.16,185.59,240821,,,A*4D
$GPGGA,121914.250,4308.3495,N,07726.4944,W,1,05,1.92,170.0,M,-34.4,M,,*5D
$GPRMC,121914.500,A,4308.3470,N,07726.4948,W,34.45,184.86,240821,,,A*45
$GPGGA,121914.750,4308.3446,N,07726.4953,W,1,05,1.92,170.2,M,-34.4,M,,*52
$GPRMC,121915.000,A,4308.3422,N,07726.4958,W,34.82,183.86,240821,,,A*4B
$GPGGA,121915.250,4308.3397,N,07726.4962,W,1,05,1.92,170.4,M,-34.4,M,,*59
$GPRMC,121915.500,A,4308.3372,N,07726.4965,W,34.92,182.74,240821,,,A*4F
$GPGGA,121915.750,4308.3347,N,07726.4969,W,1,05,1.92,170.6,M,-34.4,M,,*58
$GPRMC,121916.000,A,4308.3322,N,07726.4971,W,35.45,181.75,240821,,,A*40
$GPGGA,121916.250,4308.3296,N,07726.4973,W,1,05,1.74,170.9,M,-34.4,M,,*5F
$GPRMC,121916.500,A,4308.3270,N,07726.4982,W,36.91,182.56,240821,,,A*47
$GPGGA,121916.750,4308.3245,N,07726.4987,W,1,05,1.92,171.0,M,-34.4,M,,*5F
$GPRMC,121917.000,A,4308.3219,N,07726.4994,W,37.26,182.89,240821,,,A*44
$GPGGA,121917.250,4308.3193,N,07726.5000,W,1,05,1.92,171.2,M,-34.4,M,,*56
$GPRMC,121917.500,A,4308.3167,N,07726.5004,W,37.35,182.78,240821,,,A*46
$GPGGA,121917.750,4308.3141,N,07726.5006,W,1,05,1.92,171.6,M,-34.4,M,,*5E
$GPRMC,121918.000,A,4308.3115,N,07726.5008,W,37.27,181.85,240821,,,A*47
$GPGGA,121918.250,4308.3089,N,07726.5009,W,1,05,1.74,171.4,M,-34.4,M,,*54
$GPRMC,121918.500,A,4308.3062,N,07726.5011,W,37.60,180.83,240821,,,A*4F
$GPGGA,121918.750,4308.3036,N,07726.5013,W,1,05,1.92,171.6,M,-34.4,M,,*54
$GPRMC,121919.000,A,4308.3010,N,07726.5015,W,37.74,180.35,240821,,,A*42
$GPGGA,121919.250,4308.2984,N,07726.5018,W,1,05,1.92,171.9,M,-34.4,M,,*55
$GPRMC,121919.500,A,4308.2958,N,07726.5019,W,37.69,180.52,240821,,,A*42
$GPGGA,121919.750,4308.2933,N,07726.5020,W,1,05,1.92,172.2,M,-34.4,M,,*5F
$GPRMC,121920.000,A,4308.2907,N,07726.5021,W,37.63,179.88,240821,,,A*47
$GPGGA,121920.250,4308.2882,N,07726.5026,W,1,05,1.92,172.4,M,-34.4,M,,*5B
$GPRMC,121920.500,A,4308.2857,N,07726.5030,W,38.10,180.37,240821,,,A*4F
$GPGGA,121920.750,4308.2830,N,07726.5032,W,1,05,1.92,172.7,M,-34.4,M,,*51
$GPRMC,121921.000,A,4308.2804,N,07726.5034,W,38.06,180.57,240821,,,A*48
$GPGGA,121921.250,4308.2777,N,07726.5034,W,1,05,1.74,173.2,M,-34.4,M,,*53
$GPRMC,121921.500,A,4308.2750,N,07726.5036,W,38.27,180.51,240821,,,A*44
$GPGGA,121921.750,4308.2723,N,07726.5037,W,1,05,1.92,173.7,M,-34.4,M,,*59
$GPRMC,121922.000,A,4308.2696,N,07726.5037,W,38.36,180.71,240821,,,A*4A
$GPGGA,121922.250,4308.2669,N,07726.5038,W,1,05,1.92,174.3,M,-34.4,M,,*5C
$GPRMC,121922.500,A,4308.2642,N,07726.5038,W,38.82,180.75,240821,,,A*42
$GPGGA,121922.750,4308.2615,N,07726.5039,W,1,05,1.92,174.7,M,-34.4,M,,*57
$GPRMC,121923.000,A,4308.2588,N,07726.5040,W,38.86,180.90,240821,,,A*43
$GPGGA,121923.250,4308.2560,N,07726.5040,W,1,05,1.74,175.1,M,-34.4,M,,*53
$GPRMC,121923.500,A,4308.2532,N,07726.5042,W,39.03,181.29,240821,,,A*4A
$GPGGA,121923.750,4308.2505,N,07726.5043,W,1,05,1.92,175.5,M,-34.4,M,,*5A
$GPRMC,121924.000,A,4308.2477,N,07726.5044,W,39.45,181.22,240821,,,A*47
$GPGGA,121924.250,4308.2448,N,07726.5045,W,1,05,1.74,175.9,M,-34.4,M,,*52
$GPRMC,121924.500,A,4308.2420,N,07726.5046,W,40.63,180.92,240821,,,A*42
$GPGGA,121924.750,4308.2392,N,07726.5047,W,1,05,1.92,176.4,M,-34.4,M,,*53
$GPRMC,121925.000,A,4308.2365,N,07726.5047,W,40.58,180.28,240821,,,A*48
$GPGGA,121925.250,4308.2338,N,07726.5053,W,1,05,1.92,176.7,M,-34.4,M,,*51
$GPRMC,121925.500,A,4308.2311,N,07726.5058,W,39.91,181.50,240821,,,A*45
$GPGGA,121925.750,4308.2284,N,07726.5063,W,1,05,1.92,176.9,M,-34.4,M,,*5F
$GPRMC,121926.000,A,4308.2257,N,07726.5068,W,39.64,182.12,240821,,,A*4C
$GPGGA,121926.250,4308.2230,N,07726.5074,W,1,05,1.74,177.2,M,-34.4,M,,*52
$GPRMC,121926.500,A,4308.2204,N,07726.5081,W,38.92,182.59,240821,,,A*4F
$GPGGA,121926.750,4308.2178,N,07726.5085,W,1,05,1.92,177.4,M,-34.4,M,,*58
$GPRMC,121927.000,A,4308.2151,N,07726.5090,W,38.95,182.72,240821,,,A*46
$GPGGA,121927.250,4308.2125,N,07726.5097,W,1,05,1.74,177.6,M,-34.4,M,,*5D
$GPRMC,121927.500,A,4308.2099,N,07726.5101,W,38.69,182.55,240821,,,A*49
$GPGGA,121927.750,4308.2073,N,07726.5103,W,1,05,1.92,178.0,M,-34.4,M,,*57
$GPRMC,121928.000,A,4308.2047,N,07726.5105,W,37.94,182.66,240821,,,A*49
$GPGGA,121928.250,4308.2021,N,07726.5110,W,1,05,1.74,178.3,M,-34.4,M,,*53
$GPRMC,121928.500,A,4308.1995,N,07726.5115,W,37.72,183.11,240821,,,A*41
$GPGGA,121928.750,4308.1970,N,07726.5118,W,1,05,1.92,178.6,M,-34.4,M,,*5D
$GPRMC,121929.000,A,4308.1944,N,07726.5122,W,37.58,183.00,240821,,,A*45
$GPGGA,121929.250,4308.1919,N,07726.5126,W,1,05,1.74,178.7,M,-34.4,M,,*52
$GPRMC,121929.500,A,4308.1895,N,07726.5129,W,37.49,182.34,240821,,,A*40
$GPGGA,121929.750,4308.1871,N,07726.5130,W,1,05,1.92,178.8,M,-34.4,M,,*58
$GPRMC,121930.000,A,4308.1846,N,07726.5131,W,37.34,181.76,240821,,,A*45
$GPGGA,121930.250,4308.1822,N,07726.5136,W,1,05,1.92,178.8,M,-34.4,M,,*55
$GPRMC,121930.500,A,4308.1799,N,07726.5140,W,37.18,182.85,240821,,,A*4A
$GPGGA,121930.750,4308.1775,N,07726.5144,W,1,05,1.92,178.9,M,-34.4,M,,*59
$GPRMC,121931.000,A,4308.1751,N,07726.5147,W,36.99,182.72,240821,,,A*4D
$GPGGA,121931.250,4308.1727,N,07726.5150,W,1,05,1.92,179.0,M,-34.4,M,,*57
$GPRMC,121931.500,A,4308.1703,N,07726.5155,W,35.77,182.73,240821,,,A*4E
$GPGGA,121931.750,4308.1679,N,07726.5158,W,1,05,1.92,179.0,M,-34.4,M,,*50
$GPRMC,121932.000,A,4308.1655,N,07726.5162,W,35.64,182.51,240821,,,A*4C
$GPGGA,121932.250,4308.1631,N,07726.5164,W,1,05,1.92,179.1,M,-34.4,M,,*54
$GPRMC,121932.500,A,4308.1607,N,07726.5165,W,35.26,181.76,240821,,,A*49
$GPGGA,121932.750,4308.1583,N,07726.5167,W,1,05,1.92,179.2,M,-34.4,M,,*5B
$GPRMC,121933.000,A,4308.1559,N,07726.5170,W,35.18,181.72,240821,,,A*48
$GPGGA,121933.250,4308.1535,N,07726.5172,W,1,05,1.92,179.3,M,-34.4,M,,*57
$GPRMC,121933.500,A,4308.1511,N,07726.5174,W,34.93,181.91,240821,,,A*4A
$GPGGA,121933.750,4308.1488,N,07726.5178,W,1,05,1.92,179.3,M,-34.4,M,,*5F
$GPRMC,121934.000,A,4308.1464,N,07726.5179,W,34.52,181.77,240821,,,A*43
$GPGGA,121934.250,4308.1440,N,07726.5182,W,1,05,1.92,179.3,M,-34.4,M,,*5C
$GPRMC,121934.500,A,4308.1417,N,07726.5184,W,34.01,181.76,240821,,,A*47
$GPGGA,121934.750,4308.1394,N,07726.5186,W,1,05,1.92,179.2,M,-34.4,M,,*52
$GPRMC,121935.000,A,4308.1371,N,07726.5187,W,33.77,181.77,240821,,,A*40
$GPGGA,121935.250,4308.1348,N,07726.5189,W,1,05,1.92,179.2,M,-34.4,M,,*58
$GPRMC,121935.500,A,4308.1325,N,07726.5191,W,33.54,181.74,240821,,,A*41
$GPGGA,121935.750,4308.1302,N,07726.5191,W,1,05,1.92,179.1,M,-34.4,M,,*59
$GPRMC,121936.000,A,4308.1279,N,07726.5192,W,33.32,181.02,240821,,,A*4D
$GPGGA,121936.250,4308.1255,N,07726.5192,W,1,05,1.92,179.1,M,-34.4,M,,*5F
$GPRMC,121936.500,A,4308.1232,N,07726.5193,W,33.20,180.77,240821,,,A*46
$GPGGA,121936.750,4308.1209,N,07726.5193,W,1,05,1.92,179.1,M,-34.4,M,,*52
$GPRMC,121937.000,A,4308.1185,N,07726.5194,W,33.13,181.38,240821,,,A*40
$GPGGA,121937.250,4308.1162,N,07726.5196,W,1,05,1.74,179.1,M,-34.4,M,,*55
$GPRMC,121937.500,A,4308.1139,N,07726.5198,W,33.16,182.62,240821,,,A*47
$GPGGA,121937.750,4308.1116,N,07726.5201,W,1,05,1.92,179.2,M,-34.4,M,,*55
$GPRMC,121938.000,A,4308.1093,N,07726.5203,W,33.21,183.55,240821,,,A*4C
$GPGGA,121938.250,4308.1070,N,07726.5205,W,1,05,1.74,179.2,M,-34.4,M,,*52
$GPRMC,121938.500,A,4308.1047,N,07726.5209,W,33.19,184.87,240821,,,A*49
$GPGGA,121938.750,4308.1025,N,07726.5212,W,1,05,1.92,179.1,M,-34.4,M,,*5A
$GPRMC,121939.000,A,4308.1003,N,07726.5215,W,33.10,185.67,240821,,,A*46
$GPGGA,121939.250,4308.0981,N,07726.5219,W,1,05,1.92,179.0,M,-34.4,M,,*52
$GPRMC,121939.500,A,4308.0959,N,07726.5223,W,32.92,185.96,240821,,,A*44
$GPGGA,121939.750,4308.0938,N,07726.5227,W,1,05,1.92,179.0,M,-34.4,M,,*58
$GPRMC,121940.000,A,4308.0915,N,07726.5231,W,31.00,183.59,240821,,,A*49
$GPGGA,121940.250,4308.0893,N,07726.5233,W,1,05,1.73,178.9,M,-34.4,M,,*51
$GPRMC,121940.500,A,4308.0872,N,07726.5234,W,31.06,181.71,240821,,,A*47
$GPGGA,121940.750,4308.0851,N,07726.5235,W,1,05,1.92,178.5,M,-34.4,M,,*5F
$GPRMC,121941.000,A,4308.0829,N,07726.5235,W,31.33,180.45,240821,,,A*4C
$GPGGA,121941.250,4308.0807,N,07726.5235,W,1,05,1.74,178.2,M,-34.4,M,,*57
$GPRMC,121941.500,A,4308.0786,N,07726.5234,W,31.79,179.05,240821,,,A*4E
$GPGGA,121941.750,4308.0764,N,07726.5233,W,1,05,1.92,177.9,M,-34.4,M,,*52
$GPRMC,121942.000,A,4308.0741,N,07726.5232,W,32.10,178.19,240821,,,A*45
$GPGGA,121942.250,4308.0719,N,07726.5231,W,1,05,1.92,177.5,M,-34.4,M,,*50
$GPRMC,121942.500,A,4308.0696,N,07726.5229,W,32.41,177.13,240821,,,A*40
$GPGGA,121942.750,4308.0673,N,07726.5227,W,1,05,1.92,177.2,M,-34.4,M,,*58
$GPRMC,121943.000,A,4308.0651,N,07726.5226,W,32.98,177.32,240821,,,A*47
$GPGGA,121943.250,4308.0628,N,07726.5224,W,1,05,1.92,177.0,M,-34.4,M,,*53
$GPRMC,121943.500,A,4308.0606,N,07726.5222,W,32.99,177.19,240821,,,A*4C
$GPGGA,121943.750,4308.0583,N,07726.5221,W,1,05,1.92,176.7,M,-34.4,M,,*57
$GPRMC,121944.000,A,4308.0560,N,07726.5219,W,33.01,176.83,240821,,,A*47
$GPGGA,121944.250,4308.0537,N,07726.5217,W,1,05,1.92,176.4,M,-34.4,M,,*5C
$GPRMC,121944.500,A,4308.0514,N,07726.5215,W,33.24,176.39,240821,,,A*4B
$GPGGA,121944.750,4308.0491,N,07726.5212,W,1,05,1.92,176.1,M,-34.4,M,,*54
$GPRMC,121945.000,A,4308.0468,N,07726.5210,W,33.43,176.21,240821,,,A*48
$GPGGA,121945.250,4308.0445,N,07726.5208,W,1,05,1.92,175.9,M,-34.4,M,,*59
$GPRMC,121945.500,A,4308.0422,N,07726.5205,W,33.40,175.67,240821,,,A*45
$GPGGA,121945.750,4308.0399,N,07726.5203,W,1,05,1.92,175.7,M,-34.4,M,,*5F
$GPRMC,121946.000,A,4308.0376,N,07726.5200,W,33.31,175.61,240821,,,A*40
$GPGGA,121946.250,4308.0353,N,07726.5197,W,1,05,1.92,175.6,M,-34.4,M,,*50
$GPRMC,121946.500,A,4308.0331,N,07726.5195,W,33.26,175.51,240821,,,A*4C
$GPGGA,121946.750,4308.0308,N,07726.5193,W,1,05,1.92,175.5,M,-34.3,M,,*5B
$GPRMC,121947.000,A,4308.0285,N,07726.5190,W,33.19,175.24,240821,,,A*4D
$GPGGA,121947.250,4308.0262,N,07726.5187,W,1,05,1.92,175.3,M,-34.3,M,,*51
$GPRMC,121947.500,A,4308.0239,N,07726.5185,W,33.22,174.96,240821,,,A*4B
$GPGGA,121947.750,4308.0216,N,07726.5182,W,1,05,1.92,175.2,M,-34.3,M,,*53
$GPRMC,121948.000,A,4308.0193,N,07726.5180,W,33.39,174.79,240821,,,A*4C
$GPGGA,121948.250,4308.0169,N,07726.5176,W,1,05,1.92,175.2,M,-34.3,M,,*59
$GPRMC,121948.500,A,4308.0146,N,07726.5172,W,33.50,174.09,240821,,,A*44
$GPGGA,121948.750,4308.0123,N,07726.5169,W,1,05,1.92,175.0,M,-34.3,M,,*5E
$GPRMC,121949.000,A,4308.0100,N,07726.5165,W,33.39,173.38,240821,,,A*4E
$GPGGA,121949.250,4308.0077,N,07726.5161,W,1,05,1.92,175.0,M,-34.3,M,,*52
$GPRMC,121949.500,A,4308.0055,N,07726.5157,W,33.39,172.96,240821,,,A*4E
$GPGGA,121949.750,4308.0033,N,07726.5153,W,1,05,1.92,174.8,M,-34.3,M,,*5F
$GPRMC,121950.000,A,4308.0010,N,07726.5149,W,33.28,172.55,240821,,,A*42
$GPGGA,121950.250,4307.9988,N,07726.5145,W,1,05,1.92,174.6,M,-34.3,M,,*54
$GPRMC,121950.500,A,4307.9966,N,07726.5141,W,32.50,172.32,240821,,,A*4E
$GPGGA,121950.750,4307.9944,N,07726.5137,W,1,05,1.91,174.5,M,-34.3,M,,*54
$GPRMC,121951.000,A,4307.9922,N,07726.5133,W,32.21,172.26,240821,,,A*4C
$GPGGA,121951.250,4307.9901,N,07726.5129,W,1,05,1.92,174.3,M,-34.3,M,,*5B
$GPRMC,121951.500,A,4307.9880,N,07726.5125,W,31.68,171.69,240821,,,A*41
$GPGGA,121951.750,4307.9859,N,07726.5122,W,1,05,1.92,174.0,M,-34.3,M,,*5A
$GPRMC,121952.000,A,4307.9838,N,07726.5117,W,31.60,171.43,240821,,,A*45
$GPGGA,121952.250,4307.9817,N,07726.5113,W,1,05,1.92,173.8,M,-34.3,M,,*5B
$GPRMC,121952.500,A,4307.9796,N,07726.5108,W,30.80,171.05,240821,,,A*48
$GPGGA,121952.750,4307.9776,N,07726.5104,W,1,05,1.92,173.6,M,-34.3,M,,*5E
$GPRMC,121953.000,A,4307.9755,N,07726.5099,W,30.70,170.95,240821,,,A*4D
$GPGGA,121953.250,4307.9734,N,07726.5094,W,1,05,1.92,173.4,M,-34.3,M,,*56
$GPRMC,121953.500,A,4307.9714,N,07726.5089,W,30.63,170.95,240821,,,A*4E
$GPGGA,121953.750,4307.9693,N,07726.5085,W,1,05,1.91,173.3,M,-34.3,M,,*5B
$GPRMC,121954.000,A,4307.9672,N,07726.5080,W,30.58,171.33,240821,,,A*41
$GPGGA,121954.250,4307.9650,N,07726.5076,W,1,05,1.92,173.3,M,-34.3,M,,*59
$GPRMC,121954.500,A,4307.9629,N,07726.5071,W,30.84,172.10,240821,,,A*47
$GPGGA,121954.750,4307.9607,N,07726.5066,W,1,05,1.92,173.3,M,-34.3,M,,*5F
$GPRMC,121955.000,A,4307.9585,N,07726.5061,W,30.87,172.19,240821,,,A*4D
$GPGGA,121955.250,4307.9562,N,07726.5056,W,1,05,1.92,173.1,M,-34.3,M,,*5A
$GPRMC,121955.500,A,4307.9540,N,07726.5051,W,31.52,172.69,240821,,,A*4C
$GPGGA,121955.750,4307.9516,N,07726.5045,W,1,05,1.91,172.9,M,-34.3,M,,*54
$GPRMC,121956.000,A,4307.9493,N,07726.5040,W,31.65,172.82,240821,,,A*44
$GPGGA,121956.250,4307.9468,N,07726.5035,W,1,05,1.91,172.7,M,-34.3,M,,*53
$GPRMC,121956.500,A,4307.9444,N,07726.5029,W,31.96,173.31,240821,,,A*41
$GPGGA,121956.750,4307.9419,N,07726.5024,W,1,05,1.91,172.3,M,-34.3,M,,*54
$GPRMC,121957.000,A,4307.9395,N,07726.5019,W,32.19,173.91,240821,,,A*43
$GPGGA,121957.250,4307.9370,N,07726.5014,W,1,05,1.91,172.1,M,-34.3,M,,*59
$GPRMC,121957.500,A,4307.9344,N,07726.5009,W,33.87,174.47,240821,,,A*41
$GPGGA,121957.750,4307.9320,N,07726.5004,W,1,05,1.91,171.9,M,-34.3,M,,*53
$GPRMC,121958.000,A,4307.9295,N,07726.4999,W,34.12,174.09,240821,,,A*46
$GPGGA,121958.250,4307.9270,N,07726.4995,W,1,05,1.91,171.7,M,-34.3,M,,*53
$GPRMC,121958.500,A,4307.9244,N,07726.4988,W,34.19,173.71,240821,,,A*4C
$GPGGA,121958.750,4307.9219,N,07726.4983,W,1,05,1.91,171.3,M,-34.3,M,,*5A
$GPRMC,121959.000,A,4307.9193,N,07726.4977,W,34.39,173.55,240821,,,A*45
$GPGGA,121959.250,4307.9166,N,07726.4971,W,1,05,1.91,171.1,M,-34.3,M,,*5A
$GPRMC,121959.500,A,4307.9140,N,07726.4965,W,34.71,173.52,240821,,,A*46
$GPGGA,121959.750,4307.9114,N,07726.4959,W,1,05,1.91,170.8,M,-34.3,M,,*58
$GPRMC,122000.000,A,4307.9088,N,07726.4953,W,34.66,173.02,240821,,,A*46
$GPGGA,122000.250,4307.9063,N,07726.4947,W,1,05,1.91,170.5,M,-34.3,M,,*58
$GPRMC,122000.500,A,4307.9039,N,07726.4942,W,34.64,172.43,240821,,,A*4F
$GPGGA,122000.750,4307.9017,N,07726.4938,W,1,05,1.91,170.2,M,-34.3,M,,*51
$GPRMC,122001.000,A,4307.8994,N,07726.4934,W,32.54,171.97,240821,,,A*4A
$GPGGA,122001.250,4307.8973,N,07726.4929,W,1,05,1.91,170.0,M,-34.3,M,,*5D
$GPRMC,122001.500,A,4307.8952,N,07726.4926,W,31.29,172.13,240821,,,A*40
$GPGGA,122001.750,4307.8932,N,07726.4923,W,1,05,1.91,169.9,M,-34.3,M,,*56
$GPRMC,122002.000,A,4307.8911,N,07726.4919,W,30.39,172.79,240821,,,A*41
$GPGGA,122002.250,4307.8891,N,07726.4916,W,1,05,1.91,169.8,M,-34.3,M,,*5F
$GPRMC,122002.500,A,4307.8871,N,07726.4913,W,29.90,173.70,240821,,,A*4A
$GPGGA,122002.750,4307.8851,N,07726.4911,W,1,05,1.92,169.7,M,-34.3,M,,*5D
$GPRMC,122003.000,A,4307.8830,N,07726.4908,W,29.20,174.69,240821,,,A*45
$GPGGA,122003.250,4307.8810,N,07726.4905,W,1,05,1.91,169.5,M,-34.3,M,,*58
$GPRMC,122003.500,A,4307.8790,N,07726.4902,W,28.98,175.61,240821,,,A*44
$GPGGA,122003.750,4307.8769,N,07726.4899,W,1,05,1.91,169.2,M,-34.3,M,,*5F
$GPRMC,122004.000,A,4307.8746,N,07726.4894,W,28.89,176.61,240821,,,A*40
$GPGGA,122004.250,4307.8723,N,07726.4890,W,1,05,1.91,168.9,M,-34.3,M,,*50
$GPRMC,122004.500,A,4307.8700,N,07726.4885,W,29.35,176.99,240821,,,A*46
$GPGGA,122004.750,4307.8675,N,07726.4878,W,1,05,1.91,168.6,M,-34.3,M,,*5E
$GPRMC,122005.000,A,4307.8652,N,07726.4874,W,29.98,176.77,240821,,,A*4D
$GPGGA,122005.250,4307.8631,N,07726.4871,W,1,05,1.73,168.3,M,-34.3,M,,*5A
$GPRMC,122005.500,A,4307.8609,N,07726.4869,W,30.40,177.23,240821,,,A*47
$GPGGA,122005.750,4307.8587,N,07726.4866,W,1,05,1.91,168.1,M,-34.3,M,,*59
$GPRMC,122006.000,A,4307.8566,N,07726.4865,W,30.61,177.38,240821,,,A*4E
$GPGGA,122006.250,4307.8545,N,07726.4863,W,1,05,1.91,167.9,M,-34.3,M,,*53
$GPRMC,122006.500,A,4307.8523,N,07726.4861,W,30.90,177.31,240821,,,A*49
$GPGGA,122006.750,4307.8502,N,07726.4859,W,1,05,1.91,167.9,M,-34.3,M,,*5C
$GPRMC,122007.000,A,4307.8480,N,07726.4857,W,30.89,176.87,240821,,,A*44
$GPGGA,122007.250,4307.8459,N,07726.4855,W,1,05,1.91,167.8,M,-34.3,M,,*5A
$GPRMC,122007.500,A,4307.8437,N,07726.4852,W,30.89,177.36,240821,,,A*43
$GPGGA,122007.750,4307.8415,N,07726.4850,W,1,05,1.91,167.8,M,-34.3,M,,*52
$GPRMC,122008.000,A,4307.8394,N,07726.4848,W,30.75,177.73,240821,,,A*4E
$GPGGA,122008.250,4307.8374,N,07726.4847,W,1,05,1.91,167.8,M,-34.3,M,,*5E
$GPRMC,122008.500,A,4307.8354,N,07726.4846,W,30.58,177.99,240821,,,A*42
$GPGGA,122008.750,4307.8333,N,07726.4845,W,1,05,1.91,167.7,M,-34.3,M,,*55
$GPRMC,122009.000,A,4307.8313,N,07726.4844,W,30.36,177.80,240821,,,A*47
$GPGGA,122009.250,4307.8294,N,07726.4843,W,1,05,1.91,167.7,M,-34.3,M,,*5B
$GPRMC,122009.500,A,4307.8274,N,07726.4842,W,30.12,177.56,240821,,,A*49
$GPGGA,122009.750,4307.8256,N,07726.4842,W,1,05,1.91,167.7,M,-34.3,M,,*51
$GPRMC,122010.000,A,4307.8237,N,07726.4841,W,28.35,177.26,240821,,,A*4B
$GPGGA,122010.250,4307.8219,N,07726.4841,W,1,05,1.91,167.8,M,-34.3,M,,*5B
$GPRMC,122010.500,A,4307.8201,N,07726.4842,W,27.93,178.20,240821,,,A*42
$GPGGA,122010.750,4307.8183,N,07726.4843,W,1,05,1.91,167.8,M,-34.3,M,,*5C
$GPRMC,122011.000,A,4307.8165,N,07726.4844,W,27.33,179.62,240821,,,A*4C
$GPGGA,122011.250,4307.8147,N,07726.4845,W,1,05,1.91,167.9,M,-34.3,M,,*57
$GPRMC,122011.500,A,4307.8129,N,07726.4845,W,26.68,179.68,240821,,,A*45
$GPGGA,122011.750,4307.8111,N,07726.4846,W,1,05,1.91,168.0,M,-34.3,M,,*54
$GPRMC,122012.000,A,4307.8094,N,07726.4846,W,26.21,179.54,240821,,,A*45
$GPGGA,122012.250,4307.8076,N,07726.4846,W,1,05,1.91,168.1,M,-34.3,M,,*53
$GPRMC,122012.500,A,4307.8059,N,07726.4846,W,25.86,179.48,240821,,,A*42
$GPGGA,122012.750,4307.8041,N,07726.4846,W,1,05,1.91,168.3,M,-34.3,M,,*50
$GPRMC,122013.000,A,4307.8024,N,07726.4846,W,25.57,179.52,240821,,,A*4B
$GPGGA,122013.250,4307.8007,N,07726.4847,W,1,05,1.91,168.4,M,-34.3,M,,*50
$GPRMC,122013.500,A,4307.7990,N,07726.4848,W,24.86,180.40,240821,,,A*41
$GPGGA,122013.750,4307.7973,N,07726.4850,W,1,05,1.91,168.4,M,-34.3,M,,*56
$GPRMC,122014.000,A,4307.7958,N,07726.4851,W,23.92,179.85,240821,,,A*42
$GPGGA,122014.250,4307.7943,N,07726.4852,W,1,05,1.91,168.5,M,-34.3,M,,*54
$GPRMC,122014.500,A,4307.7930,N,07726.4854,W,21.95,179.46,240821,,,A*46
$GPGGA,122014.750,4307.7917,N,07726.4855,W,1,05,1.91,168.7,M,-34.3,M,,*55
$GPRMC,122015.000,A,4307.7903,N,07726.4855,W,20.39,179.57,240821,,,A*44
$GPGGA,122015.250,4307.7890,N,07726.4857,W,1,05,1.91,168.8,M,-34.3,M,,*52
$GPRMC,122015.500,A,4307.7878,N,07726.4858,W,18.55,182.13,240821,,,A*44
$GPGGA,122015.750,4307.7866,N,07726.4860,W,1,05,1.91,168.8,M,-34.3,M,,*5A
$GPRMC,122016.000,A,4307.7855,N,07726.4862,W,17.22,185.48,240821,,,A*42
$GPGGA,122016.250,4307.7844,N,07726.4865,W,1,05,1.91,168.8,M,-34.3,M,,*59
$GPRMC,122016.500,A,4307.7833,N,07726.4868,W,16.90,188.11,240821,,,A*44
$GPGGA,122016.750,4307.7823,N,07726.4873,W,1,05,1.91,168.9,M,-34.3,M,,*5B
$GPRMC,122017.000,A,4307.7814,N,07726.4878,W,15.20,194.96,240821,,,A*4E
$GPGGA,122017.250,4307.7806,N,07726.4884,W,1,05,1.91,169.0,M,-34.3,M,,*58
$GPRMC,122017.500,A,4307.7799,N,07726.4891,W,13.67,204.19,240821,,,A*4E
$GPGGA,122017.750,4307.7792,N,07726.4898,W,1,05,1.91,168.9,M,-34.3,M,,*5A
$GPRMC,122018.000,A,4307.7783,N,07726.4904,W,13.70,206.71,240821,,,A*48
$GPGGA,122018.250,4307.7775,N,07726.4910,W,1,05,1.91,168.8,M,-34.3,M,,*59
$GPRMC,122018.500,A,4307.7768,N,07726.4917,W,13.54,209.14,240821,,,A*40
$GPGGA,122018.750,4307.7762,N,07726.4924,W,1,05,1.91,168.8,M,-34.3,M,,*5D
$GPRMC,122019.000,A,4307.7755,N,07726.4932,W,13.25,211.55,240821,,,A*47
$GPGGA,122019.250,4307.7748,N,07726.4943,W,1,05,1.91,168.7,M,-34.3,M,,*5F
$GPRMC,122019.500,A,4307.7742,N,07726.4953,W,14.01,216.89,240821,,,A*44
$GPGGA,122019.750,4307.7736,N,07726.4964,W,1,05,1.91,168.8,M,-34.3,M,,*59
$GPRMC,122020.000,A,4307.7730,N,07726.4973,W,14.00,219.18,240821,,,A*4A
$GPGGA,122020.250,4307.7724,N,07726.4984,W,1,05,1.72,168.9,M,-34.3,M,,*57
$GPRMC,122020.500,A,4307.7720,N,07726.4996,W,13.68,222.71,240821,,,A*4B
$GPGGA,122020.750,4307.7717,N,07726.5008,W,1,05,1.91,168.9,M,-34.3,M,,*53
$GPRMC,122021.000,A,4307.7725,N,07726.5033,W,13.49,241.57,240821,,,A*4F
$GPGGA,122021.250,4307.7725,N,07726.5049,W,1,05,1.91,169.0,M,-34.3,M,,*5B
$GPRMC,122021.500,A,4307.7734,N,07726.5075,W,15.39,258.15,240821,,,A*47
$GPGGA,122021.750,4307.7740,N,07726.5099,W,1,05,1.91,169.1,M,-34.3,M,,*51
$GPRMC,122022.000,A,4307.7741,N,07726.5120,W,17.45,265.12,240821,,,A*42
$GPGGA,122022.250,4307.7743,N,07726.5143,W,1,05,1.91,169.0,M,-34.3,M,,*53
$GPRMC,122022.500,A,4307.7744,N,07726.5165,W,19.30,266.08,240821,,,A*47
$GPGGA,122022.750,4307.7745,N,07726.5186,W,1,05,1.91,169.0,M,-34.3,M,,*59
$GPRMC,122023.000,A,4307.7746,N,07726.5208,W,20.20,266.66,240821,,,A*4A
$GPGGA,122023.250,4307.7747,N,07726.5230,W,1,05,1.91,169.1,M,-34.3,M,,*50
$GPRMC,122023.500,A,4307.7749,N,07726.5252,W,20.81,267.81,240821,,,A*4C
$GPGGA,122023.750,4307.7751,N,07726.5275,W,1,05,1.91,169.2,M,-34.3,M,,*50
$GPRMC,122024.000,A,4307.7752,N,07726.5297,W,21.05,269.07,240821,,,A*40
$GPGGA,122024.250,4307.7754,N,07726.5319,W,1,05,1.91,169.3,M,-34.3,M,,*5D
$GPRMC,122024.500,A,4307.7756,N,07726.5340,W,20.96,270.29,240821,,,A*45
$GPGGA,122024.750,4307.7758,N,07726.5362,W,1,05,1.91,169.3,M,-34.3,M,,*58
$GPRMC,122025.000,A,4307.7759,N,07726.5383,W,20.91,270.81,240821,,,A*44
$GPGGA,122025.250,4307.7761,N,07726.5404,W,1,05,1.91,169.4,M,-34.3,M,,*56
$GPRMC,122025.500,A,4307.7762,N,07726.5426,W,21.13,271.18,240821,,,A*4B
$GPGGA,122025.750,4307.7764,N,07726.5448,W,1,05,1.91,169.5,M,-34.3,M,,*5F
$GPRMC,122026.000,A,4307.7766,N,07726.5470,W,21.20,271.57,240821,,,A*41
$GPGGA,122026.250,4307.7769,N,07726.5492,W,1,05,1.91,169.6,M,-34.3,M,,*50
$GPRMC,122026.500,A,4307.7771,N,07726.5515,W,21.18,272.33,240821,,,A*4A
$GPGGA,122026.750,4307.7773,N,07726.5536,W,1,05,1.91,169.7,M,-34.3,M,,*50
$GPRMC,122027.000,A,4307.7775,N,07726.5558,W,21.18,272.12,240821,,,A*40
$GPGGA,122027.250,4307.7776,N,07726.5579,W,1,05,1.91,169.8,M,-34.3,M,,*55
$GPRMC,122027.500,A,4307.7777,N,07726.5600,W,21.09,271.32,240821,,,A*48
$GPGGA,122027.750,4307.7778,N,07726.5621,W,1,05,1.91,169.9,M,-34.3,M,,*51
$GPRMC,122028.000,A,4307.7779,N,07726.5641,W,20.99,271.23,240821,,,A*41
$GPGGA,122028.250,4307.7781,N,07726.5662,W,1,05,1.91,169.9,M,-34.3,M,,*5A
$GPRMC,122028.500,A,4307.7782,N,07726.5682,W,20.52,271.88,240821,,,A*49
$GPGGA,122028.750,4307.7784,N,07726.5701,W,1,05,1.91,170.0,M,-34.3,M,,*5F
$GPRMC,122029.000,A,4307.7786,N,07726.5721,W,20.24,272.07,240821,,,A*44
$GPGGA,122029.250,4307.7787,N,07726.5741,W,1,05,1.91,170.1,M,-34.3,M,,*5D
$GPRMC,122029.500,A,4307.7789,N,07726.5762,W,19.97,271.91,240821,,,A*47
$GPGGA,122029.750,4307.7791,N,07726.5782,W,1,05,1.91,170.2,M,-34.3,M,,*53
$GPRMC,122030.000,A,4307.7793,N,07726.5803,W,19.90,272.46,240821,,,A*47
$GPGGA,122030.250,4307.7795,N,07726.5823,W,1,05,1.91,170.3,M,-34.3,M,,*5F
$GPRMC,122030.500,A,4307.7797,N,07726.5843,W,19.76,272.14,240821,,,A*4D
$GPGGA,122030.750,4307.7798,N,07726.5863,W,1,05,1.91,170.4,M,-34.3,M,,*54
$GPRMC,122031.000,A,4307.7799,N,07726.5882,W,19.73,271.64,240821,,,A*4B
$GPGGA,122031.250,4307.7800,N,07726.5902,W,1,05,1.91,170.5,M,-34.3,M,,*59
$GPRMC,122031.500,A,4307.7800,N,07726.5921,W,19.75,271.14,240821,,,A*48
$GPGGA,122031.750,4307.7801,N,07726.5941,W,1,05,1.91,170.6,M,-34.3,M,,*59
$GPRMC,122032.000,A,4307.7801,N,07726.5960,W,19.73,270.70,240821,,,A*4F
$GPGGA,122032.250,4307.7802,N,07726.5979,W,1,05,1.91,170.7,M,-34.3,M,,*56
$GPRMC,122032.500,A,4307.7803,N,07726.5998,W,19.66,270.55,240821,,,A*4C
$GPGGA,122032.750,4307.7803,N,07726.6017,W,1,05,1.91,170.8,M,-34.3,M,,*5F
$GPRMC,122033.000,A,4307.7804,N,07726.6036,W,19.61,270.61,240821,,,A*41
$GPGGA,122033.250,4307.7804,N,07726.6056,W,1,05,1.72,170.9,M,-34.3,M,,*55
$GPRMC,122033.500,A,4307.7805,N,07726.6075,W,19.65,270.74,240821,,,A*42
$GPGGA,122033.750,4307.7806,N,07726.6095,W,1,05,1.91,171.0,M,-34.3,M,,*58
$GPRMC,122034.000,A,4307.7807,N,07726.6113,W,19.50,271.92,240821,,,A*4C
$GPGGA,122034.250,4307.7808,N,07726.6132,W,1,05,1.91,171.1,M,-34.3,M,,*59
$GPRMC,122034.500,A,4307.7809,N,07726.6151,W,19.41,271.93,240821,,,A*40
$GPGGA,122034.750,4307.7809,N,07726.6170,W,1,05,1.91,171.3,M,-34.3,M,,*59
$GPRMC,122035.000,A,4307.7809,N,07726.6189,W,19.47,271.37,240821,,,A*49
$GPGGA,122035.250,4307.7809,N,07726.6208,W,1,05,1.91,171.4,M,-34.3,M,,*56
$GPRMC,122035.500,A,4307.7810,N,07726.6227,W,19.70,270.80,240821,,,A*4A
$GPGGA,122035.750,4307.7810,N,07726.6247,W,1,05,1.90,171.6,M,-34.3,M,,*53
$GPRMC,122036.000,A,4307.7811,N,07726.6266,W,19.69,271.05,240821,,,A*4C
$GPGGA,122036.250,4307.7811,N,07726.6286,W,1,05,1.90,171.7,M,-34.3,M,,*58
$GPRMC,122036.500,A,4307.7812,N,07726.6305,W,19.65,270.95,240821,,,A*4A
$GPGGA,122036.750,4307.7813,N,07726.6326,W,1,05,1.91,171.8,M,-34.3,M,,*5A
$GPRMC,122037.000,A,4307.7814,N,07726.6346,W,19.60,271.60,240821,,,A*41
$GPGGA,122037.250,4307.7816,N,07726.6366,W,1,05,1.91,172.0,M,-34.3,M,,*54
$GPRMC,122037.500,A,4307.7817,N,07726.6386,W,19.38,272.45,240821,,,A*42
$GPGGA,122037.750,4307.7818,N,07726.6406,W,1,05,1.91,172.1,M,-34.3,M,,*5F
$GPRMC,122038.000,A,4307.7820,N,07726.6426,W,19.42,272.71,240821,,,A*4B
$GPGGA,122038.250,4307.7820,N,07726.6446,W,1,05,1.91,172.2,M,-34.3,M,,*59
$GPRMC,122038.500,A,4307.7821,N,07726.6467,W,19.65,271.76,240821,,,A*4B
$GPGGA,122038.750,4307.7821,N,07726.6487,W,1,05,1.91,172.4,M,-34.3,M,,*56
$GPRMC,122039.000,A,4307.7822,N,07726.6507,W,19.65,271.05,240821,,,A*4F
$GPGGA,122039.250,4307.7822,N,07726.6527,W,1,05,1.91,172.5,M,-34.3,M,,*5B
$GPRMC,122039.500,A,4307.7823,N,07726.6547,W,19.68,270.84,240821,,,A*4A
$GPGGA,122039.750,4307.7824,N,07726.6567,W,1,05,1.72,172.7,M,-34.3,M,,*53
$GPRMC,122040.000,A,4307.7825,N,07726.6587,W,19.50,271.79,240821,,,A*43
$GPGGA,122040.250,4307.7825,N,07726.6607,W,1,05,1.90,172.8,M,-34.3,M,,*5F
$GPRMC,122040.500,A,4307.7826,N,07726.6626,W,19.24,271.66,240821,,,A*40
$GPGGA,122040.750,4307.7826,N,07726.6646,W,1,05,1.91,173.0,M,-34.3,M,,*54
$GPRMC,122041.000,A,4307.7826,N,07726.6665,W,19.21,271.43,240821,,,A*41
$GPGGA,122041.250,4307.7827,N,07726.6684,W,1,05,1.91,173.1,M,-34.3,M,,*5E
$GPRMC,122041.500,A,4307.7827,N,07726.6702,W,18.63,272.31,240821,,,A*44
$GPGGA,122041.750,4307.7828,N,07726.6720,W,1,05,1.90,173.2,M,-34.3,M,,*59
$GPRMC,122042.000,A,4307.7829,N,07726.6739,W,18.29,273.31,240821,,,A*4B
$GPGGA,122042.250,4307.7829,N,07726.6758,W,1,05,1.90,173.2,M,-34.3,M,,*51
$GPRMC,122042.500,A,4307.7830,N,07726.6777,W,18.34,272.79,240821,,,A*4D
$GPGGA,122042.750,4307.7830,N,07726.6795,W,1,05,1.90,173.3,M,-34.3,M,,*5C
$GPRMC,122043.000,A,4307.7831,N,07726.6813,W,18.31,272.28,240821,,,A*44
$GPGGA,122043.250,4307.7831,N,07726.6832,W,1,05,1.90,173.3,M,-34.3,M,,*5B
$GPRMC,122043.500,A,4307.7831,N,07726.6849,W,18.33,271.47,240821,,,A*46
$GPGGA,122043.750,4307.7831,N,07726.6866,W,1,05,1.91,173.4,M,-34.3,M,,*59
$GPRMC,122044.000,A,4307.7832,N,07726.6883,W,18.34,272.31,240821,,,A*44
$GPGGA,122044.250,4307.7832,N,07726.6899,W,1,05,1.90,173.5,M,-34.3,M,,*58
$GPRMC,122044.500,A,4307.7832,N,07726.6915,W,17.97,271.92,240821,,,A*43
$GPGGA,122044.750,4307.7832,N,07726.6930,W,1,05,1.90,173.7,M,-34.3,M,,*5D
$GPRMC,122045.000,A,4307.7832,N,07726.6947,W,17.71,271.85,240821,,,A*4E
$GPGGA,122045.250,4307.7832,N,07726.6963,W,1,05,1.90,173.9,M,-34.3,M,,*51
$GPRMC,122045.500,A,4307.7832,N,07726.6979,W,17.51,271.42,240821,,,A*4F
$GPGGA,122045.750,4307.7832,N,07726.6994,W,1,05,1.91,174.2,M,-34.3,M,,*51
$GPRMC,122046.000,A,4307.7832,N,07726.7010,W,17.11,271.68,240821,,,A*42
$GPGGA,122046.250,4307.7832,N,07726.7026,W,1,05,1.90,174.3,M,-34.3,M,,*56
$GPRMC,122046.500,A,4307.7832,N,07726.7041,W,16.64,272.19,240821,,,A*45
$GPGGA,122046.750,4307.7833,N,07726.7058,W,1,05,1.72,174.6,M,-34.3,M,,*52
$GPRMC,122047.000,A,4307.7833,N,07726.7075,W,16.39,272.02,240821,,,A*45
