Vers 81
USE_SERIAL_FEEDBACK=true
DEVELOPMENT_MODE=false
USE_RMC_ONLY=false

$GPRMC,140404.500,A,3554.7562,N,08403.5481,W,0.13,45.39,260721,,,A*43
$GPGGA,140404.750,3554.7562,N,08403.5479,W,1,08,0.97,287.1,M,-32.1,M,,*5F
$GPRMC,140405.000,A,3554.7562,N,08403.5478,W,0.08,23.46,260721,,,A*43
$GPGGA,140405.250,3554.7562,N,08403.5476,W,1,08,0.97,287.2,M,-32.1,M,,*57
$GPRMC,140405.500,A,3554.7562,N,08403.5475,W,0.06,346.31,260721,,,A*75
$GPGGA,140405.750,3554.7563,N,08403.5474,W,1,08,0.97,287.2,M,-32.1,M,,*51
$GPRMC,140406.000,A,3554.7563,N,08403.5473,W,0.09,312.38,260721,,,A*73
$GPGGA,140406.250,3554.7563,N,08403.5472,W,1,08,0.97,287.3,M,-32.1,M,,*50
$GPRMC,140406.500,A,3554.7562,N,08403.5471,W,0.05,271.15,260721,,,A*72
$GPGGA,140406.750,3554.7562,N,08403.5470,W,1,08,0.97,287.3,M,-32.1,M,,*56
$GPRMC,140407.000,A,3554.7562,N,08403.5469,W,0.05,182.08,260721,,,A*7C
$GPGGA,140407.250,3554.7562,N,08403.5467,W,1,08,0.97,287.4,M,-32.1,M,,*53
$GPRMC,140407.500,A,3554.7562,N,08403.5466,W,0.04,157.94,260721,,,A*7A
$GPGGA,140407.750,3554.7562,N,08403.5465,W,1,08,0.97,287.4,M,-32.1,M,,*54
$GPRMC,140408.000,A,3554.7563,N,08403.5465,W,0.05,60.35,260721,,,A*4D
$GPGGA,140408.250,3554.7562,N,08403.5464,W,1,08,0.97,287.4,M,-32.1,M,,*5F
$GPRMC,140408.500,A,3554.7562,N,08403.5463,W,0.08,83.57,260721,,,A*4B
$GPGGA,140408.750,3554.7563,N,08403.5462,W,1,08,0.97,287.5,M,-32.1,M,,*5C
$GPRMC,140409.000,A,3554.7563,N,08403.5461,W,0.05,82.34,260721,,,A*45
$GPGGA,140409.250,3554.7562,N,08403.5460,W,1,08,0.97,287.5,M,-32.1,M,,*5B
$GPRMC,140409.500,A,3554.7563,N,08403.5460,W,0.04,34.64,260721,,,A*48
$GPGGA,140409.750,3554.7563,N,08403.5459,W,1,08,0.97,287.5,M,-32.1,M,,*55
$GPRMC,140410.000,A,3554.7563,N,08403.5458,W,0.15,48.60,260721,,,A*41
$GPGGA,140410.250,3554.7564,N,08403.5457,W,1,08,0.97,287.6,M,-32.1,M,,*52
$GPRMC,140410.500,A,3554.7563,N,08403.5456,W,0.16,48.52,260721,,,A*48
$GPGGA,140410.750,3554.7563,N,08403.5456,W,1,08,0.97,287.6,M,-32.1,M,,*51
$GPRMC,140411.000,A,3554.7564,N,08403.5455,W,0.17,54.25,260721,,,A*44
$GPGGA,140411.250,3554.7564,N,08403.5455,W,1,07,1.26,287.6,M,-32.1,M,,*55
$GPRMC,140411.500,A,3554.7564,N,08403.5454,W,0.16,39.29,260721,,,A*46
$GPGGA,140411.750,3554.7564,N,08403.5454,W,1,07,1.26,287.6,M,-32.1,M,,*51
$GPRMC,140412.000,A,3554.7564,N,08403.5454,W,0.16,31.44,260721,,,A*43
$GPGGA,140412.250,3554.7565,N,08403.5453,W,1,07,1.26,287.7,M,-32.1,M,,*50
$GPRMC,140412.500,A,3554.7565,N,08403.5453,W,0.19,26.32,260721,,,A*48
$GPGGA,140412.750,3554.7565,N,08403.5452,W,1,07,1.26,287.7,M,-32.1,M,,*54
$GPRMC,140413.000,A,3554.7565,N,08403.5452,W,0.15,35.48,260721,,,A*4E
$GPGGA,140413.250,3554.7565,N,08403.5451,W,1,07,1.26,287.7,M,-32.1,M,,*53
$GPRMC,140413.500,A,3554.7565,N,08403.5451,W,0.14,35.93,260721,,,A*4F
$GPGGA,140413.750,3554.7565,N,08403.5451,W,1,07,1.26,287.7,M,-32.1,M,,*56
$GPRMC,140414.000,A,3554.7565,N,08403.5451,W,0.11,49.66,260721,,,A*49
$GPGGA,140414.250,3554.7565,N,08403.5451,W,1,07,1.26,287.7,M,-32.1,M,,*54
$GPRMC,140414.500,A,3554.7565,N,08403.5452,W,0.07,42.44,260721,,,A*43
$GPGGA,140414.750,3554.7565,N,08403.5452,W,1,07,1.26,287.7,M,-32.1,M,,*52
$GPRMC,140415.000,A,3554.7565,N,08403.5453,W,0.08,355.52,260721,,,A*7B
$GPGGA,140415.250,3554.7565,N,08403.5453,W,1,07,1.41,287.7,M,-32.1,M,,*56
$GPRMC,140415.500,A,3554.7565,N,08403.5453,W,0.07,327.58,260721,,,A*7E
$GPGGA,140415.750,3554.7565,N,08403.5453,W,1,07,1.26,287.7,M,-32.1,M,,*52
$GPRMC,140416.000,A,3554.7565,N,08403.5453,W,0.04,326.92,260721,,,A*7C
$GPGGA,140416.250,3554.7565,N,08403.5453,W,1,07,1.26,287.6,M,-32.1,M,,*55
$GPRMC,140416.500,A,3554.7565,N,08403.5453,W,0.03,53.40,260721,,,A*40
$GPGGA,140416.750,3554.7565,N,08403.5454,W,1,07,1.26,287.6,M,-32.1,M,,*57
$GPRMC,140417.000,A,3554.7565,N,08403.5454,W,0.04,327.85,260721,,,A*7D
$GPGGA,140417.250,3554.7565,N,08403.5454,W,1,07,1.26,287.6,M,-32.1,M,,*53
$GPRMC,140417.500,A,3554.7565,N,08403.5454,W,0.04,359.21,260721,,,A*7F
$GPGGA,140417.750,3554.7565,N,08403.5454,W,1,07,1.41,287.6,M,-32.1,M,,*57
$GPRMC,140418.000,A,3554.7564,N,08403.5454,W,0.07,251.99,260721,,,A*7D
$GPGGA,140418.250,3554.7564,N,08403.5454,W,1,07,1.26,287.6,M,-32.1,M,,*5D
$GPRMC,140418.500,A,3554.7564,N,08403.5454,W,0.05,6.62,260721,,,A*7E
$GPGGA,140418.750,3554.7564,N,08403.5453,W,1,07,1.41,287.6,M,-32.1,M,,*5E
$GPRMC,140419.000,A,3554.7564,N,08403.5453,W,0.06,16.69,260721,,,A*44
$GPGGA,140419.250,3554.7564,N,08403.5453,W,1,07,1.26,287.6,M,-32.1,M,,*5B
$GPRMC,140419.500,A,3554.7564,N,08403.5453,W,0.08,300.27,260721,,,A*71
$GPGGA,140419.750,3554.7564,N,08403.5453,W,1,07,1.26,287.6,M,-32.1,M,,*5E
$GPRMC,140420.000,A,3554.7564,N,08403.5453,W,0.06,261.19,260721,,,A*7B
$GPGGA,140420.250,3554.7564,N,08403.5452,W,1,07,1.26,287.6,M,-32.1,M,,*50
$GPRMC,140420.500,A,3554.7564,N,08403.5452,W,0.04,203.81,260721,,,A*78
$GPGGA,140420.750,3554.7564,N,08403.5452,W,1,07,1.26,287.6,M,-32.1,M,,*55
$GPRMC,140421.000,A,3554.7564,N,08403.5452,W,0.05,187.64,260721,,,A*79
$GPGGA,140421.250,3554.7564,N,08403.5451,W,1,07,1.26,287.6,M,-32.1,M,,*52
$GPRMC,140421.500,A,3554.7564,N,08403.5451,W,0.02,216.70,260721,,,A*76
$GPGGA,140421.750,3554.7564,N,08403.5451,W,1,07,1.26,287.6,M,-32.1,M,,*57
$GPRMC,140422.000,A,3554.7564,N,08403.5451,W,0.03,232.08,260721,,,A*78
$GPGGA,140422.250,3554.7564,N,08403.5451,W,1,07,1.26,287.6,M,-32.1,M,,*51
$GPRMC,140422.500,A,3554.7564,N,08403.5451,W,0.07,232.35,260721,,,A*77
$GPGGA,140422.750,3554.7564,N,08403.5451,W,1,07,1.26,287.6,M,-32.1,M,,*54
$GPRMC,140423.000,A,3554.7564,N,08403.5451,W,0.10,281.89,260721,,,A*7A
$GPGGA,140423.250,3554.7565,N,08403.5451,W,1,07,1.26,287.6,M,-32.1,M,,*51
$GPRMC,140423.500,A,3554.7565,N,08403.5450,W,0.04,294.70,260721,,,A*78
$GPGGA,140423.750,3554.7565,N,08403.5450,W,1,07,1.26,287.6,M,-32.1,M,,*55
$GPRMC,140424.000,A,3554.7565,N,08403.5449,W,0.06,82.66,260721,,,A*42
$GPGGA,140424.250,3554.7565,N,08403.5449,W,1,08,0.97,287.6,M,-32.1,M,,*5B
$GPRMC,140424.500,A,3554.7565,N,08403.5448,W,0.07,78.36,260721,,,A*47
$GPGGA,140424.750,3554.7565,N,08403.5448,W,1,09,0.90,287.6,M,-32.1,M,,*59
$GPRMC,140425.000,A,3554.7565,N,08403.5448,W,0.03,78.48,260721,,,A*4E
$GPGGA,140425.250,3554.7565,N,08403.5449,W,1,09,0.90,287.6,M,-32.1,M,,*5C
$GPRMC,140425.500,A,3554.7565,N,08403.5449,W,0.06,331.45,260721,,,A*7C
$GPGGA,140425.750,3554.7565,N,08403.5449,W,1,09,0.90,287.6,M,-32.1,M,,*59
$GPRMC,140426.000,A,3554.7565,N,08403.5448,W,0.04,62.83,260721,,,A*46
$GPGGA,140426.250,3554.7565,N,08403.5448,W,1,09,0.90,287.5,M,-32.1,M,,*5D
$GPRMC,140426.500,A,3554.7565,N,08403.5447,W,0.12,65.28,260721,,,A*4D
$GPGGA,140426.750,3554.7565,N,08403.5447,W,1,09,0.90,287.5,M,-32.1,M,,*57
$GPRMC,140427.000,A,3554.7565,N,08403.5446,W,0.14,87.61,260721,,,A*4F
$GPGGA,140427.250,3554.7565,N,08403.5446,W,1,09,0.90,287.5,M,-32.1,M,,*52
$GPRMC,140427.500,A,3554.7565,N,08403.5446,W,0.06,82.79,260721,,,A*45
$GPGGA,140427.750,3554.7564,N,08403.5446,W,1,09,0.90,287.5,M,-32.1,M,,*56
$GPRMC,140428.000,A,3554.7564,N,08403.5446,W,0.07,134.26,260721,,,A*79
$GPGGA,140428.250,3554.7564,N,08403.5446,W,1,09,0.90,287.5,M,-32.1,M,,*5C
$GPRMC,140428.500,A,3554.7564,N,08403.5446,W,0.05,168.85,260721,,,A*7E
$GPGGA,140428.750,3554.7564,N,08403.5446,W,1,09,0.90,287.5,M,-32.1,M,,*59
$GPRMC,140429.000,A,3554.7564,N,08403.5446,W,0.07,186.24,260721,,,A*73
$GPGGA,140429.250,3554.7564,N,08403.5447,W,1,09,0.90,287.5,M,-32.1,M,,*5C
$GPRMC,140429.500,A,3554.7563,N,08403.5447,W,0.07,208.71,260721,,,A*75
$GPGGA,140429.750,3554.7564,N,08403.5447,W,1,09,0.90,287.5,M,-32.1,M,,*59
$GPRMC,140430.000,A,3554.7563,N,08403.5447,W,0.04,157.71,260721,,,A*72
$GPGGA,140430.250,3554.7563,N,08403.5447,W,1,09,0.90,287.5,M,-32.1,M,,*53
$GPRMC,140430.500,A,3554.7564,N,08403.5447,W,0.04,21.35,260721,,,A*40
$GPGGA,140430.750,3554.7564,N,08403.5448,W,1,09,0.90,287.5,M,-32.1,M,,*5E
$GPRMC,140431.000,A,3554.7564,N,08403.5448,W,0.08,341.82,260721,,,A*7E
$GPGGA,140431.250,3554.7565,N,08403.5448,W,1,09,0.90,287.5,M,-32.1,M,,*5B
$GPRMC,140431.500,A,3554.7565,N,08403.5448,W,0.14,342.36,260721,,,A*7B
$GPGGA,140431.750,3554.7565,N,08403.5448,W,1,09,0.90,287.5,M,-32.1,M,,*5E
$GPRMC,140432.000,A,3554.7565,N,08403.5448,W,0.09,349.40,260721,,,A*7B
$GPGGA,140432.250,3554.7564,N,08403.5448,W,1,08,1.00,287.5,M,-32.1,M,,*50
$GPRMC,140432.500,A,3554.7565,N,08403.5448,W,0.09,263.98,260721,,,A*72
$GPGGA,140432.750,3554.7565,N,08403.5449,W,1,08,0.97,287.5,M,-32.1,M,,*5A
$GPRMC,140433.000,A,3554.7565,N,08403.5449,W,0.09,273.60,260721,,,A*71
$GPGGA,140433.250,3554.7565,N,08403.5449,W,1,09,0.90,287.5,M,-32.1,M,,*58
$GPRMC,140433.500,A,3554.7566,N,08403.5449,W,0.15,333.58,260721,,,A*74
$GPGGA,140433.750,3554.7566,N,08403.5449,W,1,09,0.90,287.5,M,-32.1,M,,*5E
$GPRMC,140434.000,A,3554.7566,N,08403.5449,W,0.19,340.66,260721,,,A*73
$GPGGA,140434.250,3554.7567,N,08403.5450,W,1,09,0.90,287.5,M,-32.1,M,,*55
$GPRMC,140434.500,A,3554.7567,N,08403.5450,W,0.22,324.79,260721,,,A*7B
$GPGGA,140434.750,3554.7567,N,08403.5450,W,1,09,0.90,287.4,M,-32.1,M,,*51
$GPRMC,140435.000,A,3554.7567,N,08403.5450,W,0.12,300.79,260721,,,A*7A
$GPGGA,140435.250,3554.7567,N,08403.5450,W,1,09,0.90,287.4,M,-32.1,M,,*55
$GPRMC,140435.500,A,3554.7567,N,08403.5450,W,0.05,220.74,260721,,,A*77
$GPGGA,140435.750,3554.7567,N,08403.5450,W,1,09,0.90,287.4,M,-32.1,M,,*50
$GPRMC,140436.000,A,3554.7568,N,08403.5450,W,0.03,259.69,260721,,,A*7A
$GPGGA,140436.250,3554.7568,N,08403.5450,W,1,09,0.90,287.4,M,-32.1,M,,*59
$GPRMC,140436.500,A,3554.7569,N,08403.5450,W,0.13,332.45,260721,,,A*7D
$GPGGA,140436.750,3554.7569,N,08403.5450,W,1,09,0.90,287.4,M,-32.1,M,,*5D
$GPRMC,140437.000,A,3554.7569,N,08403.5450,W,0.14,318.77,260721,,,A*77
$GPGGA,140437.250,3554.7569,N,08403.5450,W,1,09,0.90,287.4,M,-32.1,M,,*59
$GPRMC,140437.500,A,3554.7569,N,08403.5450,W,0.13,5.03,260721,,,A*79
$GPGGA,140437.750,3554.7570,N,08403.5450,W,1,09,0.91,287.4,M,-32.1,M,,*55
$GPRMC,140438.000,A,3554.7569,N,08403.5449,W,0.09,32.75,260721,,,A*45
$GPGGA,140438.250,3554.7569,N,08403.5449,W,1,09,0.90,287.4,M,-32.1,M,,*5E
$GPRMC,140438.500,A,3554.7569,N,08403.5449,W,0.07,88.38,260721,,,A*46
$GPGGA,140438.750,3554.7569,N,08403.5449,W,1,09,0.90,287.4,M,-32.1,M,,*5B
$GPRMC,140439.000,A,3554.7569,N,08403.5448,W,0.08,124.62,260721,,,A*74
$GPGGA,140439.250,3554.7568,N,08403.5448,W,1,09,0.90,287.4,M,-32.1,M,,*5F
$GPRMC,140439.500,A,3554.7568,N,08403.5448,W,0.01,209.94,260721,,,A*7C
$GPGGA,140439.750,3554.7569,N,08403.5448,W,1,09,0.91,287.5,M,-32.1,M,,*5B
$GPRMC,140440.000,A,3554.7569,N,08403.5448,W,0.02,347.79,260721,,,A*7D
$GPGGA,140440.250,3554.7569,N,08403.5447,W,1,09,0.91,287.5,M,-32.1,M,,*5F
$GPRMC,140440.500,A,3554.7569,N,08403.5447,W,0.03,50.33,260721,,,A*4D
$GPGGA,140440.750,3554.7569,N,08403.5447,W,1,09,0.91,287.5,M,-32.1,M,,*5A
$GPRMC,140441.000,A,3554.7569,N,08403.5446,W,0.00,68.64,260721,,,A*42
$GPGGA,140441.250,3554.7569,N,08403.5446,W,1,09,0.91,287.5,M,-32.1,M,,*5F
$GPRMC,140441.500,A,3554.7569,N,08403.5446,W,0.02,164.09,260721,,,A*73
$GPGGA,140441.750,3554.7569,N,08403.5445,W,1,09,0.91,287.5,M,-32.1,M,,*59
$GPRMC,140442.000,A,3554.7569,N,08403.5445,W,0.02,16.74,260721,,,A*48
$GPGGA,140442.250,3554.7569,N,08403.5444,W,1,08,1.00,287.5,M,-32.1,M,,*56
$GPRMC,140442.500,A,3554.7570,N,08403.5444,W,0.01,296.23,260721,,,A*7F
$GPGGA,140442.750,3554.7570,N,08403.5444,W,1,09,0.91,287.5,M,-32.1,M,,*53
$GPRMC,140443.000,A,3554.7569,N,08403.5444,W,0.02,187.68,260721,,,A*7C
$GPGGA,140443.250,3554.7569,N,08403.5444,W,1,09,0.91,287.5,M,-32.1,M,,*5F
$GPRMC,140443.500,A,3554.7570,N,08403.5443,W,0.02,38.03,260721,,,A*4E
$GPGGA,140443.750,3554.7570,N,08403.5444,W,1,08,1.00,287.5,M,-32.1,M,,*5A
$GPRMC,140444.000,A,3554.7570,N,08403.5444,W,0.02,281.78,260721,,,A*77
$GPGGA,140444.250,3554.7570,N,08403.5444,W,1,08,1.00,287.5,M,-32.1,M,,*58
$GPRMC,140444.500,A,3554.7570,N,08403.5444,W,0.01,343.15,260721,,,A*75
$GPGGA,140444.750,3554.7570,N,08403.5444,W,1,09,0.91,287.5,M,-32.1,M,,*55
$GPRMC,140445.000,A,3554.7569,N,08403.5444,W,0.01,198.27,260721,,,A*7C
$GPGGA,140445.250,3554.7569,N,08403.5444,W,1,09,0.91,287.5,M,-32.1,M,,*59
$GPRMC,140445.500,A,3554.7569,N,08403.5444,W,0.00,294.49,260721,,,A*7F
$GPGGA,140445.750,3554.7570,N,08403.5444,W,1,09,0.91,287.5,M,-32.1,M,,*54
$GPRMC,140446.000,A,3554.7570,N,08403.5444,W,0.01,356.87,260721,,,A*7D
$GPGGA,140446.250,3554.7570,N,08403.5444,W,1,08,1.00,287.5,M,-32.1,M,,*5A
$GPRMC,140446.500,A,3554.7570,N,08403.5445,W,0.01,325.22,260721,,,A*72
$GPGGA,140446.750,3554.7570,N,08403.5445,W,1,08,1.00,287.5,M,-32.1,M,,*5E
$GPRMC,140447.000,A,3554.7569,N,08403.5445,W,0.02,240.99,260721,,,A*7F
$GPGGA,140447.250,3554.7569,N,08403.5445,W,1,09,0.91,287.6,M,-32.1,M,,*59
$GPRMC,140447.500,A,3554.7569,N,08403.5446,W,0.02,210.18,260721,,,A*75
$GPGGA,140447.750,3554.7569,N,08403.5445,W,1,09,0.91,287.6,M,-32.1,M,,*5C
$GPRMC,140448.000,A,3554.7568,N,08403.5445,W,0.02,143.85,260721,,,A*7C
$GPGGA,140448.250,3554.7568,N,08403.5445,W,1,09,0.91,287.7,M,-32.1,M,,*56
$GPRMC,140448.500,A,3554.7567,N,08403.5445,W,0.01,180.21,260721,,,A*74
$GPGGA,140448.750,3554.7567,N,08403.5445,W,1,09,0.91,287.7,M,-32.1,M,,*5C
$GPRMC,140449.000,A,3554.7567,N,08403.5445,W,0.01,133.42,260721,,,A*7D
$GPGGA,140449.250,3554.7566,N,08403.5445,W,1,09,0.91,287.7,M,-32.1,M,,*59
$GPRMC,140449.500,A,3554.7566,N,08403.5445,W,0.01,143.89,260721,,,A*79
$GPGGA,140449.750,3554.7566,N,08403.5445,W,1,09,0.91,287.8,M,-32.1,M,,*53
$GPRMC,140450.000,A,3554.7566,N,08403.5445,W,0.01,273.57,260721,,,A*77
$GPGGA,140450.250,3554.7565,N,08403.5445,W,1,09,0.91,287.8,M,-32.1,M,,*5D
$GPRMC,140450.500,A,3554.7565,N,08403.5445,W,0.01,176.48,260721,,,A*79
$GPGGA,140450.750,3554.7564,N,08403.5445,W,1,09,0.91,287.8,M,-32.1,M,,*59
$GPRMC,140451.000,A,3554.7564,N,08403.5446,W,0.01,275.47,260721,,,A*70
$GPGGA,140451.250,3554.7564,N,08403.5446,W,1,09,0.91,287.9,M,-32.1,M,,*5F
$GPRMC,140451.500,A,3554.7564,N,08403.5446,W,0.01,126.59,260721,,,A*7F
$GPGGA,140451.750,3554.7564,N,08403.5446,W,1,09,0.91,287.9,M,-32.1,M,,*5A
$GPRMC,140452.000,A,3554.7563,N,08403.5446,W,0.01,120.45,260721,,,A*75
$GPGGA,140452.250,3554.7563,N,08403.5446,W,1,09,0.91,287.9,M,-32.1,M,,*5B
$GPRMC,140452.500,A,3554.7563,N,08403.5446,W,0.00,229.70,260721,,,A*7D
$GPGGA,140452.750,3554.7563,N,08403.5446,W,1,09,0.91,288.0,M,-32.1,M,,*58
$GPRMC,140453.000,A,3554.7562,N,08403.5446,W,0.01,142.57,260721,,,A*72
$GPGGA,140453.250,3554.7562,N,08403.5446,W,1,09,0.91,288.0,M,-32.1,M,,*5D
$GPRMC,140453.500,A,3554.7562,N,08403.5446,W,0.01,134.18,260721,,,A*7D
$GPGGA,140453.750,3554.7561,N,08403.5446,W,1,09,0.91,288.0,M,-32.1,M,,*5B
$GPRMC,140454.000,A,3554.7561,N,08403.5446,W,0.01,285.02,260721,,,A*7E
$GPGGA,140454.250,3554.7561,N,08403.5446,W,1,09,0.91,288.0,M,-32.1,M,,*59
$GPRMC,140454.500,A,3554.7561,N,08403.5446,W,0.01,139.97,260721,,,A*73
$GPGGA,140454.750,3554.7560,N,08403.5446,W,1,09,0.91,288.1,M,-32.1,M,,*5C
$GPRMC,140455.000,A,3554.7560,N,08403.5446,W,0.00,248.17,260721,,,A*7A
$GPGGA,140455.250,3554.7560,N,08403.5446,W,1,09,0.91,288.1,M,-32.1,M,,*58
$GPRMC,140455.500,A,3554.7560,N,08403.5446,W,0.01,151.57,260721,,,A*71
$GPGGA,140455.750,3554.7559,N,08403.5445,W,1,09,0.91,288.1,M,-32.1,M,,*54
$GPRMC,140456.000,A,3554.7559,N,08403.5445,W,0.00,88.43,260721,,,A*4F
$GPGGA,140456.250,3554.7559,N,08403.5445,W,1,09,0.91,288.1,M,-32.1,M,,*52
$GPRMC,140456.500,A,3554.7559,N,08403.5445,W,0.01,107.33,260721,,,A*7A
$GPGGA,140456.750,3554.7559,N,08403.5445,W,1,09,0.91,288.1,M,-32.1,M,,*57
$GPRMC,140457.000,A,3554.7559,N,08403.5445,W,0.00,270.21,260721,,,A*7F
$GPGGA,140457.250,3554.7559,N,08403.5445,W,1,09,0.91,288.1,M,-32.1,M,,*53
$GPRMC,140457.500,A,3554.7559,N,08403.5445,W,0.01,52.22,260721,,,A*4A
$GPGGA,140457.750,3554.7558,N,08403.5444,W,1,09,0.91,288.2,M,-32.1,M,,*55
$GPRMC,140458.000,A,3554.7558,N,08403.5444,W,0.01,60.14,260721,,,A*44
$GPGGA,140458.250,3554.7558,N,08403.5444,W,1,09,0.91,288.2,M,-32.1,M,,*5F
$GPRMC,140458.500,A,3554.7558,N,08403.5444,W,0.00,119.76,260721,,,A*7B
$GPGGA,140458.750,3554.7558,N,08403.5444,W,1,09,0.91,288.1,M,-32.1,M,,*59
$GPRMC,140459.000,A,3554.7558,N,08403.5445,W,0.01,263.26,260721,,,A*74
$GPGGA,140459.250,3554.7558,N,08403.5445,W,1,09,0.91,288.1,M,-32.1,M,,*5C
$GPRMC,140459.500,A,3554.7558,N,08403.5445,W,0.00,146.80,260721,,,A*78
$GPGGA,140459.750,3554.7558,N,08403.5445,W,1,09,0.91,288.1,M,-32.1,M,,*59
$GPRMC,140500.000,A,3554.7558,N,08403.5445,W,0.01,127.04,260721,,,A*7A
$GPGGA,140500.250,3554.7558,N,08403.5445,W,1,09,0.91,288.1,M,-32.1,M,,*51
$GPRMC,140500.500,A,3554.7558,N,08403.5445,W,0.00,351.89,260721,,,A*78
$GPGGA,140500.750,3554.7558,N,08403.5445,W,1,09,0.91,288.1,M,-32.1,M,,*54
$GPRMC,140501.000,A,3554.7558,N,08403.5446,W,0.01,286.00,260721,,,A*74
$GPGGA,140501.250,3554.7558,N,08403.5446,W,1,09,0.91,288.1,M,-32.1,M,,*53
$GPRMC,140501.500,A,3554.7558,N,08403.5447,W,0.01,269.39,260721,,,A*7B
$GPGGA,140501.750,3554.7558,N,08403.5447,W,1,08,1.00,288.2,M,-32.1,M,,*5C
$GPRMC,140502.000,A,3554.7558,N,08403.5448,W,0.01,249.50,260721,,,A*7F
$GPGGA,140502.250,3554.7558,N,08403.5448,W,1,09,0.91,288.2,M,-32.1,M,,*5D
$GPRMC,140502.500,A,3554.7559,N,08403.5448,W,0.01,0.85,260721,,,A*7C
$GPGGA,140502.750,3554.7559,N,08403.5448,W,1,09,0.91,288.2,M,-32.1,M,,*59
$GPRMC,140503.000,A,3554.7559,N,08403.5448,W,0.00,97.56,260721,,,A*49
$GPGGA,140503.250,3554.7559,N,08403.5448,W,1,09,0.91,288.2,M,-32.1,M,,*5D
$GPRMC,140503.500,A,3554.7560,N,08403.5448,W,0.01,31.10,260721,,,A*49
$GPGGA,140503.750,3554.7560,N,08403.5448,W,1,09,0.91,288.2,M,-32.1,M,,*52
$GPRMC,140504.000,A,3554.7560,N,08403.5448,W,0.01,7.12,260721,,,A*7C
$GPGGA,140504.250,3554.7561,N,08403.5448,W,1,09,0.91,288.2,M,-32.1,M,,*51
$GPRMC,140504.500,A,3554.7561,N,08403.5449,W,0.01,334.41,260721,,,A*7C
$GPGGA,140504.750,3554.7561,N,08403.5448,W,1,09,0.91,288.2,M,-32.1,M,,*54
$GPRMC,140505.000,A,3554.7561,N,08403.5448,W,0.00,270.02,260721,,,A*7E
$GPGGA,140505.250,3554.7561,N,08403.5448,W,1,09,0.91,288.3,M,-32.1,M,,*51
$GPRMC,140505.500,A,3554.7561,N,08403.5448,W,0.00,274.90,260721,,,A*74
$GPGGA,140505.750,3554.7561,N,08403.5448,W,1,09,0.91,288.3,M,-32.1,M,,*54
$GPRMC,140506.000,A,3554.7562,N,08403.5448,W,0.01,53.87,260721,,,A*41
$GPGGA,140506.250,3554.7562,N,08403.5448,W,1,09,0.91,288.3,M,-32.1,M,,*51
$GPRMC,140506.500,A,3554.7562,N,08403.5448,W,0.01,27.74,260721,,,A*4B
$GPGGA,140506.750,3554.7563,N,08403.5448,W,1,09,0.91,288.3,M,-32.1,M,,*55
$GPRMC,140507.000,A,3554.7563,N,08403.5448,W,0.00,200.26,260721,,,A*7F
$GPGGA,140507.250,3554.7563,N,08403.5448,W,1,09,0.91,288.4,M,-32.1,M,,*56
$GPRMC,140507.500,A,3554.7563,N,08403.5448,W,0.00,356.45,260721,,,A*7D
$GPGGA,140507.750,3554.7563,N,08403.5447,W,1,09,0.91,288.4,M,-32.1,M,,*5C
$GPRMC,140508.000,A,3554.7563,N,08403.5447,W,0.00,160.18,260721,,,A*77
$GPGGA,140508.250,3554.7563,N,08403.5447,W,1,09,0.91,288.4,M,-32.1,M,,*56
$GPRMC,140508.500,A,3554.7563,N,08403.5447,W,0.01,60.91,260721,,,A*43
$GPGGA,140508.750,3554.7563,N,08403.5447,W,1,09,0.91,288.4,M,-32.1,M,,*53
$GPRMC,140509.000,A,3554.7563,N,08403.5447,W,0.00,77.15,260721,,,A*4C
$GPGGA,140509.250,3554.7563,N,08403.5447,W,1,09,0.91,288.4,M,-32.1,M,,*57
$GPRMC,140509.500,A,3554.7563,N,08403.5447,W,0.01,238.77,260721,,,A*75
$GPGGA,140509.750,3554.7563,N,08403.5447,W,1,09,0.91,288.4,M,-32.1,M,,*52
$GPRMC,140510.000,A,3554.7563,N,08403.5447,W,0.00,75.44,260721,,,A*42
$GPGGA,140510.250,3554.7563,N,08403.5447,W,1,09,0.91,288.4,M,-32.1,M,,*5F
$GPRMC,140510.500,A,3554.7563,N,08403.5447,W,0.00,90.07,260721,,,A*4B
$GPGGA,140510.750,3554.7563,N,08403.5447,W,1,09,0.91,288.4,M,-32.1,M,,*5A
$GPRMC,140511.000,A,3554.7563,N,08403.5447,W,0.00,279.23,260721,,,A*7C
$GPGGA,140511.250,3554.7563,N,08403.5447,W,1,09,0.91,288.4,M,-32.1,M,,*5E
$GPRMC,140511.500,A,3554.7563,N,08403.5447,W,0.00,244.96,260721,,,A*79
$GPGGA,140511.750,3554.7563,N,08403.5447,W,1,09,0.91,288.4,M,-32.1,M,,*5B
$GPRMC,140512.000,A,3554.7563,N,08403.5447,W,0.01,20.92,260721,,,A*4A
$GPGGA,140512.250,3554.7563,N,08403.5447,W,1,09,0.91,288.5,M,-32.1,M,,*5C
$GPRMC,140512.500,A,3554.7563,N,08403.5447,W,0.00,307.42,260721,,,D*70
$GPGGA,140512.750,3554.7563,N,08403.5447,W,2,09,0.91,288.5,M,-32.1,M,0000,0000*5A
$GPRMC,140513.000,A,3554.7563,N,08403.5447,W,0.01,272.27,260721,,,D*75
$GPGGA,140513.250,3554.7563,N,08403.5447,W,2,09,0.91,288.5,M,-32.1,M,0000,0000*5E
$GPRMC,140513.500,A,3554.7563,N,08403.5447,W,0.02,254.38,260721,,,D*79
$GPGGA,140513.750,3554.7563,N,08403.5447,W,2,09,0.91,288.5,M,-32.1,M,0000,0000*5B
$GPRMC,140514.000,A,3554.7563,N,08403.5447,W,0.02,235.98,260721,,,D*76
$GPGGA,140514.250,3554.7563,N,08403.5447,W,2,09,0.91,288.5,M,-32.1,M,0000,0000*59
$GPRMC,140514.500,A,3554.7563,N,08403.5447,W,0.02,259.84,260721,,,D*74
$GPGGA,140514.750,3554.7563,N,08403.5447,W,2,09,0.91,288.6,M,-32.1,M,0000,0000*5F
$GPRMC,140515.000,A,3554.7563,N,08403.5447,W,0.02,254.27,260721,,,D*74
$GPGGA,140515.250,3554.7562,N,08403.5447,W,2,09,0.91,288.6,M,-32.1,M,0000,0000*5A
$GPRMC,140515.500,A,3554.7562,N,08403.5447,W,0.03,246.33,260721,,,D*77
$GPGGA,140515.750,3554.7562,N,08403.5448,W,2,09,0.91,288.6,M,-32.1,M,0000,0000*50
$GPRMC,140516.000,A,3554.7562,N,08403.5448,W,0.03,265.64,260721,,,D*7D
$GPGGA,140516.250,3554.7562,N,08403.5448,W,2,09,0.91,288.6,M,-32.1,M,0000,0000*56
$GPRMC,140516.500,A,3554.7562,N,08403.5447,W,0.02,259.61,260721,,,D*7C
$GPGGA,140516.750,3554.7562,N,08403.5447,W,2,09,0.91,288.6,M,-32.1,M,0000,0000*5C
$GPRMC,140517.000,A,3554.7562,N,08403.5447,W,0.02,239.47,260721,,,D*7A
$GPGGA,140517.250,3554.7562,N,08403.5447,W,2,09,0.91,288.6,M,-32.1,M,0000,0000*58
$GPRMC,140517.500,A,3554.7562,N,08403.5447,W,0.02,251.14,260721,,,D*77
$GPGGA,140517.750,3554.7562,N,08403.5447,W,2,09,0.91,288.6,M,-32.1,M,0000,0000*5D
$GPRMC,140518.000,A,3554.7562,N,08403.5447,W,0.03,241.38,260721,,,D*73
$GPGGA,140518.250,3554.7562,N,08403.5447,W,2,09,0.91,288.6,M,-32.1,M,0000,0000*57
$GPRMC,140518.500,A,3554.7562,N,08403.5447,W,0.02,249.28,260721,,,D*7E
$GPGGA,140518.750,3554.7562,N,08403.5447,W,2,09,0.91,288.6,M,-32.1,M,0000,0000*52
$GPRMC,140519.000,A,3554.7561,N,08403.5447,W,0.02,243.73,260721,,,D*7D
$GPGGA,140519.250,3554.7561,N,08403.5447,W,2,09,0.91,288.5,M,-32.1,M,0000,0000*56
$GPRMC,140519.500,A,3554.7562,N,08403.5447,W,0.01,266.57,260721,,,D*79
$GPGGA,140519.750,3554.7561,N,08403.5447,W,2,09,0.91,288.5,M,-32.1,M,0000,0000*53
$GPRMC,140520.000,A,3554.7561,N,08403.5447,W,0.01,256.28,260721,,,D*7E
$GPGGA,140520.250,3554.7561,N,08403.5448,W,2,09,0.91,288.5,M,-32.1,M,0000,0000*53
$GPRMC,140520.500,A,3554.7561,N,08403.5448,W,0.02,239.23,260721,,,D*75
$GPGGA,140520.750,3554.7561,N,08403.5447,W,2,09,0.91,288.5,M,-32.1,M,0000,0000*59
$GPRMC,140521.000,A,3554.7561,N,08403.5447,W,0.02,216.70,260721,,,D*75
$GPGGA,140521.250,3554.7561,N,08403.5447,W,2,09,0.91,288.4,M,-32.1,M,0000,0000*5C
$GPRMC,140521.500,A,3554.7561,N,08403.5447,W,0.02,241.93,260721,,,D*7F
$GPGGA,140521.750,3554.7561,N,08403.5447,W,2,09,0.91,288.4,M,-32.1,M,0000,0000*59
$GPRMC,140522.000,A,3554.7561,N,08403.5447,W,0.02,236.31,260721,,,D*71
$GPGGA,140522.250,3554.7561,N,08403.5447,W,2,09,0.91,288.4,M,-32.1,M,0000,0000*5F
$GPRMC,140522.500,A,3554.7561,N,08403.5447,W,0.02,195.61,260721,,,D*7B
$GPGGA,140522.750,3554.7561,N,08403.5447,W,2,09,0.91,288.4,M,-32.1,M,0000,0000*5A
$GPRMC,140523.000,A,3554.7561,N,08403.5446,W,0.01,50.53,260721,,,D*44
$GPGGA,140523.250,3554.7561,N,08403.5446,W,2,09,0.91,288.4,M,-32.1,M,0000,0000*5F
$GPRMC,140523.500,A,3554.7560,N,08403.5446,W,0.01,195.94,260721,,,D*73
$GPGGA,140523.750,3554.7560,N,08403.5446,W,2,09,0.91,288.4,M,-32.1,M,0000,0000*5B
$GPRMC,140524.000,A,3554.7560,N,08403.5446,W,0.01,168.81,260721,,,D*77
$GPGGA,140524.250,3554.7560,N,08403.5446,W,2,09,0.91,288.4,M,-32.1,M,0000,0000*59
$GPRMC,140524.500,A,3554.7560,N,08403.5446,W,0.01,136.02,260721,,,D*72
$GPGGA,140524.750,3554.7560,N,08403.5446,W,2,09,0.91,288.3,M,-32.1,M,0000,0000*5B
$GPRMC,140525.000,A,3554.7560,N,08403.5446,W,0.01,337.44,260721,,,D*77
$GPGGA,140525.250,3554.7560,N,08403.5446,W,2,09,0.91,288.2,M,-32.1,M,0000,0000*5E
$GPRMC,140525.500,A,3554.7560,N,08403.5445,W,0.00,156.74,260721,,,D*76
$GPGGA,140525.750,3554.7560,N,08403.5445,W,2,09,0.91,288.2,M,-32.1,M,0000,0000*58
$GPRMC,140526.000,A,3554.7560,N,08403.5445,W,0.01,77.85,260721,,,D*4D
$GPGGA,140526.250,3554.7560,N,08403.5444,W,2,09,0.91,288.1,M,-32.1,M,0000,0000*5C
$GPRMC,140526.500,A,3554.7561,N,08403.5444,W,0.00,22.67,260721,,,D*45
$GPGGA,140526.750,3554.7561,N,08403.5444,W,2,09,0.91,288.0,M,-32.1,M,0000,0000*59
$GPRMC,140527.000,A,3554.7561,N,08403.5443,W,0.01,80.89,260721,,,D*4F
$GPGGA,140527.250,3554.7561,N,08403.5443,W,2,09,0.91,287.9,M,-32.1,M,0000,0000*5C
$GPRMC,140527.500,A,3554.7561,N,08403.5442,W,0.00,0.00,260721,,,D*73
$GPGGA,140527.750,3554.7561,N,08403.5442,W,2,09,0.91,287.9,M,-32.1,M,0000,0000*58
$GPRMC,140528.000,A,3554.7561,N,08403.5442,W,0.01,21.28,260721,,,D*41
$GPGGA,140528.250,3554.7561,N,08403.5441,W,2,09,0.91,287.8,M,-32.1,M,0000,0000*50
$GPRMC,140528.500,A,3554.7561,N,08403.5441,W,0.01,98.91,260721,,,D*47
$GPGGA,140528.750,3554.7561,N,08403.5440,W,2,09,0.91,287.7,M,-32.1,M,0000,0000*5B
$GPRMC,140529.000,A,3554.7561,N,08403.5439,W,0.01,108.09,260721,,,D*75
$GPGGA,140529.250,3554.7561,N,08403.5438,W,2,09,0.91,287.7,M,-32.1,M,0000,0000*50
$GPRMC,140529.500,A,3554.7561,N,08403.5438,W,0.00,34.64,260721,,,D*45
$GPGGA,140529.750,3554.7561,N,08403.5437,W,2,09,0.91,287.6,M,-32.1,M,0000,0000*5B
$GPRMC,140530.000,A,3554.7562,N,08403.5437,W,0.01,76.54,260721,,,D*40
$GPGGA,140530.250,3554.7562,N,08403.5436,W,2,09,0.91,287.5,M,-32.1,M,0000,0000*57
$GPRMC,140530.500,A,3554.7562,N,08403.5435,W,0.01,92.13,260721,,,D*4E
$GPGGA,140530.750,3554.7562,N,08403.5435,W,2,09,0.91,287.4,M,-32.1,M,0000,0000*50
$GPRMC,140531.000,A,3554.7562,N,08403.5434,W,0.01,62.88,260721,,,D*46
$GPGGA,140531.250,3554.7562,N,08403.5434,W,2,09,0.91,287.3,M,-32.1,M,0000,0000*52
$GPRMC,140531.500,A,3554.7562,N,08403.5433,W,0.00,173.63,260721,,,D*71
$GPGGA,140531.750,3554.7562,N,08403.5433,W,2,09,0.91,287.2,M,-32.1,M,0000,0000*51
$GPRMC,140532.000,A,3554.7562,N,08403.5432,W,0.00,51.68,260721,,,D*4C
$GPGGA,140532.250,3554.7562,N,08403.5432,W,2,09,0.91,287.1,M,-32.1,M,0000,0000*55
$GPRMC,140532.500,A,3554.7562,N,08403.5431,W,0.00,17.03,260721,,,D*45
$GPGGA,140532.750,3554.7562,N,08403.5431,W,2,09,0.91,287.0,M,-32.1,M,0000,0000*52
$GPRMC,140533.000,A,3554.7563,N,08403.5430,W,0.01,95.66,260721,,,D*49
$GPGGA,140533.250,3554.7563,N,08403.5430,W,2,09,0.91,286.9,M,-32.1,M,0000,0000*5E
$GPRMC,140533.500,A,3554.7563,N,08403.5429,W,0.01,57.08,260721,,,D*42
$GPGGA,140533.750,3554.7563,N,08403.5428,W,2,09,0.91,286.8,M,-32.1,M,0000,0000*53
$GPRMC,140534.000,A,3554.7563,N,08403.5428,W,0.01,85.33,260721,,,D*46
$GPGGA,140534.250,3554.7563,N,08403.5427,W,2,09,0.91,286.8,M,-32.1,M,0000,0000*5E
$GPRMC,140534.500,A,3554.7563,N,08403.5426,W,0.01,75.26,260721,,,D*46
$GPGGA,140534.750,3554.7563,N,08403.5425,W,2,09,0.91,286.7,M,-32.1,M,0000,0000*56
$GPRMC,140535.000,A,3554.7563,N,08403.5425,W,0.01,95.03,260721,,,D*48
$GPGGA,140535.250,3554.7563,N,08403.5424,W,2,09,0.91,286.6,M,-32.1,M,0000,0000*52
$GPRMC,140535.500,A,3554.7564,N,08403.5423,W,0.01,58.63,260721,,,D*4B
$GPGGA,140535.750,3554.7564,N,08403.5423,W,2,09,0.91,286.5,M,-32.1,M,0000,0000*54
$GPRMC,140536.000,A,3554.7564,N,08403.5422,W,0.01,23.66,260721,,,D*45
$GPGGA,140536.250,3554.7564,N,08403.5422,W,2,09,0.91,286.5,M,-32.1,M,0000,0000*53
$GPRMC,140536.500,A,3554.7564,N,08403.5421,W,0.01,96.18,260721,,,D*44
$GPGGA,140536.750,3554.7564,N,08403.5420,W,2,09,0.91,286.4,M,-32.1,M,0000,0000*55
$GPRMC,140537.000,A,3554.7565,N,08403.5420,W,0.00,0.00,260721,,,D*77
$GPGGA,140537.250,3554.7565,N,08403.5420,W,2,09,0.91,286.4,M,-32.1,M,0000,0000*50
$GPRMC,140537.500,A,3554.7565,N,08403.5419,W,0.01,20.67,260721,,,D*4A
$GPGGA,140537.750,3554.7565,N,08403.5418,W,2,09,0.91,286.4,M,-32.1,M,0000,0000*5E
$GPRMC,140538.000,A,3554.7565,N,08403.5418,W,0.01,98.91,260721,,,D*4B
$GPGGA,140538.250,3554.7565,N,08403.5417,W,2,09,0.91,286.3,M,-32.1,M,0000,0000*5C
$GPRMC,140538.500,A,3554.7565,N,08403.5416,W,0.01,109.64,260721,,,D*73
$GPGGA,140538.750,3554.7565,N,08403.5415,W,2,09,0.91,286.3,M,-32.1,M,0000,0000*5B
$GPRMC,140539.000,A,3554.7565,N,08403.5414,W,0.01,82.81,260721,,,D*4C
$GPGGA,140539.250,3554.7565,N,08403.5414,W,2,09,0.91,286.3,M,-32.1,M,0000,0000*5E
$GPRMC,140539.500,A,3554.7565,N,08403.5413,W,0.00,41.05,260721,,,D*4C
$GPGGA,140539.750,3554.7565,N,08403.5413,W,2,09,0.91,286.3,M,-32.1,M,0000,0000*5C
$GPRMC,140540.000,A,3554.7565,N,08403.5412,W,0.00,109.49,260721,,,D*73
$GPGGA,140540.250,3554.7565,N,08403.5412,W,2,09,0.91,286.3,M,-32.1,M,0000,0000*56
$GPRMC,140540.500,A,3554.7565,N,08403.5412,W,0.00,203.10,260721,,,D*73
$GPGGA,140540.750,3554.7565,N,08403.5411,W,2,09,0.91,286.2,M,-32.1,M,0000,0000*51
$GPRMC,140541.000,A,3554.7565,N,08403.5411,W,0.00,356.74,260721,,,D*77
$GPGGA,140541.250,3554.7565,N,08403.5411,W,2,09,0.91,286.2,M,-32.1,M,0000,0000*55
$GPRMC,140541.500,A,3554.7565,N,08403.5411,W,0.01,181.06,260721,,,D*7E
$GPGGA,140541.750,3554.7565,N,08403.5410,W,2,09,0.91,286.1,M,-32.1,M,0000,0000*52
$GPRMC,140542.000,A,3554.7565,N,08403.5410,W,0.01,100.78,260721,,,D*79
$GPGGA,140542.250,3554.7565,N,08403.5409,W,2,09,0.91,286.1,M,-32.1,M,0000,0000*5C
$GPRMC,140542.500,A,3554.7565,N,08403.5409,W,0.00,103.24,260721,,,D*7F
$GPGGA,140542.750,3554.7565,N,08403.5409,W,2,09,0.91,286.0,M,-32.1,M,0000,0000*58
$GPRMC,140543.000,A,3554.7565,N,08403.5408,W,0.00,165.75,260721,,,D*7E
$GPGGA,140543.250,3554.7565,N,08403.5408,W,2,09,0.91,285.9,M,-32.1,M,0000,0000*57
$GPRMC,140543.500,A,3554.7565,N,08403.5408,W,0.00,57.12,260721,,,D*4A
$GPGGA,140543.750,3554.7565,N,08403.5408,W,2,09,0.91,285.9,M,-32.1,M,0000,0000*52
$GPRMC,140544.000,A,3554.7566,N,08403.5408,W,0.01,6.77,260721,,,D*7D
$GPGGA,140544.250,3554.7566,N,08403.5408,W,2,09,0.91,285.8,M,-32.1,M,0000,0000*52
$GPRMC,140544.500,A,3554.7566,N,08403.5408,W,0.00,82.58,260721,,,D*48
$GPGGA,140544.750,3554.7566,N,08403.5408,W,2,09,0.91,285.8,M,-32.1,M,0000,0000*57
$GPRMC,140545.000,A,3554.7566,N,08403.5407,W,0.01,46.76,260721,,,D*46
$GPGGA,140545.250,3554.7567,N,08403.5407,W,2,09,0.91,285.8,M,-32.1,M,0000,0000*5D
$GPRMC,140545.500,A,3554.7567,N,08403.5407,W,0.00,341.49,260721,,,D*7B
$GPGGA,140545.750,3554.7567,N,08403.5407,W,2,09,0.91,285.8,M,-32.1,M,0000,0000*58
$GPRMC,140546.000,A,3554.7568,N,08403.5406,W,0.01,64.66,260721,,,D*4B
$GPGGA,140546.250,3554.7568,N,08403.5406,W,2,09,0.91,285.7,M,-32.1,M,0000,0000*5F
$GPRMC,140546.500,A,3554.7568,N,08403.5406,W,0.01,22.16,260721,,,D*4B
$GPGGA,140546.750,3554.7569,N,08403.5406,W,2,09,0.91,285.7,M,-32.1,M,0000,0000*5B
$GPRMC,140547.000,A,3554.7569,N,08403.5406,W,0.00,21.87,260721,,,D*44
$GPGGA,140547.250,3554.7569,N,08403.5405,W,2,09,0.91,285.7,M,-32.1,M,0000,0000*5C
$GPRMC,140547.500,A,3554.7570,N,08403.5405,W,0.01,18.35,260721,,,D*48
$GPGGA,140547.750,3554.7570,N,08403.5405,W,2,09,0.91,285.7,M,-32.1,M,0000,0000*51
$GPRMC,140548.000,A,3554.7570,N,08403.5406,W,0.01,312.87,260721,,,D*71
$GPGGA,140548.250,3554.7570,N,08403.5406,W,2,09,0.91,285.7,M,-32.1,M,0000,0000*58
$GPRMC,140548.500,A,3554.7571,N,08403.5406,W,0.01,326.25,260721,,,D*7A
$GPGGA,140548.750,3554.7571,N,08403.5406,W,2,09,0.91,285.8,M,-32.1,M,0000,0000*53
$GPRMC,140549.000,A,3554.7571,N,08403.5406,W,0.00,0.00,260721,,,D*7F
$GPGGA,140549.250,3554.7571,N,08403.5406,W,2,09,0.91,285.7,M,-32.1,M,0000,0000*58
$GPRMC,140549.500,A,3554.7572,N,08403.5406,W,0.01,358.54,260721,,,D*77
$GPGGA,140549.750,3554.7572,N,08403.5406,W,2,09,0.91,285.7,M,-32.1,M,0000,0000*5E
$GPRMC,140550.000,A,3554.7572,N,08403.5406,W,0.00,224.38,260721,,,D*7B
$GPGGA,140550.250,3554.7572,N,08403.5406,W,2,09,0.91,285.7,M,-32.1,M,0000,0000*53
$GPRMC,140550.500,A,3554.7572,N,08403.5406,W,0.00,324.50,260721,,,D*71
$GPGGA,140550.750,3554.7572,N,08403.5406,W,2,09,0.91,285.7,M,-32.1,M,0000,0000*56
$GPRMC,140551.000,A,3554.7572,N,08403.5406,W,0.01,197.98,260721,,,D*7A
$GPGGA,140551.250,3554.7572,N,08403.5406,W,2,09,0.91,285.7,M,-32.1,M,0000,0000*52
$GPRMC,140551.500,A,3554.7572,N,08403.5407,W,0.01,330.51,260721,,,D*74
$GPGGA,140551.750,3554.7573,N,08403.5407,W,2,09,0.91,285.7,M,-32.1,M,0000,0000*57
$GPRMC,140552.000,A,3554.7573,N,08403.5407,W,0.00,198.74,260721,,,D*75
$GPGGA,140552.250,3554.7572,N,08403.5407,W,2,09,0.91,285.7,M,-32.1,M,0000,0000*50
$GPRMC,140552.500,A,3554.7572,N,08403.5408,W,0.01,273.89,260721,,,D*7B
$GPGGA,140552.750,3554.7573,N,08403.5408,W,2,08,1.00,285.6,M,-32.1,M,0000,0000*52
$GPRMC,140553.000,A,3554.7573,N,08403.5408,W,0.01,353.94,260721,,,D*71
$GPGGA,140553.250,3554.7573,N,08403.5408,W,2,08,1.00,285.6,M,-32.1,M,0000,0000*56
$GPRMC,140553.500,A,3554.7572,N,08403.5409,W,0.02,222.35,260721,,,D*7B
$GPGGA,140553.750,3554.7571,N,08403.5411,W,2,08,1.00,285.2,M,-32.1,M,0000,0000*5D
$GPRMC,140554.000,A,3554.7570,N,08403.5412,W,0.02,233.38,260721,,,D*7C
$GPGGA,140554.250,3554.7570,N,08403.5413,W,2,08,1.00,284.9,M,-32.1,M,0000,0000*56
$GPRMC,140554.500,A,3554.7570,N,08403.5414,W,0.01,234.78,260721,,,D*7F
$GPGGA,140554.750,3554.7569,N,08403.5414,W,2,08,1.00,284.9,M,-32.1,M,0000,0000*5C
$GPRMC,140555.000,A,3554.7569,N,08403.5415,W,0.01,253.93,260721,,,D*76
$GPGGA,140555.250,3554.7569,N,08403.5415,W,2,08,1.00,284.8,M,-32.1,M,0000,0000*58
$GPRMC,140555.500,A,3554.7569,N,08403.5416,W,0.00,84.90,260721,,,D*4A
$GPGGA,140555.750,3554.7569,N,08403.5416,W,2,08,1.00,284.8,M,-32.1,M,0000,0000*5E
$GPRMC,140556.000,A,3554.7569,N,08403.5416,W,0.00,253.25,260721,,,D*7A
$GPGGA,140556.250,3554.7569,N,08403.5416,W,2,08,1.00,284.8,M,-32.1,M,0000,0000*58
$GPRMC,140556.500,A,3554.7569,N,08403.5416,W,0.01,241.50,260721,,,D*7F
$GPGGA,140556.750,3554.7569,N,08403.5416,W,2,08,1.00,284.8,M,-32.1,M,0000,0000*5D
$GPRMC,140557.000,A,3554.7569,N,08403.5416,W,0.01,230.17,260721,,,D*7E
$GPGGA,140557.250,3554.7569,N,08403.5416,W,2,08,1.00,284.8,M,-32.1,M,0000,0000*59
$GPRMC,140557.500,A,3554.7569,N,08403.5416,W,0.01,159.65,260721,,,D*72
$GPGGA,140557.750,3554.7569,N,08403.5416,W,2,08,1.00,284.8,M,-32.1,M,0000,0000*5C
$GPRMC,140558.000,A,3554.7569,N,08403.5416,W,0.01,68.02,260721,,,D*4A
$GPGGA,140558.250,3554.7569,N,08403.5416,W,2,08,1.00,284.8,M,-32.1,M,0000,0000*56
$GPRMC,140558.500,A,3554.7569,N,08403.5416,W,0.00,0.00,260721,,,D*72
$GPGGA,140558.750,3554.7569,N,08403.5416,W,2,08,1.00,284.8,M,-32.1,M,0000,0000*53
$GPRMC,140559.000,A,3554.7569,N,08403.5416,W,0.00,190.34,260721,,,D*79
$GPGGA,140559.250,3554.7569,N,08403.5416,W,2,08,1.00,284.8,M,-32.1,M,0000,0000*57
$GPRMC,140559.500,A,3554.7569,N,08403.5416,W,0.00,348.54,260721,,,D*7D
$GPGGA,140559.750,3554.7569,N,08403.5416,W,2,08,1.00,284.8,M,-32.1,M,0000,0000*52
$GPRMC,140600.000,A,3554.7569,N,08403.5416,W,0.01,158.77,260721,,,D*74
$GPGGA,140600.250,3554.7569,N,08403.5416,W,2,08,1.00,284.8,M,-32.1,M,0000,0000*58
$GPRMC,140600.500,A,3554.7569,N,08403.5416,W,0.00,63.44,260721,,,D*49
$GPGGA,140600.750,3554.7569,N,08403.5416,W,2,08,1.00,284.8,M,-32.1,M,0000,0000*5D
$GPRMC,140601.000,A,3554.7569,N,08403.5416,W,0.01,329.66,260721,,,D*71
$GPGGA,140601.250,3554.7569,N,08403.5416,W,2,08,1.00,284.8,M,-32.1,M,0000,0000*59
$GPRMC,140601.500,A,3554.7569,N,08403.5416,W,0.01,277.10,260721,,,D*7F
$GPGGA,140601.750,3554.7569,N,08403.5416,W,2,08,1.00,284.7,M,-32.1,M,0000,0000*53
$GPRMC,140602.000,A,3554.7569,N,08403.5416,W,0.00,164.15,260721,,,D*7C
$GPGGA,140602.250,3554.7569,N,08403.5416,W,2,08,1.00,284.7,M,-32.1,M,0000,0000*55
$GPRMC,140602.500,A,3554.7569,N,08403.5416,W,0.01,355.98,260721,,,D*7D
$GPGGA,140602.750,3554.7569,N,08403.5416,W,2,08,1.00,284.7,M,-32.1,M,0000,0000*50
$GPRMC,140603.000,A,3554.7569,N,08403.5416,W,0.01,318.34,260721,,,D*76
$GPGGA,140603.250,3554.7569,N,08403.5416,W,2,08,1.00,284.7,M,-32.1,M,0000,0000*54
$GPRMC,140603.500,A,3554.7569,N,08403.5416,W,0.01,271.55,260721,,,D*7A
$GPGGA,140603.750,3554.7569,N,08403.5416,W,2,08,1.00,284.7,M,-32.1,M,0000,0000*51
$GPRMC,140604.000,A,3554.7569,N,08403.5416,W,0.01,303.20,260721,,,D*7E
$GPGGA,140604.250,3554.7569,N,08403.5416,W,2,08,1.00,284.7,M,-32.1,M,0000,0000*53
$GPRMC,140604.500,A,3554.7569,N,08403.5416,W,0.00,261.26,260721,,,D*79
$GPGGA,140604.750,3554.7569,N,08403.5416,W,2,08,1.00,284.7,M,-32.1,M,0000,0000*56
$GPRMC,140605.000,A,3554.7569,N,08403.5416,W,0.00,343.99,260721,,,D*78
$GPGGA,140605.250,3554.7569,N,08403.5416,W,2,08,1.00,284.7,M,-32.1,M,0000,0000*52
$GPRMC,140605.500,A,3554.7569,N,08403.5416,W,0.01,222.86,260721,,,D*74
$GPGGA,140605.750,3554.7569,N,08403.5416,W,2,08,1.00,284.7,M,-32.1,M,0000,0000*57
$GPRMC,140606.000,A,3554.7569,N,08403.5416,W,0.00,171.55,260721,,,D*78
$GPGGA,140606.250,3554.7569,N,08403.5416,W,2,08,1.00,284.7,M,-32.1,M,0000,0000*51
$GPRMC,140606.500,A,3554.7569,N,08403.5416,W,0.01,9.29,260721,,,D*79
$GPGGA,140606.750,3554.7569,N,08403.5416,W,2,08,1.00,284.7,M,-32.1,M,0000,0000*54
$GPRMC,140607.000,A,3554.7569,N,08403.5416,W,0.01,48.84,260721,,,D*4F
$GPGGA,140607.250,3554.7569,N,08403.5416,W,2,08,1.00,284.7,M,-32.1,M,0000,0000*50
$GPRMC,140607.500,A,3554.7569,N,08403.5416,W,0.00,157.54,260721,,,D*79
$GPGGA,140607.750,3554.7569,N,08403.5416,W,2,08,1.00,284.7,M,-32.1,M,0000,0000*55
$GPRMC,140608.000,A,3554.7569,N,08403.5416,W,0.01,11.28,260721,,,D*4A
$GPGGA,140608.250,3554.7569,N,08403.5416,W,2,09,0.91,284.7,M,-32.1,M,0000,0000*57
$GPRMC,140608.500,A,3554.7569,N,08403.5416,W,0.00,87.64,260721,,,D*49
$GPGGA,140608.750,3554.7569,N,08403.5416,W,2,09,0.91,284.7,M,-32.1,M,0000,0000*52
$GPRMC,140609.000,A,3554.7569,N,08403.5416,W,0.01,293.22,260721,,,D*79
$GPGGA,140609.250,3554.7569,N,08403.5416,W,2,09,0.91,284.7,M,-32.1,M,0000,0000*56
$GPRMC,140609.500,A,3554.7569,N,08403.5416,W,0.01,301.69,260721,,,D*79
$GPGGA,140609.750,3554.7569,N,08403.5416,W,2,09,0.91,284.7,M,-32.1,M,0000,0000*53
$GPRMC,140610.000,A,3554.7569,N,08403.5416,W,0.01,279.89,260721,,,D*74
$GPGGA,140610.250,3554.7569,N,08403.5417,W,2,09,0.91,284.6,M,-32.1,M,0000,0000*5E
$GPRMC,140610.500,A,3554.7569,N,08403.5418,W,0.01,253.32,260721,,,D*77
$GPGGA,140610.750,3554.7569,N,08403.5418,W,2,09,0.91,284.3,M,-32.1,M,0000,0000*51
$GPRMC,140611.000,A,3554.7568,N,08403.5419,W,0.01,240.15,260721,,,D*74
$GPGGA,140611.250,3554.7568,N,08403.5419,W,2,09,0.91,284.0,M,-32.1,M,0000,0000*56
$GPRMC,140611.500,A,3554.7568,N,08403.5419,W,0.00,9.18,260721,,,D*72
$GPGGA,140611.750,3554.7568,N,08403.5419,W,2,09,0.91,283.8,M,-32.1,M,0000,0000*5C
$GPRMC,140612.000,A,3554.7568,N,08403.5420,W,0.01,232.21,260721,,,D*7F
$GPGGA,140612.250,3554.7568,N,08403.5420,W,2,09,0.91,283.6,M,-32.1,M,0000,0000*5E
$GPRMC,140612.500,A,3554.7568,N,08403.5421,W,0.00,20.95,260721,,,D*44
$GPGGA,140612.750,3554.7568,N,08403.5421,W,2,09,0.91,283.4,M,-32.1,M,0000,0000*58
$GPRMC,140613.000,A,3554.7568,N,08403.5421,W,0.00,14.05,260721,,,D*4E
$GPGGA,140613.250,3554.7568,N,08403.5421,W,2,09,0.91,283.2,M,-32.1,M,0000,0000*5A
$GPRMC,140613.500,A,3554.7568,N,08403.5421,W,0.01,209.86,260721,,,D*7F
$GPGGA,140613.750,3554.7567,N,08403.5422,W,2,09,0.91,283.0,M,-32.1,M,0000,0000*51
$GPRMC,140614.000,A,3554.7567,N,08403.5422,W,0.01,217.09,260721,,,D*79
$GPGGA,140614.250,3554.7568,N,08403.5422,W,2,09,0.91,282.9,M,-32.1,M,0000,0000*54
$GPRMC,140614.500,A,3554.7567,N,08403.5422,W,0.01,131.81,260721,,,D*7B
$GPGGA,140614.750,3554.7567,N,08403.5422,W,2,09,0.91,282.7,M,-32.1,M,0000,0000*50
$GPRMC,140615.000,A,3554.7567,N,08403.5423,W,0.00,246.60,260721,,,D*73
$GPGGA,140615.250,3554.7567,N,08403.5423,W,2,09,0.91,282.6,M,-32.1,M,0000,0000*54
$GPRMC,140615.500,A,3554.7568,N,08403.5424,W,0.01,302.52,260721,,,D*7F
$GPGGA,140615.750,3554.7567,N,08403.5424,W,2,09,0.91,282.5,M,-32.1,M,0000,0000*55
$GPRMC,140616.000,A,3554.7568,N,08403.5424,W,0.00,328.49,260721,,,D*7A
$GPGGA,140616.250,3554.7567,N,08403.5424,W,2,09,0.91,282.4,M,-32.1,M,0000,0000*52
$GPRMC,140616.500,A,3554.7567,N,08403.5424,W,0.00,237.89,260721,,,D*73
$GPGGA,140616.750,3554.7567,N,08403.5424,W,2,09,0.91,282.3,M,-32.1,M,0000,0000*50
$GPRMC,140617.000,A,3554.7567,N,08403.5424,W,0.00,311.73,260721,,,D*77
$GPGGA,140617.250,3554.7567,N,08403.5424,W,2,09,0.91,282.3,M,-32.1,M,0000,0000*54
$GPRMC,140617.500,A,3554.7567,N,08403.5425,W,0.00,24.65,260721,,,D*41
$GPGGA,140617.750,3554.7567,N,08403.5425,W,2,08,1.00,282.2,M,-32.1,M,0000,0000*59
$GPRMC,140618.000,A,3554.7567,N,08403.5425,W,0.00,178.92,260721,,,D*7B
$GPGGA,140618.250,3554.7567,N,08403.5425,W,2,08,1.00,282.1,M,-32.1,M,0000,0000*50
$GPRMC,140618.500,A,3554.7568,N,08403.5426,W,0.01,320.03,260721,,,D*74
$GPGGA,140618.750,3554.7568,N,08403.5426,W,2,08,1.00,282.0,M,-32.1,M,0000,0000*58
$GPRMC,140619.000,A,3554.7568,N,08403.5426,W,0.00,346.57,260721,,,D*70
$GPGGA,140619.250,3554.7568,N,08403.5426,W,2,08,1.00,281.9,M,-32.1,M,0000,0000*56
$GPRMC,140619.500,A,3554.7568,N,08403.5427,W,0.00,246.18,260721,,,D*7E
$GPGGA,140619.750,3554.7568,N,08403.5427,W,2,08,1.00,281.8,M,-32.1,M,0000,0000*53
$GPRMC,140620.000,A,3554.7568,N,08403.5427,W,0.01,71.28,260721,,,D*45
$GPGGA,140620.250,3554.7568,N,08403.5427,W,2,08,1.00,281.6,M,-32.1,M,0000,0000*52
$GPRMC,140620.500,A,3554.7568,N,08403.5428,W,0.00,309.71,260721,,,D*7E
$GPGGA,140620.750,3554.7568,N,08403.5428,W,2,08,1.00,281.6,M,-32.1,M,0000,0000*58
$GPRMC,140621.000,A,3554.7569,N,08403.5428,W,0.00,324.16,260721,,,D*75
$GPGGA,140621.250,3554.7569,N,08403.5428,W,2,08,1.00,281.5,M,-32.1,M,0000,0000*5E
$GPRMC,140621.500,A,3554.7569,N,08403.5429,W,0.01,239.45,260721,,,D*7B
$GPGGA,140621.750,3554.7569,N,08403.5429,W,2,08,1.00,281.5,M,-32.1,M,0000,0000*5A
$GPRMC,140622.000,A,3554.7569,N,08403.5429,W,0.01,245.33,260721,,,D*77
$GPGGA,140622.250,3554.7569,N,08403.5429,W,2,08,1.00,281.4,M,-32.1,M,0000,0000*5D
$GPRMC,140622.500,A,3554.7569,N,08403.5430,W,0.00,0.00,260721,,,D*78
$GPGGA,140622.750,3554.7569,N,08403.5430,W,2,08,1.00,281.4,M,-32.1,M,0000,0000*50
$GPRMC,140623.000,A,3554.7569,N,08403.5430,W,0.01,332.12,260721,,,D*7C
$GPGGA,140623.250,3554.7569,N,08403.5430,W,2,08,1.00,281.4,M,-32.1,M,0000,0000*54
$GPRMC,140623.500,A,3554.7569,N,08403.5431,W,0.01,53.87,260721,,,D*40
$GPGGA,140623.750,3554.7570,N,08403.5431,W,2,08,1.00,281.4,M,-32.1,M,0000,0000*58
$GPRMC,140624.000,A,3554.7570,N,08403.5431,W,0.01,296.87,260721,,,D*71
$GPGGA,140624.250,3554.7570,N,08403.5432,W,2,08,1.00,281.4,M,-32.1,M,0000,0000*59
$GPRMC,140624.500,A,3554.7570,N,08403.5432,W,0.01,342.82,260721,,,D*7A
$GPGGA,140624.750,3554.7570,N,08403.5433,W,2,08,1.00,281.5,M,-32.1,M,0000,0000*5C
$GPRMC,140625.000,A,3554.7570,N,08403.5433,W,0.00,269.54,260721,,,D*7D
$GPGGA,140625.250,3554.7570,N,08403.5433,W,2,08,1.00,281.5,M,-32.1,M,0000,0000*58
$GPRMC,140625.500,A,3554.7570,N,08403.5433,W,0.00,253.28,260721,,,D*7A
$GPGGA,140625.750,3554.7570,N,08403.5433,W,2,08,1.00,281.5,M,-32.1,M,0000,0000*5D
$GPRMC,140626.000,A,3554.7570,N,08403.5433,W,0.01,289.56,260721,,,D*73
$GPGGA,140626.250,3554.7570,N,08403.5433,W,2,08,1.00,281.5,M,-32.1,M,0000,0000*5B
$GPRMC,140626.500,A,3554.7570,N,08403.5433,W,0.00,314.71,260721,,,D*77
$GPGGA,140626.750,3554.7570,N,08403.5433,W,2,08,1.00,281.5,M,-32.1,M,0000,0000*5E
$GPRMC,140627.000,A,3554.7570,N,08403.5433,W,0.02,231.25,260721,,,D*76
$GPGGA,140627.250,3554.7570,N,08403.5433,W,2,08,1.00,281.5,M,-32.1,M,0000,0000*5A
$GPRMC,140627.500,A,3554.7570,N,08403.5433,W,0.00,194.84,260721,,,D*76
$GPGGA,140627.750,3554.7570,N,08403.5433,W,2,08,1.00,281.5,M,-32.1,M,0000,0000*5F
$GPRMC,140628.000,A,3554.7570,N,08403.5433,W,0.01,348.30,260721,,,D*71
$GPGGA,140628.250,3554.7570,N,08403.5433,W,2,08,1.00,281.5,M,-32.1,M,0000,0000*55
$GPRMC,140628.500,A,3554.7570,N,08403.5433,W,0.00,0.00,260721,,,D*79
$GPGGA,140628.750,3554.7570,N,08403.5433,W,2,08,1.00,281.5,M,-32.1,M,0000,0000*50
$GPRMC,140629.000,A,3554.7570,N,08403.5433,W,0.01,267.75,260721,,,D*7D
$GPGGA,140629.250,3554.7570,N,08403.5433,W,2,08,1.00,281.5,M,-32.1,M,0000,0000*54
$GPRMC,140629.500,A,3554.7570,N,08403.5433,W,0.01,207.70,260721,,,D*7B
$GPGGA,140629.750,3554.7570,N,08403.5433,W,2,08,1.00,281.5,M,-32.1,M,0000,0000*51
$GPRMC,140630.000,A,3554.7570,N,08403.5433,W,0.01,216.22,260721,,,D*71
$GPGGA,140630.250,3554.7570,N,08403.5433,W,2,08,1.00,281.5,M,-32.1,M,0000,0000*5C
$GPRMC,140630.500,A,3554.7570,N,08403.5433,W,0.01,215.86,260721,,,D*79
$GPGGA,140630.750,3554.7570,N,08403.5433,W,2,08,1.00,281.5,M,-32.1,M,0000,0000*59
$GPRMC,140631.000,A,3554.7570,N,08403.5433,W,0.01,199.03,260721,,,D*77
$GPGGA,140631.250,3554.7570,N,08403.5433,W,2,08,1.00,281.5,M,-32.1,M,0000,0000*5D
$GPRMC,140631.500,A,3554.7570,N,08403.5433,W,0.00,201.22,260721,,,D*72
$GPGGA,140631.750,3554.7570,N,08403.5433,W,2,08,1.00,281.5,M,-32.1,M,0000,0000*58
$GPRMC,140632.000,A,3554.7570,N,08403.5433,W,0.01,258.53,260721,,,D*7F
$GPGGA,140632.250,3554.7570,N,08403.5433,W,2,08,1.00,281.5,M,-32.1,M,0000,0000*5E
$GPRMC,140632.500,A,3554.7570,N,08403.5433,W,0.00,257.39,260721,,,D*78
$GPGGA,140632.750,3554.7570,N,08403.5433,W,2,08,1.00,281.5,M,-32.1,M,0000,0000*5B
$GPRMC,140633.000,A,3554.7570,N,08403.5433,W,0.01,226.20,260721,,,D*73
$GPGGA,140633.250,3554.7570,N,08403.5433,W,2,08,1.00,281.5,M,-32.1,M,0000,0000*5F
$GPRMC,140633.500,A,3554.7570,N,08403.5433,W,0.01,227.02,260721,,,D*77
$GPGGA,140633.750,3554.7570,N,08403.5433,W,2,08,1.00,281.5,M,-32.1,M,0000,0000*5A
$GPRMC,140634.000,A,3554.7570,N,08403.5434,W,0.01,255.44,260721,,,D*75
$GPGGA,140634.250,3554.7569,N,08403.5435,W,2,08,1.00,281.7,M,-32.1,M,0000,0000*54
$GPRMC,140634.500,A,3554.7569,N,08403.5436,W,0.01,233.40,260721,,,D*7E
$GPGGA,140634.750,3554.7569,N,08403.5436,W,2,08,1.00,281.8,M,-32.1,M,0000,0000*5D
$GPRMC,140635.000,A,3554.7568,N,08403.5437,W,0.00,15.01,260721,,,D*48
$GPGGA,140635.250,3554.7568,N,08403.5438,W,2,08,1.00,282.0,M,-32.1,M,0000,0000*5D
$GPRMC,140635.500,A,3554.7568,N,08403.5438,W,0.01,291.71,260721,,,D*7A
$GPGGA,140635.750,3554.7568,N,08403.5439,W,2,08,1.00,282.1,M,-32.1,M,0000,0000*58
$GPRMC,140636.000,A,3554.7567,N,08403.5440,W,0.01,234.15,260721,,,D*71
$GPGGA,140636.250,3554.7567,N,08403.5440,W,2,08,1.00,282.3,M,-32.1,M,0000,0000*5D
$GPRMC,140636.500,A,3554.7567,N,08403.5441,W,0.01,278.82,260721,,,D*73
$GPGGA,140636.750,3554.7566,N,08403.5442,W,2,08,1.00,282.4,M,-32.1,M,0000,0000*5C
$GPRMC,140637.000,A,3554.7566,N,08403.5443,W,0.01,260.41,260721,,,D*72
$GPGGA,140637.250,3554.7566,N,08403.5443,W,2,08,1.00,282.6,M,-32.1,M,0000,0000*5B
$GPRMC,140637.500,A,3554.7565,N,08403.5444,W,0.01,230.28,260721,,,D*79
$GPGGA,140637.750,3554.7565,N,08403.5444,W,2,08,1.00,282.7,M,-32.1,M,0000,0000*5B
$GPRMC,140638.000,A,3554.7565,N,08403.5445,W,0.01,270.30,260721,,,D*7F
$GPGGA,140638.250,3554.7565,N,08403.5445,W,2,08,1.00,282.8,M,-32.1,M,0000,0000*5F
$GPRMC,140638.500,A,3554.7565,N,08403.5446,W,0.01,269.62,260721,,,D*76
$GPGGA,140638.750,3554.7565,N,08403.5447,W,2,08,1.00,282.9,M,-32.1,M,0000,0000*59
$GPRMC,140639.000,A,3554.7564,N,08403.5447,W,0.01,240.97,260721,,,D*73
$GPGGA,140639.250,3554.7564,N,08403.5447,W,2,08,1.00,282.9,M,-32.1,M,0000,0000*5C
$GPRMC,140639.500,A,3554.7565,N,08403.5448,W,0.01,347.92,260721,,,D*7B
$GPGGA,140639.750,3554.7565,N,08403.5448,W,2,08,1.00,282.9,M,-32.1,M,0000,0000*57
$GPRMC,140640.000,A,3554.7565,N,08403.5448,W,0.00,289.34,260721,,,D*7E
$GPGGA,140640.250,3554.7565,N,08403.5449,W,2,09,0.91,282.8,M,-32.1,M,0000,0000*54
$GPRMC,140640.500,A,3554.7565,N,08403.5449,W,0.00,120.47,260721,,,D*7E
$GPGGA,140640.750,3554.7565,N,08403.5449,W,2,09,0.91,282.8,M,-32.1,M,0000,0000*51
$GPRMC,140641.000,A,3554.7565,N,08403.5450,W,0.01,308.89,260721,,,D*79
$GPGGA,140641.250,3554.7565,N,08403.5450,W,2,09,0.91,282.7,M,-32.1,M,0000,0000*52
$GPRMC,140641.500,A,3554.7565,N,08403.5450,W,0.01,186.10,260721,,,D*78
$GPGGA,140641.750,3554.7565,N,08403.5450,W,2,09,0.91,282.6,M,-32.1,M,0000,0000*56
$GPRMC,140642.000,A,3554.7565,N,08403.5451,W,0.01,315.94,260721,,,D*7B
$GPGGA,140642.250,3554.7565,N,08403.5451,W,2,09,0.91,282.5,M,-32.1,M,0000,0000*52
$GPRMC,140642.500,A,3554.7565,N,08403.5451,W,0.00,259.65,260721,,,D*78
$GPGGA,140642.750,3554.7566,N,08403.5452,W,2,09,0.91,282.4,M,-32.1,M,0000,0000*56
$GPRMC,140643.000,A,3554.7566,N,08403.5452,W,0.00,0.00,260721,,,D*71
$GPGGA,140643.250,3554.7566,N,08403.5452,W,2,09,0.91,282.3,M,-32.1,M,0000,0000*55
$GPRMC,140643.500,A,3554.7566,N,08403.5452,W,0.00,122.85,260721,,,D*78
$GPGGA,140643.750,3554.7566,N,08403.5453,W,2,09,0.91,282.3,M,-32.1,M,0000,0000*51
$GPRMC,140644.000,A,3554.7566,N,08403.5453,W,0.01,259.19,260721,,,D*70
$GPGGA,140644.250,3554.7566,N,08403.5454,W,2,09,0.91,282.2,M,-32.1,M,0000,0000*55
$GPRMC,140644.500,A,3554.7567,N,08403.5454,W,0.01,325.92,260721,,,D*7A
$GPGGA,140644.750,3554.7567,N,08403.5455,W,2,09,0.91,282.2,M,-32.1,M,0000,0000*50
$GPRMC,140645.000,A,3554.7567,N,08403.5455,W,0.01,298.86,260721,,,D*7D
$GPGGA,140645.250,3554.7567,N,08403.5456,W,2,09,0.91,282.2,M,-32.1,M,0000,0000*57
$GPRMC,140645.500,A,3554.7567,N,08403.5456,W,0.00,116.38,260721,,,D*7A
$GPGGA,140645.750,3554.7568,N,08403.5456,W,2,09,0.91,282.1,M,-32.1,M,0000,0000*5E
$GPRMC,140646.000,A,3554.7568,N,08403.5457,W,0.00,0.00,260721,,,D*7F
$GPGGA,140646.250,3554.7568,N,08403.5457,W,2,09,0.91,282.1,M,-32.1,M,0000,0000*59
$GPRMC,140646.500,A,3554.7568,N,08403.5458,W,0.01,287.11,260721,,,D*79
$GPGGA,140646.750,3554.7568,N,08403.5458,W,2,09,0.91,282.1,M,-32.1,M,0000,0000*53
$GPRMC,140647.000,A,3554.7569,N,08403.5459,W,0.02,279.36,260721,,,D*7A
$GPGGA,140647.250,3554.7569,N,08403.5459,W,2,09,0.91,282.1,M,-32.1,M,0000,0000*57
$GPRMC,140647.500,A,3554.7569,N,08403.5460,W,0.00,342.07,260721,,,D*7C
$GPGGA,140647.750,3554.7569,N,08403.5460,W,2,09,0.91,282.2,M,-32.1,M,0000,0000*5B
$GPRMC,140648.000,A,3554.7569,N,08403.5460,W,0.00,298.83,260721,,,D*7C
$GPGGA,140648.250,3554.7570,N,08403.5461,W,2,09,0.91,282.2,M,-32.1,M,0000,0000*58
$GPRMC,140648.500,A,3554.7570,N,08403.5461,W,0.01,326.84,260721,,,D*72
$GPGGA,140648.750,3554.7570,N,08403.5461,W,2,09,0.91,282.2,M,-32.1,M,0000,0000*5D
$GPRMC,140649.000,A,3554.7570,N,08403.5462,W,0.00,178.05,260721,,,D*74
$GPGGA,140649.250,3554.7570,N,08403.5462,W,2,09,0.91,282.3,M,-32.1,M,0000,0000*5B
$GPRMC,140649.500,A,3554.7570,N,08403.5462,W,0.00,133.74,260721,,,D*78
$GPGGA,140649.750,3554.7570,N,08403.5462,W,2,09,0.91,282.3,M,-32.1,M,0000,0000*5E
$GPRMC,140650.000,A,3554.7570,N,08403.5462,W,0.00,341.96,260721,,,D*7E
$GPGGA,140650.250,3554.7570,N,08403.5463,W,2,09,0.91,282.3,M,-32.1,M,0000,0000*52
$GPRMC,140650.500,A,3554.7570,N,08403.5463,W,0.00,295.04,260721,,,D*79
$GPGGA,140650.750,3554.7570,N,08403.5463,W,2,09,0.91,282.3,M,-32.1,M,0000,0000*57
$GPRMC,140651.000,A,3554.7571,N,08403.5463,W,0.01,64.41,260721,,,D*40
$GPGGA,140651.250,3554.7571,N,08403.5463,W,2,09,0.91,282.4,M,-32.1,M,0000,0000*55
$GPRMC,140651.500,A,3554.7571,N,08403.5464,W,0.01,329.90,260721,,,D*74
$GPGGA,140651.750,3554.7571,N,08403.5464,W,2,09,0.91,282.4,M,-32.1,M,0000,0000*57
$GPRMC,140652.000,A,3554.7571,N,08403.5464,W,0.00,161.71,260721,,,D*72
$GPGGA,140652.250,3554.7571,N,08403.5464,W,2,09,0.91,282.4,M,-32.1,M,0000,0000*51
$GPRMC,140652.500,A,3554.7571,N,08403.5465,W,0.01,275.50,260721,,,D*72
$GPGGA,140652.750,3554.7571,N,08403.5465,W,2,09,0.91,282.4,M,-32.1,M,0000,0000*55
$GPRMC,140653.000,A,3554.7571,N,08403.5465,W,0.00,209.95,260721,,,D*75
$GPGGA,140653.250,3554.7571,N,08403.5465,W,2,09,0.91,282.4,M,-32.1,M,0000,0000*51
$GPRMC,140653.500,A,3554.7571,N,08403.5465,W,0.01,202.02,260721,,,D*74
$GPGGA,140653.750,3554.7571,N,08403.5465,W,2,09,0.91,282.4,M,-32.1,M,0000,0000*54
$GPRMC,140654.000,A,3554.7571,N,08403.5465,W,0.00,351.49,260721,,,D*7F
$GPGGA,140654.250,3554.7571,N,08403.5465,W,2,09,0.91,282.4,M,-32.1,M,0000,0000*56
$GPRMC,140654.500,A,3554.7571,N,08403.5465,W,0.00,174.15,260721,,,D*76
$GPGGA,140654.750,3554.7571,N,08403.5465,W,2,09,0.91,282.4,M,-32.1,M,0000,0000*53
$GPRMC,140655.000,A,3554.7571,N,08403.5465,W,0.01,198.29,260721,,,D*7E
$GPGGA,140655.250,3554.7571,N,08403.5465,W,2,09,0.91,282.4,M,-32.1,M,0000,0000*57
$GPRMC,140655.500,A,3554.7571,N,08403.5465,W,0.00,233.48,260721,,,D*7F
$GPGGA,140655.750,3554.7571,N,08403.5465,W,2,09,0.91,282.4,M,-32.1,M,0000,0000*52
$GPRMC,140656.000,A,3554.7571,N,08403.5465,W,0.01,194.06,260721,,,D*7C
$GPGGA,140656.250,3554.7571,N,08403.5465,W,2,09,0.91,282.4,M,-32.1,M,0000,0000*54
$GPRMC,140656.500,A,3554.7571,N,08403.5465,W,0.00,22.88,260721,,,D*42
$GPGGA,140656.750,3554.7571,N,08403.5465,W,2,09,0.91,282.4,M,-32.1,M,0000,0000*51
$GPRMC,140657.000,A,3554.7571,N,08403.5465,W,0.01,201.51,260721,,,D*70
$GPGGA,140657.250,3554.7571,N,08403.5465,W,2,09,0.91,282.4,M,-32.1,M,0000,0000*55
$GPRMC,140657.500,A,3554.7571,N,08403.5465,W,0.00,96.95,260721,,,D*40
$GPGGA,140657.750,3554.7571,N,08403.5465,W,2,09,0.91,282.4,M,-32.1,M,0000,0000*50
$GPRMC,140658.000,A,3554.7571,N,08403.5465,W,0.01,125.43,260721,,,D*79
$GPGGA,140658.250,3554.7571,N,08403.5465,W,2,09,0.91,282.4,M,-32.1,M,0000,0000*5A
$GPRMC,140658.500,A,3554.7571,N,08403.5465,W,0.00,0.00,260721,,,D*7C
$GPGGA,140658.750,3554.7571,N,08403.5465,W,2,09,0.91,282.4,M,-32.1,M,0000,0000*5F
$GPRMC,140659.000,A,3554.7571,N,08403.5465,W,0.01,61.40,260721,,,D*4A
$GPGGA,140659.250,3554.7571,N,08403.5465,W,2,09,0.91,282.4,M,-32.1,M,0000,0000*5B
$GPRMC,140659.500,A,3554.7571,N,08403.5465,W,0.01,150.79,260721,,,D*76
$GPGGA,140659.750,3554.7571,N,08403.5465,W,2,09,0.91,282.4,M,-32.1,M,0000,0000*5E
$GPRMC,140700.000,A,3554.7571,N,08403.5465,W,0.00,126.25,260721,,,D*77
$GPGGA,140700.250,3554.7571,N,08403.5465,W,2,09,0.91,282.4,M,-32.1,M,0000,0000*56
$GPRMC,140700.500,A,3554.7571,N,08403.5465,W,0.00,89.63,260721,,,D*44
$GPGGA,140700.750,3554.7571,N,08403.5465,W,2,09,0.91,282.4,M,-32.1,M,0000,0000*53
$GPRMC,140701.000,A,3554.7571,N,08403.5465,W,0.00,207.45,260721,,,D*70
$GPGGA,140701.250,3554.7571,N,08403.5465,W,2,09,0.91,282.4,M,-32.1,M,0000,0000*57
$GPRMC,140701.500,A,3554.7571,N,08403.5465,W,0.01,215.18,260721,,,D*7F
$GPGGA,140701.750,3554.7571,N,08403.5465,W,2,09,0.91,282.4,M,-32.1,M,0000,0000*52
$GPRMC,140702.000,A,3554.7571,N,08403.5465,W,0.00,238.45,260721,,,D*7F
$GPGGA,140702.250,3554.7571,N,08403.5465,W,2,09,0.91,282.4,M,-32.1,M,0000,0000*54
$GPRMC,140702.500,A,3554.7571,N,08403.5465,W,0.01,182.04,260721,,,D*7C
$GPGGA,140702.750,3554.7571,N,08403.5465,W,2,09,0.91,282.4,M,-32.1,M,0000,0000*51
$GPRMC,140703.000,A,3554.7571,N,08403.5465,W,0.01,69.37,260721,,,D*4C
$GPGGA,140703.250,3554.7571,N,08403.5465,W,2,09,0.91,282.4,M,-32.1,M,0000,0000*55
$GPRMC,140703.500,A,3554.7571,N,08403.5465,W,0.00,211.67,260721,,,D*70
$GPGGA,140703.750,3554.7571,N,08403.5465,W,2,09,0.91,282.4,M,-32.1,M,0000,0000*50
$GPRMC,140704.000,A,3554.7571,N,08403.5465,W,0.00,167.64,260721,,,D*73
$GPGGA,140704.250,3554.7571,N,08403.5465,W,2,09,0.91,282.4,M,-32.1,M,0000,0000*52
$GPRMC,140704.500,A,3554.7571,N,08403.5465,W,0.01,215.60,260721,,,D*75
$GPGGA,140704.750,3554.7571,N,08403.5465,W,2,09,0.91,282.4,M,-32.1,M,0000,0000*57
$GPRMC,140705.000,A,3554.7571,N,08403.5465,W,0.00,128.28,260721,,,D*71
$GPGGA,140705.250,3554.7571,N,08403.5465,W,2,09,0.91,282.4,M,-32.1,M,0000,0000*53
$GPRMC,140705.500,A,3554.7571,N,08403.5465,W,0.00,95.30,260721,,,D*4A
$GPGGA,140705.750,3554.7571,N,08403.5465,W,2,09,0.91,282.4,M,-32.1,M,0000,0000*56
$GPRMC,140706.000,A,3554.7571,N,08403.5465,W,0.01,143.65,260721,,,D*77
$GPGGA,140706.250,3554.7571,N,08403.5465,W,2,09,0.91,282.4,M,-32.1,M,0000,0000*50
$GPRMC,140706.500,A,3554.7571,N,08403.5465,W,0.01,151.49,260721,,,D*7F
$GPGGA,140706.750,3554.7571,N,08403.5465,W,2,09,0.91,282.4,M,-32.1,M,0000,0000*55
$GPRMC,140707.000,A,3554.7571,N,08403.5465,W,0.01,115.21,260721,,,D*75
$GPGGA,140707.250,3554.7571,N,08403.5465,W,2,09,0.91,282.4,M,-32.1,M,0000,0000*51
$GPRMC,140707.500,A,3554.7571,N,08403.5465,W,0.00,292.72,260721,,,D*7B
$GPGGA,140707.750,3554.7571,N,08403.5465,W,2,09,0.91,282.4,M,-32.1,M,0000,0000*54
$GPRMC,140708.000,A,3554.7571,N,08403.5465,W,0.00,131.85,260721,,,D*73
$GPGGA,140708.250,3554.7571,N,08403.5465,W,2,09,0.91,282.4,M,-32.1,M,0000,0000*5E
$GPRMC,140708.500,A,3554.7571,N,08403.5465,W,0.00,156.38,260721,,,D*71
$GPGGA,140708.750,3554.7571,N,08403.5465,W,2,09,0.91,282.4,M,-32.1,M,0000,0000*5B
$GPRMC,140709.000,A,3554.7571,N,08403.5465,W,0.00,331.59,260721,,,D*71
$GPGGA,140709.250,3554.7571,N,08403.5465,W,2,09,0.91,282.4,M,-32.1,M,0000,0000*5F
$GPRMC,140709.500,A,3554.7571,N,08403.5465,W,0.00,290.53,260721,,,D*74
$GPGGA,140709.750,3554.7570,N,08403.5465,W,2,09,0.91,282.4,M,-32.1,M,0000,0000*5B
$GPRMC,140710.000,A,3554.7570,N,08403.5465,W,0.01,129.64,260721,,,D*7C
$GPGGA,140710.250,3554.7570,N,08403.5465,W,2,09,0.91,282.4,M,-32.1,M,0000,0000*56
$GPRMC,140710.500,A,3554.7570,N,08403.5465,W,0.00,210.38,260721,,,D*78
$GPGGA,140710.750,3554.7570,N,08403.5465,W,2,09,0.91,282.4,M,-32.1,M,0000,0000*53
$GPRMC,140711.000,A,3554.7570,N,08403.5465,W,0.00,5.55,260721,,,D*71
$GPGGA,140711.250,3554.7570,N,08403.5465,W,2,09,0.91,282.4,M,-32.1,M,0000,0000*57
$GPRMC,140711.500,A,3554.7570,N,08403.5465,W,0.02,307.08,260721,,,D*7F
$GPGGA,140711.750,3554.7570,N,08403.5465,W,2,09,0.91,282.4,M,-32.1,M,0000,0000*52
$GPRMC,140712.000,A,3554.7570,N,08403.5465,W,0.01,183.82,260721,,,D*76
$GPGGA,140712.250,3554.7570,N,08403.5465,W,2,09,0.91,282.4,M,-32.1,M,0000,0000*54
$GPRMC,140712.500,A,3554.7570,N,08403.5465,W,0.00,288.25,260721,,,D*77
$GPGGA,140712.750,3554.7570,N,08403.5465,W,2,09,0.91,282.4,M,-32.1,M,0000,0000*51
$GPRMC,140713.000,A,3554.7570,N,08403.5465,W,0.00,227.17,260721,,,D*77
$GPGGA,140713.250,3554.7570,N,08403.5465,W,2,09,0.91,282.4,M,-32.1,M,0000,0000*55
$GPRMC,140713.500,A,3554.7570,N,08403.5465,W,0.01,251.90,260721,,,D*7D
$GPGGA,140713.750,3554.7570,N,08403.5465,W,2,09,0.91,282.4,M,-32.1,M,0000,0000*50
$GPRMC,140714.000,A,3554.7570,N,08403.5465,W,0.01,335.77,260721,,,D*75
$GPGGA,140714.250,3554.7570,N,08403.5465,W,2,09,0.91,282.4,M,-32.1,M,0000,0000*52
$GPRMC,140714.500,A,3554.7570,N,08403.5465,W,0.01,285.21,260721,,,D*79
$GPGGA,140714.750,3554.7570,N,08403.5465,W,2,09,0.91,282.4,M,-32.1,M,0000,0000*57
$GPRMC,140715.000,A,3554.7570,N,08403.5465,W,0.01,169.84,260721,,,D*73
$GPGGA,140715.250,3554.7570,N,08403.5465,W,2,09,0.91,282.4,M,-32.1,M,0000,0000*53
$GPRMC,140715.500,A,3554.7570,N,08403.5465,W,0.02,187.16,260721,,,D*7E
$GPGGA,140715.750,3554.7570,N,08403.5465,W,2,09,0.91,282.4,M,-32.1,M,0000,0000*56
$GPRMC,140716.000,A,3554.7570,N,08403.5465,W,0.01,329.04,260721,,,D*7E
$GPGGA,140716.250,3554.7570,N,08403.5465,W,2,09,0.91,282.4,M,-32.1,M,0000,0000*50
$GPRMC,140716.500,A,3554.7570,N,08403.5465,W,0.00,0.00,260721,,,D*76
$GPGGA,140716.750,3554.7570,N,08403.5465,W,2,09,0.91,282.5,M,-32.1,M,0000,0000*54
$GPRMC,140717.000,A,3554.7570,N,08403.5465,W,0.01,266.55,260721,,,D*71
$GPGGA,140717.250,3554.7570,N,08403.5465,W,2,09,0.91,282.5,M,-32.1,M,0000,0000*50
$GPRMC,140717.500,A,3554.7570,N,08403.5465,W,0.01,190.21,260721,,,D*7D
$GPGGA,140717.750,3554.7570,N,08403.5465,W,2,09,0.91,282.5,M,-32.1,M,0000,0000*55
$GPRMC,140718.000,A,3554.7570,N,08403.5465,W,0.01,148.61,260721,,,D*76
$GPGGA,140718.250,3554.7570,N,08403.5465,W,2,09,0.91,282.5,M,-32.1,M,0000,0000*5F
$GPRMC,140718.500,A,3554.7570,N,08403.5465,W,0.01,124.84,260721,,,D*72
$GPGGA,140718.750,3554.7570,N,08403.5465,W,2,09,0.91,282.6,M,-32.1,M,0000,0000*59
$GPRMC,140719.000,A,3554.7570,N,08403.5465,W,0.00,44.77,260721,,,D*4C
$GPGGA,140719.250,3554.7570,N,08403.5465,W,2,09,0.91,282.6,M,-32.1,M,0000,0000*5D
$GPRMC,140719.500,A,3554.7570,N,08403.5465,W,0.01,129.97,260721,,,D*7C
$GPGGA,140719.750,3554.7570,N,08403.5465,W,2,09,0.91,282.7,M,-32.1,M,0000,0000*59
$GPRMC,140720.000,A,3554.7570,N,08403.5465,W,0.01,63.35,260721,,,D*44
$GPGGA,140720.250,3554.7570,N,08403.5465,W,2,09,0.91,282.8,M,-32.1,M,0000,0000*59
$GPRMC,140720.500,A,3554.7570,N,08403.5465,W,0.01,129.84,260721,,,D*74
$GPGGA,140720.750,3554.7570,N,08403.5465,W,2,09,0.91,282.8,M,-32.1,M,0000,0000*5C
$GPRMC,140721.000,A,3554.7570,N,08403.5465,W,0.00,195.64,260721,,,D*78
$GPGGA,140721.250,3554.7570,N,08403.5465,W,2,09,0.91,282.9,M,-32.1,M,0000,0000*59
$GPRMC,140721.500,A,3554.7570,N,08403.5465,W,0.01,15.27,260721,,,D*42
$GPGGA,140721.750,3554.7570,N,08403.5465,W,2,09,0.91,283.0,M,-32.1,M,0000,0000*54
$GPRMC,140722.000,A,3554.7571,N,08403.5466,W,0.00,318.33,260721,,,D*7C
$GPGGA,140722.250,3554.7571,N,08403.5466,W,2,09,0.91,283.0,M,-32.1,M,0000,0000*50
$GPRMC,140722.500,A,3554.7571,N,08403.5466,W,0.01,281.11,260721,,,D*79
$GPGGA,140722.750,3554.7571,N,08403.5466,W,2,09,0.91,283.1,M,-32.1,M,0000,0000*54
$GPRMC,140723.000,A,3554.7571,N,08403.5466,W,0.00,289.25,260721,,,D*73
$GPGGA,140723.250,3554.7571,N,08403.5466,W,2,09,0.91,283.1,M,-32.1,M,0000,0000*50
$GPRMC,140723.500,A,3554.7571,N,08403.5467,W,0.00,300.93,260721,,,D*7A
$GPGGA,140723.750,3554.7571,N,08403.5467,W,2,09,0.91,283.2,M,-32.1,M,0000,0000*57
$GPRMC,140724.000,A,3554.7571,N,08403.5467,W,0.01,338.28,260721,,,D*72
