Vers 81
USE_SERIAL_FEEDBACK=true
DEVELOPMENT_MODE=false
USE_RMC_ONLY=false

$GPRMC,191326.000,A,4308.4547,N,07726.4592,W,5.40,279.24,180921,,,A*79
$GPGGA,191326.097,4308.4549,N,07726.4589,W,1,03,7.01,182.8,M,-34.4,M,,*51
$GPRMC,191326.500,A,4308.4552,N,07726.4589,W,2.83,287.93,180921,,,A*77
$GPGGA,191326.750,4308.4553,N,07726.4589,W,1,03,7.00,182.6,M,-34.4,M,,*59
$GPRMC,191327.000,A,4308.4555,N,07726.4588,W,1.98,293.80,180921,,,A*7B
$GPGGA,191327.250,4308.4557,N,07726.4586,W,1,03,7.01,182.5,M,-34.4,M,,*54
$GPRMC,191327.500,A,4308.4559,N,07726.4584,W,1.25,316.82,180921,,,A*76
$GPGGA,191327.750,4308.4555,N,07726.4588,W,1,03,7.01,183.4,M,-34.4,M,,*5D
$GPRMC,191328.000,A,4308.4556,N,07726.4587,W,0.90,333.72,180921,,,A*77
$GPGGA,191328.250,4308.4557,N,07726.4585,W,1,03,7.01,183.2,M,-34.4,M,,*5E
$GPRMC,191328.500,A,4308.4558,N,07726.4583,W,0.71,312.74,180921,,,A*72
$GPGGA,191328.750,4308.4561,N,07726.4580,W,1,03,7.01,183.1,M,-34.4,M,,*58
$GPRMC,191329.000,A,4308.4563,N,07726.4578,W,0.51,348.26,180921,,,A*70
$GPGGA,191329.250,4308.4565,N,07726.4575,W,1,03,99.99,183.0,M,-34.4,M,,*65
$GPRMC,191329.500,A,4308.4564,N,07726.4574,W,0.09,68.92,180921,,,A*4D
$GPGGA,191329.750,4308.4563,N,07726.4573,W,1,03,7.01,183.0,M,-34.4,M,,*56
$GPRMC,191330.000,A,4308.4564,N,07726.4571,W,0.16,156.81,180921,,,A*75
$GPGGA,191330.250,4308.4563,N,07726.4571,W,1,03,7.02,183.0,M,-34.4,M,,*5A
$GPRMC,191330.500,A,4308.4562,N,07726.4571,W,0.57,196.67,180921,,,A*77
$GPGGA,191330.750,4308.4562,N,07726.4569,W,1,03,7.01,183.0,M,-34.4,M,,*54
$GPRMC,191331.000,A,4308.4563,N,07726.4567,W,0.44,157.62,180921,,,A*7F
$GPGGA,191331.250,4308.4564,N,07726.4565,W,1,03,7.02,183.0,M,-34.4,M,,*59
$GPRMC,191331.500,A,4308.4563,N,07726.4564,W,0.51,167.91,180921,,,A*72
$GPGGA,191331.750,4308.4564,N,07726.4563,W,1,03,7.02,183.0,M,-34.4,M,,*5A
$GPRMC,191332.000,A,4308.4566,N,07726.4561,W,0.23,158.88,180921,,,A*75
$GPGGA,191332.092,4308.4566,N,07726.4560,W,1,03,7.02,183.0,M,-3.4,M,,*51
$GPRMC,191332.500,A,4308.4566,N,07726.4559,W,0.24,160.46,180921,,,A*75
$GPGGA,191332.750,4308.4566,N,07726.4559,W,1,03,7.02,182.9,M,-34.4,M,,*5A
$GPRMC,191333.000,A,4308.4565,N,07726.4559,W,0.23,226.08,180921,,,A*7E
$GPGGA,191333.250,4308.4563,N,07726.4561,W,1,03,7.02,182.9,M,-34.4,M,,*50
$GPRMC,191333.500,A,4308.4562,N,07726.4561,W,0.73,210.27,180921,,,A*7A
$GPGGA,191333.750,4308.4561,N,07726.4561,W,1,03,7.02,182.9,M,-34.4,M,,*57
$GPRMC,191334.000,A,4308.4560,N,07726.4561,W,0.57,206.09,180921,,,A*77
$GPGGA,191334.250,4308.4558,N,07726.4562,W,1,03,7.02,182.9,M,-34.4,M,,*5C
$GPRMC,191334.500,A,4308.4557,N,07726.4562,W,0.83,200.43,180921,,,A*74
$GPGGA,191334.750,4308.4556,N,07726.4562,W,1,03,7.02,182.9,M,-34.4,M,,*57
$GPRMC,191335.000,A,4308.4556,N,07726.4561,W,0.82,182.65,180921,,,A*7E
$GPGGA,191335.250,4308.4556,N,07726.4559,W,1,03,7.03,182.9,M,-34.4,M,,*5A
$GPRMC,191335.500,A,4308.4557,N,07726.4559,W,0.54,160.16,180921,,,A*72
$GPGGA,191335.750,4308.4556,N,07726.4558,W,1,03,7.03,182.9,M,-34.4,M,,*5E
$GPRMC,191336.000,A,4308.4556,N,07726.4557,W,0.80,152.23,180921,,,A*75
$GPGGA,191336.250,4308.4555,N,07726.4558,W,1,03,7.03,182.8,M,-34.4,M,,*5A
$GPRMC,191336.500,A,4308.4554,N,07726.4559,W,0.83,186.52,180921,,,A*70
$GPGGA,191336.750,4308.4553,N,07726.4560,W,1,03,7.03,182.8,M,-34.4,M,,*52
$GPRMC,191337.000,A,4308.4551,N,07726.4561,W,0.97,207.14,180921,,,A*77
$GPGGA,191337.250,4308.4549,N,07726.4562,W,1,03,7.03,182.8,M,-34.4,M,,*5F
$GPRMC,191337.500,A,4308.4548,N,07726.4564,W,1.41,213.37,180921,,,A*71
$GPGGA,191337.750,4308.4548,N,07726.4563,W,1,03,7.03,182.8,M,-34.4,M,,*5A
$GPRMC,191338.000,A,4308.4548,N,07726.4562,W,1.19,203.57,180921,,,A*77
$GPGGA,191338.090,4308.4549,N,07726.4561,W,1,03,7.03,182.8,M,-3,A,4308.4549,N,07726.4561,W,1.09,201.80,180921,,,A*75
$GPRMC,191338.500,A,4308.4550,N,07726.4558,W,0.77,186.18,180921,,,A*7E
$GPGGA,191338.750,4308.4551,N,07726.4556,W,1,03,7.03,182.7,M,-34.4,M,,*54
$GPRMC,191339.000,A,4308.4550,N,07726.4556,W,0.75,162.99,180921,,,A*75
$GPGGA,191339.250,4308.4548,N,07726.4557,W,1,03,7.04,182.7,M,-34.4,M,,*5E
$GPRMC,191339.500,A,4308.4546,N,07726.4559,W,0.85,210.85,180921,,,A*7C
$GPGGA,191339.750,4308.4545,N,07726.4559,W,1,03,7.03,182.7,M,-34.4,M,,*5F
$GPRMC,191340.000,A,4308.4543,N,07726.4560,W,0.86,196.54,180921,,,A*7A
$GPGGA,191340.250,4308.4541,N,07726.4562,W,1,03,7.04,182.7,M,-34.4,M,,*5F
$GPRMC,191340.500,A,4308.4539,N,07726.4563,W,1.01,201.10,180921,,,A*72
$GPGGA,191340.750,4308.4538,N,07726.4563,W,1,03,7.04,182.6,M,-34.4,M,,*54
$GPRMC,191341.000,A,4308.4536,N,07726.4564,W,0.86,185.85,180921,,,A*73
$GPGGA,191341.250,4308.4535,N,07726.4563,W,1,03,7.04,182.6,M,-34.4,M,,*5D
$GPRMC,191341.500,A,4308.4533,N,07726.4564,W,0.87,172.12,180921,,,A*74
$GPGGA,191341.750,4308.4531,N,07726.4565,W,1,03,7.04,182.6,M,-34.4,M,,*5A
$GPRMC,191342.000,A,4308.4529,N,07726.4565,W,1.00,174.10,180921,,,A*72
$GPGGA,191342.250,4308.4526,N,07726.4568,W,1,03,7.04,182.6,M,-34.4,M,,*57
$GPRMC,191342.500,A,4308.4522,N,07726.4571,W,1.37,196.97,180921,,,A*7E
$GPGGA,191342.750,4308.4519,N,07726.4573,W,1,03,7.04,182.6,M,-34.4,M,,*54
$GPRMC,191343.000,A,4308.4514,N,07726.4575,W,1.67,198.99,180921,,,A*7E
$GPGGA,191343.250,4308.4513,N,07726.4573,W,1,03,7.05,182.5,M,-34.4,M,,*58
$GPRMC,191343.500,A,4308.4510,N,07726.4572,W,1.44,169.65,180921,,,A*74
$GPGGA,191343.750,4308.4508,N,07726.4572,W,1,03,7.04,182.5,M,-34.4,M,,*57
$GPRMC,191344.000,A,4308.4503,N,07726.4574,W,1.54,178.83,180921,,,A*7B
$GPGGA,191344.086,4308.4500,N,07726.4576,W,1,03,7.04,182.5,M,-34.4,M,,*50
$GPGGA,191344.500,4308.4492,N,07726.4581,W,1,03,7.04,182.5,M,-34.4,M,,*59
$GPRMC,191344.500,A,4308.4492,N,07726.4581,W,2.01,193.98,180921,,A*71
$GPGGA,191344.750,4308.4488,N,07726.4582,W,1,03,7.05,182.5,M,-34.4,M,,*57
$GPRMC,191344.750,A,4308.4488,N,07726.4582,W,2.03,193.90,180921$GPGGA,191345.000,4308.4484,N,07726.4584,W,1,03,7.05,182.5,M,-34.4,M,,*5E
$GPRMC,191345.250,A,4308.4481,N,07726.4586,W,2.03,199.49,180921,,,A*73
$GPGGA,191345.500,4308.4477,N,07726.4588,W,1,03,7.05,182.5,M,-34.4,M,,*5B
$GPRMC,191345.750,A,4308.4474,N,07726.4589,W,2.02,200.63,180921,,,A*79
$GPGGA,191346.000,4308.4470,N,07726.4590,W,1,03,7.05,182.5,M,-34.4,M,,*53
$GPRMC,191346.250,A,4308.4466,N,07726.4592,W,2.17,200.16,180921,,,A*70
$GPGGA,191346.500,4308.4463,N,07726.4593,W,1,03,7.05,182.5,M,-34.4,M,,*57
$GPRMC,191346.750,A,4308.4459,N,07726.4593,W,2.07,188.23,180921,,,A*7C
$GPGGA,191347.000,4308.4456,N,07726.4593,W,1,03,7.05,182.4,M,-34.4,M,,*54
$GPRMC,191347.250,A,4308.4452,N,07726.4594,W,1.96,188.59,180921,,,A*72
$GPGGA,191347.500,4308.4448,N,07726.4597,W,1,03,7.05,182.4,M,-34.4,M,,*5A
$GPRMC,191347.750,A,4308.4443,N,07726.4598,W,2.20,196.19,180921,,,A*7E
$GPGGA,191348.000,4308.4438,N,07726.4600,W,1,03,7.06,182.4,M,-34.4,M,,*59
$GPRMC,191348.250,A,4308.4434,N,07726.4602,W,2.52,196.54,180921,,,A*78
$GPGGA,191348.500,4308.4429,N,07726.4604,W,1,03,7.06,182.4,M,-34.4,M,,*58
$GPRMC,191348.750,A,4308.4427,N,07726.4604,W,2.59,194.11,180921,,,A*71
$GPGGA,191349.000,4308.4422,N,07726.4604,W,1,03,7.06,182.4,M,-34.4,M,,*57
$GPRMC,191349.250,A,4308.4419,N,07726.4603,W,2.84,179.19,180921,,,A*74
$GPGGA,191349.500,4308.4413,N,07726.4604,W,1,03,7.06,182.4,M,-34.4,M,,*50
$GPRMC,191349.750,A,4308.4411,N,07726.4605,W,2.95,186.93,180921,,,A*7D
$GPGGA,191350.000,4308.4410,N,07726.4604,W,1,03,7.06,182.4,M,-34.4,M,,*5E
$GPGGA,191350.500,4308.4475,N,07726.4555,W,1,04,2.18,179.8,M,-34.4,M,,*5A
$GPRMC,191350.500,A,4308.4475,N,07726.4555,W,2.00,183.22,180921,,A*75
$GPGGA,191350.750,4308.4491,N,07726.4542,W,1,04,2.18,179.0,M,-34.4,M,,*59
$GPRMC,191350.750,A,4308.4491,N,07726.4542,W,1.94,185.35,180921,,A*70
$GPGGA,191351.000,4308.4516,N,07726.4522,W,1,04,2.18,178.0,M,-34.4,M,,*53
$GPRMC,191351.000,A,4308.4516,N,07726.4522,W,1.64,185.76,180921,,A*73
$GPGGA,191351.250,4308.4526,N,07726.4512,W,1,04,2.18,177.5,M,-34.4,M,,*5E
$GPRMC,191351.250,A,4308.4526,N,07726.4512,W,1.61,181.92,180921,,A*7F
$GPGGA,191351.500,4308.4535,N,07726.4503,W,1,04,2.18,177.1,M,-34.4,M,,*5A
$GPRMC,191351.500,A,4308.4535,N,07726.4503,W,1.59,174.59,180921,,A*79
$GPGGA,191351.750,4308.4545,N,07726.4494,W,1,04,2.18,176.7,M,-34.4,M,,*52
$GPRMC,191351.750,A,4308.4545,N,07726.4494,W,1.41,167.70,180921,,A*76
$GPGGA,191352.000,4308.4552,N,07726.4487,W,1,04,2.18,176.3,M,-34.4,M,,*53
$GPRMC,191352.000,A,4308.4552,N,07726.4487,W,1.33,164.89,180921$GPGGA,191352.250,4308.4560,N,07726.4480,W,1,04,2.19,176.0,M,-34.4,M,,*50
$GPRMC,191352.500,A,4308.4571,N,07726.4474,W,0.67,176.51,180921,,,A*7D
$GPGGA,191352.750,4308.4575,N,07726.4471,W,1,04,2.19,175.6,M,-34.4,M,,*5A
$GPRMC,191353.000,A,4308.4580,N,07726.4468,W,0.63,192.75,180921,,,A*72
$GPGGA,191353.250,4308.4586,N,07726.4464,W,1,04,2.18,175.2,M,-34.4,M,,*53
$GPRMC,191353.500,A,4308.4594,N,07726.4457,W,0.54,190.23,180921,,,A*7B
$GPGGA,191353.750,4308.4601,N,07726.4452,W,1,04,2.18,174.9,M,-34.4,M,,*55
$GPRMC,191354.000,A,4308.4606,N,07726.4447,W,0.21,188.86,180921,,,A*74
$GPGGA,191354.250,4308.4613,N,07726.4443,W,1,04,2.19,174.6,M,-34.4,M,,*5A
$GPRMC,191354.500,A,4308.4617,N,07726.4441,W,0.35,280.48,180921,,,A*7B
$GPGGA,191354.750,4308.4620,N,07726.4439,W,1,04,2.18,174.4,M,-34.4,M,,*51
$GPRMC,191355.000,A,4308.4625,N,07726.4435,W,0.04,62.38,180921,,,A*46
$GPGGA,191355.250,4308.4628,N,07726.4432,W,1,04,2.18,174.3,M,-34.4,M,,*51
$GPRMC,191355.500,A,4308.4631,N,07726.4430,W,0.28,59.81,180921,,,A*47
$GPGGA,191355.750,4308.4634,N,07726.4427,W,1,04,2.18,174.1,M,-34.4,M,,*5F
$GPRMC,191356.000,A,4308.4637,N,07726.4424,W,0.32,55.91,180921,,,A*44
$GPGGA,191356.250,4308.4642,N,07726.4420,W,1,05,1.50,174.1,M,-34.4,M,,*51
$GPRMC,191356.500,A,4308.4649,N,07726.4416,W,0.38,177.38,180921,,,A*71
$GPGGA,191356.750,4308.4656,N,07726.4412,W,1,05,1.50,174.1,M,-34.4,M,,*50
$GPRMC,191357.000,A,4308.4656,N,07726.4412,W,0.21,158.93,180921,,,A*7B
$GPGGA,191357.250,4308.4656,N,07726.4412,W,1,05,1.50,174.1,M,-34.4,M,,*54
$GPRMC,191357.500,A,4308.4656,N,07726.4411,W,0.21,96.88,180921,,,A*44
$GPGGA,191357.750,4308.4656,N,07726.4411,W,1,05,1.50,174.1,M,-34.4,M,,*52
$GPRMC,191358.000,A,4308.4656,N,07726.4411,W,0.21,88.26,180921,,,A*45
$GPGGA,191358.250,4308.4656,N,07726.4411,W,1,05,1.49,174.1,M,-34.4,M,,*50
$GPRMC,191358.500,A,4308.4656,N,07726.4410,W,0.23,72.09,180921,,,A*4B
$GPGGA,191358.750,4308.4656,N,07726.4410,W,1,05,1.50,174.1,M,-34.4,M,,*5C
$GPRMC,191359.000,A,4308.4656,N,07726.4410,W,0.23,44.24,180921,,,A*45
$GPGGA,191359.250,4308.4656,N,07726.4410,W,1,05,1.50,174.1,M,-34.4,M,,*58
$GPRMC,191359.500,A,4308.4656,N,07726.4410,W,0.29,72.98,180921,,,A*48
$GPGGA,191359.750,4308.4657,N,07726.4409,W,1,05,1.50,174.1,M,-34.4,M,,*54
$GPRMC,191400.000,A,4308.4657,N,07726.4409,W,0.29,46.10,180921,,,A*48
$GPGGA,191400.250,4308.4657,N,07726.4409,W,1,05,1.50,174.1,M,-34.4,M,,*5A
$GPRMC,191400.500,A,4308.4657,N,07726.4409,W,0.25,48.68,180921,,,A*40
$GPGGA,191400.750,4308.4657,N,07726.4408,W,1,05,1.50,174.1,M,-34.4,M,,*5E
$GPRMC,191401.000,A,4308.4657,N,07726.4408,W,0.15,78.36,180921,,,A*4E
$GPGGA,191401.250,4308.4657,N,07726.4408,W,1,05,1.50,174.1,M,-34.4,M,,*5A
$GPRMC,191401.500,A,4308.4657,N,07726.4408,W,0.16,85.86,180921,,,A*41
$GPGGA,191401.750,4308.4657,N,07726.4408,W,1,05,1.50,174.1,M,-34.4,M,,*5F
$GPRMC,191402.000,A,4308.4657,N,07726.4408,W,0.26,130.57,180921,,,A*77
$GPGGA,191402.250,4308.4657,N,07726.4407,W,1,05,1.50,174.1,M,-34.4,M,,*56
$GPRMC,191402.500,A,4308.4657,N,07726.4407,W,0.26,128.65,180921,,,A*75
$GPGGA,191402.750,4308.4657,N,07726.4407,W,1,05,1.50,174.1,M,-34.4,M,,*53
$GPRMC,191403.000,A,4308.4657,N,07726.4407,W,0.27,119.44,180921,,,A*71
$GPGGA,191403.250,4308.4657,N,07726.4407,W,1,05,1.50,174.1,M,-34.4,M,,*57
$GPRMC,191403.500,A,4308.4657,N,07726.4406,W,0.25,121.14,180921,,,A*79
$GPGGA,191403.750,4308.4656,N,07726.4406,W,1,05,1.50,174.1,M,-34.4,M,,*52
$GPRMC,191404.000,A,4308.4656,N,07726.4406,W,0.33,122.98,180921,,,A*7A
$GPGGA,191404.250,4308.4656,N,07726.4406,W,1,05,1.50,174.1,M,-34.4,M,,*50
$GPRMC,191404.500,A,4308.4656,N,07726.4405,W,0.35,126.55,180921,,,A*7F
$GPGGA,191404.750,4308.4656,N,07726.4405,W,1,05,1.50,174.1,M,-34.4,M,,*56
$GPRMC,191405.000,A,4308.4656,N,07726.4405,W,0.33,123.79,180921,,,A*76
$GPGGA,191405.250,4308.4656,N,07726.4405,W,1,05,1.50,174.1,M,-34.4,M,,*52
$GPRMC,191405.500,A,4308.4656,N,07726.4404,W,0.30,128.02,180921,,,A*76
$GPGGA,191405.750,4308.4655,N,07726.4404,W,1,05,1.50,174.1,M,-34.4,M,,*55
$GPRMC,191406.000,A,4308.4655,N,07726.4404,W,0.21,133.42,180921,,,A*7D
$GPGGA,191406.250,4308.4655,N,07726.4404,W,1,05,1.50,174.1,M,-34.4,M,,*53
$GPRMC,191406.500,A,4308.4655,N,07726.4404,W,0.12,159.63,180921,,,A*77
$GPGGA,191406.750,4308.4655,N,07726.4404,W,1,05,1.50,174.1,M,-34.4,M,,*56
$GPRMC,191407.000,A,4308.4655,N,07726.4404,W,0.13,194.81,180921,,,A*7F
$GPGGA,191407.250,4308.4655,N,07726.4404,W,1,05,1.50,174.1,M,-34.4,M,,*52
$GPRMC,191407.500,A,4308.4655,N,07726.4404,W,0.17,213.34,180921,,,A*7C
$GPGGA,191407.750,4308.4655,N,07726.4404,W,1,05,1.50,174.1,M,-34.4,M,,*57
$GPRMC,191408.000,A,4308.4655,N,07726.4404,W,0.23,208.41,180921,,,A*79
$GPGGA,191408.250,4308.4654,N,07726.4404,W,1,05,1.50,174.1,M,-34.4,M,,*5C
$GPRMC,191408.500,A,4308.4654,N,07726.4404,W,0.21,202.14,180921,,,A*75
$GPGGA,191408.750,4308.4654,N,07726.4404,W,1,05,1.50,174.1,M,-34.4,M,,*59
$GPRMC,191409.000,A,4308.4654,N,07726.4404,W,0.20,201.68,180921,,,A*78
$GPGGA,191409.250,4308.4654,N,07726.4404,W,1,05,1.50,174.1,M,-34.4,M,,*5D
$GPRMC,191409.500,A,4308.4654,N,07726.4405,W,0.19,186.64,180921,,,A*76
$GPGGA,191409.750,4308.4654,N,07726.4405,W,1,05,1.50,174.1,M,-34.4,M,,*59
$GPRMC,191410.000,A,4308.4654,N,07726.4405,W,0.18,192.53,180921,,,A*7B
$GPGGA,191410.250,4308.4653,N,07726.4405,W,1,05,1.50,174.1,M,-34.4,M,,*53
$GPRMC,191410.500,A,4308.4653,N,07726.4405,W,0.19,211.28,180921,,,A*7C
$GPGGA,191410.750,4308.4653,N,07726.4405,W,1,05,1.50,174.1,M,-34.4,M,,*56
$GPRMC,191411.000,A,4308.4653,N,07726.4405,W,0.12,184.27,180921,,,A*73
$GPGGA,191411.250,4308.4653,N,07726.4405,W,1,05,1.50,174.1,M,-34.4,M,,*52
$GPRMC,191411.500,A,4308.4653,N,07726.4405,W,0.15,159.45,180921,,,A*75
$GPGGA,191411.750,4308.4653,N,07726.4405,W,1,05,1.50,174.1,M,-34.4,M,,*57
$GPRMC,191412.000,A,4308.4653,N,07726.4405,W,0.22,152.31,180921,,,A*7F
$GPGGA,191412.250,4308.4653,N,07726.4405,W,1,05,1.50,174.1,M,-34.4,M,,*51
$GPRMC,191412.500,A,4308.4652,N,07726.4404,W,0.24,155.83,180921,,,A*72
$GPGGA,191412.750,4308.4652,N,07726.4404,W,1,05,1.50,174.1,M,-34.4,M,,*54
$GPRMC,191413.000,A,4308.4652,N,07726.4404,W,0.14,133.79,180921,,,A*70
$GPGGA,191413.250,4308.4652,N,07726.4404,W,1,05,1.50,174.1,M,-34.4,M,,*50
$GPRMC,191413.500,A,4308.4652,N,07726.4404,W,0.10,114.44,180921,,,A*7A
$GPGGA,191413.750,4308.4652,N,07726.4404,W,1,05,1.50,174.1,M,-34.4,M,,*55
$GPRMC,191414.000,A,4308.4652,N,07726.4404,W,0.08,99.31,180921,,,A*47
$GPGGA,191414.250,4308.4652,N,07726.4404,W,1,05,1.50,174.1,M,-34.4,M,,*57
$GPRMC,191414.500,A,4308.4652,N,07726.4404,W,0.11,110.66,180921,,,A*78
$GPGGA,191414.750,4308.4652,N,07726.4404,W,1,05,1.50,174.1,M,-34.4,M,,*52
$GPRMC,191415.000,A,4308.4652,N,07726.4404,W,0.09,140.34,180921,,,A*77
$GPGGA,191415.250,4308.4652,N,07726.4403,W,1,05,1.50,174.1,M,-34.4,M,,*51
$GPRMC,191415.500,A,4308.4652,N,07726.4403,W,0.06,149.41,180921,,,A*71
$GPGGA,191415.750,4308.4652,N,07726.4403,W,1,05,1.50,174.1,M,-34.4,M,,*54
$GPRMC,191416.000,A,4308.4652,N,07726.4403,W,0.13,169.37,180921,,,A*70
$GPGGA,191416.250,4308.4652,N,07726.4403,W,1,05,1.50,174.1,M,-34.4,M,,*52
$GPRMC,191416.500,A,4308.4652,N,07726.4403,W,0.07,196.74,180921,,,A*77
$GPGGA,191416.750,4308.4652,N,07726.4403,W,1,05,1.50,174.1,M,-34.4,M,,*57
$GPRMC,191417.000,A,4308.4652,N,07726.4404,W,0.22,253.84,180921,,,A*76
$GPGGA,191417.250,4308.4651,N,07726.4404,W,1,05,1.50,174.1,M,-34.4,M,,*57
$GPRMC,191417.500,A,4308.4651,N,07726.4404,W,0.60,251.33,180921,,,A*78
$GPGGA,191417.750,4308.4653,N,07726.4408,W,1,05,1.50,174.1,M,-34.4,M,,*5C
$GPRMC,191418.000,A,4308.4654,N,07726.4411,W,1.46,274.31,180921,,,A*73
$GPGGA,191418.250,4308.4655,N,07726.4415,W,1,05,1.50,174.1,M,-34.4,M,,*5C
$GPRMC,191418.500,A,4308.4655,N,07726.4422,W,3.97,271.66,180921,,,A*7E
$GPGGA,191418.750,4308.4656,N,07726.4429,W,1,05,1.67,174.0,M,-34.4,M,,*50
$GPRMC,191419.000,A,4308.4657,N,07726.4437,W,6.14,274.08,180921,,,A*7F
$GPGGA,191419.250,4308.4658,N,07726.4444,W,1,05,1.50,173.9,M,-34.4,M,,*5B
$GPRMC,191419.500,A,4308.4658,N,07726.4451,W,6.74,272.14,180921,,,A*78
$GPGGA,191419.750,4308.4661,N,07726.4465,W,1,05,1.68,173.8,M,-34.4,M,,*5D
$GPRMC,191420.000,A,4308.4662,N,07726.4475,W,9.16,276.69,180921,,,A*7D
$GPGGA,191420.250,4308.4669,N,07726.4492,W,1,06,1.39,173.5,M,-34.4,M,,*58
$GPRMC,191420.500,A,4308.4674,N,07726.4509,W,13.14,283.07,180921,,,A*4E
$GPGGA,191420.750,4308.4679,N,07726.4528,W,1,06,1.39,173.1,M,-34.4,M,,*58
$GPRMC,191421.000,A,4308.4683,N,07726.4544,W,15.73,283.41,180921,,,A*4E
$GPGGA,191421.250,4308.4687,N,07726.4562,W,1,06,1.39,172.9,M,-34.4,M,,*5A
$GPRMC,191421.500,A,4308.4692,N,07726.4582,W,17.88,284.03,180921,,,A*46
$GPGGA,191421.750,4308.4697,N,07726.4603,W,1,06,1.39,172.4,M,-34.4,M,,*57
$GPRMC,191422.000,A,4308.4702,N,07726.4623,W,19.86,283.02,180921,,,A*46
$GPGGA,191422.250,4308.4706,N,07726.4646,W,1,06,1.39,171.9,M,-34.4,M,,*57
$GPRMC,191422.500,A,4308.4710,N,07726.4669,W,22.08,281.58,180921,,,A*4D
$GPGGA,191422.750,4308.4714,N,07726.4693,W,1,06,1.39,171.5,M,-34.4,M,,*55
$GPRMC,191423.000,A,4308.4718,N,07726.4716,W,23.47,280.80,180921,,,A*46
$GPGGA,191423.250,4308.4723,N,07726.4742,W,1,06,1.39,171.1,M,-34.4,M,,*5C
$GPRMC,191423.500,A,4308.4728,N,07726.4766,W,24.81,281.07,180921,,,A*44
$GPGGA,191423.750,4308.4732,N,07726.4791,W,1,06,1.39,170.7,M,-34.4,M,,*50
$GPRMC,191424.000,A,4308.4737,N,07726.4816,W,25.78,281.04,180921,,,A*44
$GPGGA,191424.250,4308.4741,N,07726.4842,W,1,06,1.39,170.3,M,-34.4,M,,*53
$GPRMC,191424.500,A,4308.4745,N,07726.4868,W,26.83,279.77,180921,,,A*49
$GPGGA,191424.750,4308.4749,N,07726.4895,W,1,06,1.39,170.0,M,-34.4,M,,*57
$GPRMC,191425.000,A,4308.4753,N,07726.4922,W,27.92,278.66,180921,,,A*45
$GPGGA,191425.250,4308.4756,N,07726.4950,W,1,06,1.39,169.7,M,-34.4,M,,*5A
$GPRMC,191425.500,A,4308.4760,N,07726.4979,W,29.21,278.04,180921,,,A*4C
$GPGGA,191425.750,4308.4764,N,07726.5007,W,1,06,1.39,169.3,M,-34.4,M,,*50
$GPRMC,191426.000,A,4308.4767,N,07726.5036,W,30.03,277.31,180921,,,A*4F
$GPGGA,191426.250,4308.4770,N,07726.5066,W,1,06,1.39,169.0,M,-34.4,M,,*57
$GPRMC,191426.500,A,4308.4772,N,07726.5095,W,30.65,276.76,180921,,,A*45
$GPGGA,191426.750,4308.4775,N,07726.5125,W,1,06,1.39,168.8,M,-34.4,M,,*58
$GPRMC,191427.000,A,4308.4777,N,07726.5155,W,31.06,275.79,180921,,,A*41
$GPGGA,191427.250,4308.4779,N,07726.5185,W,1,06,1.39,168.5,M,-34.4,M,,*57
$GPRMC,191427.500,A,4308.4781,N,07726.5216,W,31.29,274.92,180921,,,A*40
$GPGGA,191427.750,4308.4783,N,07726.5247,W,1,06,1.39,168.4,M,-34.4,M,,*5B
$GPRMC,191428.000,A,4308.4784,N,07726.5277,W,31.46,274.23,180921,,,A*4B
$GPGGA,191428.250,4308.4786,N,07726.5307,W,1,06,1.39,168.1,M,-34.4,M,,*54
$GPRMC,191428.500,A,4308.4788,N,07726.5337,W,31.68,273.72,180921,,,A*48
$GPGGA,191428.750,4308.4789,N,07726.5367,W,1,06,1.39,167.9,M,-34.4,M,,*5F
$GPRMC,191429.000,A,4308.4790,N,07726.5397,W,31.30,273.05,180921,,,A*42
$GPGGA,191429.250,4308.4791,N,07726.5426,W,1,06,1.39,167.8,M,-34.4,M,,*51
$GPRMC,191429.500,A,4308.4792,N,07726.5456,W,31.20,272.84,180921,,,A*46
$GPGGA,191429.750,4308.4794,N,07726.5486,W,1,06,1.39,167.6,M,-34.4,M,,*55
$GPRMC,191430.000,A,4308.4795,N,07726.5515,W,30.69,272.85,180921,,,A*47
$GPGGA,191430.250,4308.4796,N,07726.5543,W,1,06,1.39,167.4,M,-34.4,M,,*50
$GPRMC,191430.500,A,4308.4797,N,07726.5572,W,29.81,272.42,180921,,,A*44
$GPGGA,191430.750,4308.4798,N,07726.5600,W,1,06,1.39,167.1,M,-34.4,M,,*5A
$GPRMC,191431.000,A,4308.4799,N,07726.5627,W,29.55,272.61,180921,,,A*45
$GPGGA,191431.250,4308.4801,N,07726.5656,W,1,06,1.39,166.9,M,-34.4,M,,*5B
$GPRMC,191431.500,A,4308.4802,N,07726.5684,W,29.61,273.01,180921,,,A*44
$GPGGA,191431.750,4308.4803,N,07726.5712,W,1,06,1.39,166.8,M,-34.4,M,,*5C
$GPRMC,191432.000,A,4308.4805,N,07726.5740,W,29.87,273.55,180921,,,A*45
$GPGGA,191432.250,4308.4806,N,07726.5769,W,1,06,1.32,166.6,M,-34.4,M,,*56
$GPRMC,191432.500,A,4308.4808,N,07726.5798,W,30.55,273.99,180921,,,A*4F
$GPGGA,191432.750,4308.4809,N,07726.5827,W,1,06,1.39,166.4,M,-34.4,M,,*50
$GPRMC,191433.000,A,4308.4811,N,07726.5856,W,31.05,274.19,180921,,,A*45
$GPGGA,191433.250,4308.4812,N,07726.5886,W,1,06,1.39,166.3,M,-34.4,M,,*52
$GPRMC,191433.500,A,4308.4814,N,07726.5916,W,31.29,274.37,180921,,,A*42
$GPGGA,191433.750,4308.4816,N,07726.5946,W,1,06,1.39,166.2,M,-34.4,M,,*5F
$GPRMC,191434.000,A,4308.4818,N,07726.5976,W,31.64,274.57,180921,,,A*45
$GPGGA,191434.250,4308.4819,N,07726.6006,W,1,06,1.39,166.0,M,-34.4,M,,*5E
$GPRMC,191434.500,A,4308.4821,N,07726.6036,W,31.70,274.65,180921,,,A*40
$GPGGA,191434.750,4308.4823,N,07726.6067,W,1,06,1.39,165.8,M,-34.4,M,,*5E
$GPRMC,191435.000,A,4308.4823,N,07726.6097,W,31.85,274.05,180921,,,A*41
$GPGGA,191435.250,4308.4823,N,07726.6129,W,1,06,1.39,165.7,M,-34.4,M,,*5E
$GPRMC,191435.500,A,4308.4824,N,07726.6160,W,31.92,272.57,180921,,,A*4D
$GPGGA,191435.750,4308.4824,N,07726.6191,W,1,06,1.39,165.6,M,-34.4,M,,*5E
$GPRMC,191436.000,A,4308.4825,N,07726.6223,W,32.60,272.17,180921,,,A*44
$GPGGA,191436.250,4308.4825,N,07726.6255,W,1,06,1.39,165.5,M,-34.4,M,,*51
$GPRMC,191436.500,A,4308.4824,N,07726.6287,W,32.84,271.11,180921,,,A*41
$GPGGA,191436.750,4308.4824,N,07726.6319,W,1,06,1.39,165.3,M,-34.4,M,,*5A
$GPRMC,191437.000,A,4308.4824,N,07726.6351,W,32.76,270.52,180921,,,A*44
$GPGGA,191437.250,4308.4822,N,07726.6382,W,1,06,1.39,165.0,M,-34.4,M,,*59
$GPRMC,191437.500,A,4308.4821,N,07726.6414,W,32.28,269.50,180921,,,A*43
$GPGGA,191437.750,4308.4820,N,07726.6445,W,1,06,1.39,164.8,M,-34.4,M,,*5B
$GPRMC,191438.000,A,4308.4818,N,07726.6476,W,32.22,268.64,180921,,,A*4B
$GPGGA,191438.250,4308.4817,N,07726.6508,W,1,06,1.39,164.6,M,-34.4,M,,*53
$GPRMC,191438.500,A,4308.4815,N,07726.6539,W,32.56,267.84,180921,,,A*4B
$GPGGA,191438.750,4308.4814,N,07726.6571,W,1,06,1.39,164.4,M,-34.4,M,,*59
$GPRMC,191439.000,A,4308.4812,N,07726.6603,W,33.00,267.32,180921,,,A*4D
$GPGGA,191439.250,4308.4810,N,07726.6635,W,1,06,1.39,164.2,M,-34.4,M,,*5C
$GPRMC,191439.500,A,4308.4808,N,07726.6667,W,33.29,266.62,180921,,,A*4E
$GPGGA,191439.750,4308.4806,N,07726.6699,W,1,06,1.39,164.0,M,-34.4,M,,*5A
$GPRMC,191440.000,A,4308.4804,N,07726.6730,W,33.39,266.07,180921,,,A*48
$GPGGA,191440.250,4308.4802,N,07726.6763,W,1,06,1.39,163.8,M,-34.4,M,,*5E
$GPRMC,191440.500,A,4308.4801,N,07726.6795,W,33.44,266.54,180921,,,A*4B
$GPGGA,191440.750,4308.4800,N,07726.6828,W,1,06,1.39,163.6,M,-34.4,M,,*57
$GPRMC,191441.000,A,4308.4798,N,07726.6860,W,33.51,266.98,180921,,,A*41
$GPGGA,191441.250,4308.4797,N,07726.6892,W,1,06,1.39,163.4,M,-34.4,M,,*51
$GPRMC,191441.500,A,4308.4796,N,07726.6924,W,33.62,267.30,180921,,,A*48
$GPGGA,191441.750,4308.4795,N,07726.6957,W,1,06,1.39,163.2,M,-34.4,M,,*58
$GPRMC,191442.000,A,4308.4793,N,07726.6990,W,33.86,266.94,180921,,,A*41
$GPGGA,191442.250,4308.4791,N,07726.7022,W,1,06,1.39,163.0,M,-34.4,M,,*52
$GPRMC,191442.500,A,4308.4790,N,07726.7054,W,33.49,266.79,180921,,,A*47
$GPGGA,191442.750,4308.4788,N,07726.7086,W,1,06,1.39,162.9,M,-34.4,M,,*59
$GPRMC,191443.000,A,4308.4786,N,07726.7118,W,33.34,266.52,180921,,,A*4E
$GPGGA,191443.250,4308.4785,N,07726.7150,W,1,06,1.39,162.7,M,-34.4,M,,*54
$GPRMC,191443.500,A,4308.4783,N,07726.7184,W,33.80,266.35,180921,,,A*45
$GPGGA,191443.750,4308.4781,N,07726.7218,W,1,06,1.39,162.7,M,-34.4,M,,*5A
$GPRMC,191444.000,A,4308.4779,N,07726.7252,W,34.09,266.41,180921,,,A*4F
$GPGGA,191444.250,4308.4777,N,07726.7286,W,1,06,1.39,162.6,M,-34.4,M,,*57
$GPRMC,191444.500,A,4308.4775,N,07726.7320,W,34.30,266.41,180921,,,A*48
$GPGGA,191444.750,4308.4773,N,07726.7353,W,1,06,1.39,162.5,M,-34.4,M,,*5C
$GPRMC,191445.000,A,4308.4772,N,07726.7386,W,34.09,266.48,180921,,,A*44
$GPGGA,191445.250,4308.4770,N,07726.7419,W,1,06,1.39,162.4,M,-34.4,M,,*53
$GPRMC,191445.500,A,4308.4768,N,07726.7453,W,33.84,266.22,180921,,,A*4B
$GPGGA,191445.750,4308.4767,N,07726.7485,W,1,06,1.39,162.5,M,-34.4,M,,*54
$GPRMC,191446.000,A,4308.4765,N,07726.7518,W,33.64,266.31,180921,,,A*42
$GPGGA,191446.250,4308.4764,N,07726.7550,W,1,06,1.39,162.4,M,-34.4,M,,*59
$GPRMC,191446.500,A,4308.4762,N,07726.7582,W,33.31,266.25,180921,,,D*43
$GPGGA,191446.750,4308.4761,N,07726.7613,W,2,06,1.39,162.3,M,-34.4,M,0000,0000*59
$GPRMC,191447.000,A,4308.4759,N,07726.7644,W,33.02,265.91,180921,,,D*4A
$GPGGA,191447.250,4308.4757,N,07726.7676,W,2,06,1.32,162.3,M,-34.4,M,0000,0000*50
$GPRMC,191447.500,A,4308.4755,N,07726.7706,W,32.57,265.69,180921,,,D*42
$GPGGA,191447.750,4308.4753,N,07726.7736,W,2,06,1.39,162.2,M,-34.4,M,0000,0000*5E
$GPRMC,191448.000,A,4308.4751,N,07726.7766,W,32.00,265.19,180921,,,D*4F
$GPGGA,191448.250,4308.4749,N,07726.7797,W,2,06,1.32,162.1,M,-34.4,M,0000,0000*5C
$GPRMC,191448.500,A,4308.4746,N,07726.7826,W,31.71,264.56,180921,,,D*48
$GPGGA,191448.750,4308.4746,N,07726.7857,W,2,06,1.39,162.0,M,-34.4,M,0000,0000*5F
$GPRMC,191449.000,A,4308.4745,N,07726.7887,W,31.31,265.26,180921,,,D*46
$GPGGA,191449.250,4308.4744,N,07726.7918,W,2,06,1.39,161.8,M,-34.4,M,0000,0000*58
$GPRMC,191449.500,A,4308.4743,N,07726.7949,W,31.59,265.44,180921,,,D*4C
$GPGGA,191449.750,4308.4742,N,07726.7981,W,2,06,1.39,161.6,M,-34.4,M,0000,0000*55
$GPRMC,191450.000,A,4308.4741,N,07726.8011,W,31.85,265.95,180921,,,D*45
$GPGGA,191450.250,4308.4739,N,07726.8042,W,2,06,1.32,161.4,M,-34.4,M,0000,0000*54
$GPRMC,191450.500,A,4308.4737,N,07726.8072,W,31.91,265.42,180921,,,D*4B
$GPGGA,191450.750,4308.4735,N,07726.8103,W,2,06,1.39,161.3,M,-34.4,M,0000,0000*55
$GPRMC,191451.000,A,4308.4732,N,07726.8134,W,32.21,264.49,180921,,,D*4B
$GPGGA,191451.250,4308.4729,N,07726.8165,W,2,05,1.53,161.1,M,-34.4,M,0000,0000*51
$GPRMC,191451.500,A,4308.4726,N,07726.8195,W,31.93,264.14,180921,,,D*42
$GPGGA,191451.750,4308.4724,N,07726.8226,W,2,06,1.39,160.8,M,-34.4,M,0000,0000*5A
$GPRMC,191452.000,A,4308.4722,N,07726.8257,W,31.71,264.43,180921,,,D*43
$GPGGA,191452.250,4308.4720,N,07726.8287,W,2,06,1.32,160.6,M,-34.4,M,0000,0000*56
$GPRMC,191452.500,A,4308.4718,N,07726.8316,W,31.31,264.62,180921,,,D*4C
$GPGGA,191452.750,4308.4716,N,07726.8346,W,2,06,1.39,160.4,M,-34.4,M,0000,0000*53
$GPRMC,191453.000,A,4308.4714,N,07726.8375,W,31.02,264.96,180921,,,D*4A
$GPGGA,191453.250,4308.4713,N,07726.8404,W,2,06,1.39,160.2,M,-34.4,M,0000,0000*55
$GPRMC,191453.500,A,4308.4711,N,07726.8434,W,30.82,265.38,180921,,,D*44
$GPGGA,191453.750,4308.4709,N,07726.8463,W,2,06,1.39,160.0,M,-34.4,M,0000,0000*58
$GPRMC,191454.000,A,4308.4708,N,07726.8493,W,30.65,265.56,180921,,,D*42
$GPGGA,191454.250,4308.4707,N,07726.8523,W,2,06,1.39,159.8,M,-34.4,M,0000,0000*53
$GPRMC,191454.500,A,4308.4705,N,07726.8552,W,30.44,265.37,180921,,,D*42
$GPGGA,191454.750,4308.4704,N,07726.8582,W,2,06,1.39,159.6,M,-34.4,M,0000,0000*50
$GPRMC,191455.000,A,4308.4703,N,07726.8611,W,30.74,265.07,180921,,,D*44
$GPGGA,191455.250,4308.4701,N,07726.8641,W,2,06,1.39,159.4,M,-34.4,M,0000,0000*5F
$GPRMC,191455.500,A,4308.4700,N,07726.8671,W,31.09,264.98,180921,,,D*48
$GPGGA,191455.750,4308.4698,N,07726.8701,W,2,06,1.39,159.2,M,-34.4,M,0000,0000*58
$GPRMC,191456.000,A,4308.4697,N,07726.8732,W,31.61,264.86,180921,,,D*46
$GPGGA,191456.250,4308.4695,N,07726.8762,W,2,06,1.39,159.0,M,-34.4,M,0000,0000*54
$GPRMC,191456.500,A,4308.4694,N,07726.8793,W,31.98,264.75,180921,,,D*41
$GPGGA,191456.750,4308.4692,N,07726.8823,W,2,06,1.39,158.8,M,-34.4,M,0000,0000*55
$GPRMC,191457.000,A,4308.4690,N,07726.8853,W,32.12,264.77,180921,,,D*41
$GPGGA,191457.250,4308.4688,N,07726.8883,W,2,06,1.39,158.5,M,-34.4,M,0000,0000*5D
$GPRMC,191457.500,A,4308.4686,N,07726.8914,W,32.63,264.68,180921,,,D*49
$GPGGA,191457.750,4308.4684,N,07726.8944,W,2,06,1.39,158.4,M,-34.4,M,0000,0000*5F
$GPRMC,191458.000,A,4308.4682,N,07726.8975,W,32.76,264.67,180921,,,D*4B
$GPGGA,191458.250,4308.4680,N,07726.9006,W,2,06,1.39,158.2,M,-34.4,M,0000,0000*59
$GPRMC,191458.500,A,4308.4678,N,07726.9037,W,32.71,264.71,180921,,,D*45
$GPGGA,191458.750,4308.4676,N,07726.9068,W,2,06,1.39,158.2,M,-34.4,M,0000,0000*5D
$GPRMC,191459.000,A,4308.4674,N,07726.9099,W,32.71,264.69,180921,,,D*40
$GPGGA,191459.250,4308.4672,N,07726.9130,W,2,06,1.39,158.1,M,-34.4,M,0000,0000*52
$GPRMC,191459.500,A,4308.4670,N,07726.9162,W,32.66,264.81,180921,,,D*44
$GPGGA,191459.750,4308.4669,N,07726.9193,W,2,06,1.39,158.0,M,-34.4,M,0000,0000*55
$GPRMC,191500.000,A,4308.4667,N,07726.9225,W,32.66,264.94,180921,,,D*4E
$GPGGA,191500.250,4308.4665,N,07726.9256,W,2,06,1.39,157.8,M,-34.4,M,0000,0000*5C
$GPRMC,191500.500,A,4308.4664,N,07726.9288,W,32.87,265.50,180921,,,D*49
$GPGGA,191500.750,4308.4662,N,07726.9319,W,2,06,1.39,157.7,M,-34.4,M,0000,0000*5B
$GPRMC,191501.000,A,4308.4661,N,07726.9350,W,32.79,265.48,180921,,,D*44
$GPGGA,191501.250,4308.4659,N,07726.9382,W,2,06,1.39,157.6,M,-34.4,M,0000,0000*54
$GPRMC,191501.500,A,4308.4657,N,07726.9413,W,32.57,264.73,180921,,,D*41
$GPGGA,191501.750,4308.4655,N,07726.9444,W,2,06,1.39,157.3,M,-34.4,M,0000,0000*55
$GPRMC,191502.000,A,4308.4653,N,07726.9474,W,32.32,264.58,180921,,,D*48
$GPGGA,191502.250,4308.4650,N,07726.9505,W,2,06,1.39,157.2,M,-34.4,M,0000,0000*53
$GPRMC,191502.500,A,4308.4648,N,07726.9535,W,32.20,264.77,180921,,,D*4D
$GPGGA,191502.750,4308.4647,N,07726.9566,W,2,06,1.39,157.1,M,-34.4,M,0000,0000*56
$GPRMC,191503.000,A,4308.4645,N,07726.9597,W,32.21,264.85,180921,,,D*40
$GPGGA,191503.250,4308.4643,N,07726.9628,W,2,06,1.39,156.9,M,-34.4,M,0000,0000*56
$GPRMC,191503.500,A,4308.4641,N,07726.9660,W,32.26,264.84,180921,,,D*4C
$GPGGA,191503.750,4308.4639,N,07726.9691,W,2,06,1.39,156.9,M,-34.4,M,0000,0000*5C
$GPRMC,191504.000,A,4308.4638,N,07726.9722,W,32.45,264.87,180921,,,D*41
$GPGGA,191504.250,4308.4636,N,07726.9753,W,2,06,1.39,156.9,M,-34.4,M,0000,0000*5E
$GPRMC,191504.500,A,4308.4634,N,07726.9783,W,32.18,264.73,180921,,,D*40
$GPGGA,191504.750,4308.4632,N,07726.9815,W,2,06,1.39,156.9,M,-34.4,M,0000,0000*52
$GPRMC,191505.000,A,4308.4629,N,07726.9846,W,32.27,264.57,180921,,,D*44
$GPGGA,191505.250,4308.4627,N,07726.9876,W,2,06,1.39,156.9,M,-34.4,M,0000,0000*57
$GPRMC,191505.500,A,4308.4624,N,07726.9907,W,32.29,263.74,180921,,,D*40
$GPGGA,191505.750,4308.4621,N,07726.9937,W,2,06,1.39,156.9,M,-34.4,M,0000,0000*50
$GPRMC,191506.000,A,4308.4618,N,07726.9968,W,32.51,263.26,180921,,,D*48
$GPGGA,191506.250,4308.4615,N,07727.0000,W,2,06,1.39,156.9,M,-34.4,M,0000,0000*54
$GPRMC,191506.500,A,4308.4612,N,07727.0031,W,32.90,262.54,180921,,,D*43
$GPGGA,191506.750,4308.4609,N,07727.0063,W,2,06,1.39,156.9,M,-34.4,M,0000,0000*59
$GPRMC,191507.000,A,4308.4606,N,07727.0094,W,33.13,262.36,180921,,,D*43
$GPGGA,191507.250,4308.4603,N,07727.0126,W,2,06,1.39,156.9,M,-34.4,M,0000,0000*57
$GPRMC,191507.500,A,4308.4600,N,07727.0158,W,33.58,262.68,180921,,,D*45
$GPGGA,191507.750,4308.4598,N,07727.0191,W,2,06,1.39,156.8,M,-34.4,M,0000,0000*5E
$GPRMC,191508.000,A,4308.4595,N,07727.0223,W,33.92,263.51,180921,,,D*42
$GPGGA,191508.250,4308.4594,N,07727.0256,W,2,06,1.39,156.8,M,-34.4,M,0000,0000*50
$GPRMC,191508.500,A,4308.4593,N,07727.0290,W,34.37,265.08,180921,,,D*4B
$GPGGA,191508.750,4308.4591,N,07727.0323,W,2,06,1.39,156.6,M,-34.4,M,0000,0000*5D
$GPRMC,191509.000,A,4308.4590,N,07727.0356,W,34.61,265.93,180921,,,D*46
$GPGGA,191509.250,4308.4590,N,07727.0390,W,2,06,1.39,156.5,M,-34.4,M,0000,0000*53
$GPRMC,191509.500,A,4308.4589,N,07727.0424,W,35.09,267.01,180921,,,D*4F
$GPGGA,191509.750,4308.4589,N,07727.0459,W,2,06,1.39,156.3,M,-34.4,M,0000,0000*5A
$GPRMC,191510.000,A,4308.4589,N,07727.0493,W,35.37,267.90,180921,,,D*4B
$GPGGA,191510.250,4308.4590,N,07727.0528,W,2,06,1.39,155.9,M,-34.4,M,0000,0000*51
$GPRMC,191510.500,A,4308.4590,N,07727.0564,W,35.77,269.23,180921,,,D*4D
$GPGGA,191510.750,4308.4592,N,07727.0600,W,2,06,1.39,155.6,M,-34.4,M,0000,0000*50
$GPRMC,191511.000,A,4308.4593,N,07727.0635,W,36.22,270.90,180921,,,D*4E
$GPGGA,191511.250,4308.4594,N,07727.0670,W,2,06,1.39,155.5,M,-34.4,M,0000,0000*56
$GPRMC,191511.500,A,4308.4595,N,07727.0706,W,37.36,272.25,180921,,,D*44
$GPGGA,191511.750,4308.4596,N,07727.0741,W,2,06,1.39,155.4,M,-34.4,M,0000,0000*53
$GPRMC,191512.000,A,4308.4599,N,07727.0776,W,37.78,273.92,180921,,,D*4E
$GPGGA,191512.250,4308.4601,N,07727.0812,W,2,06,1.39,155.2,M,-34.4,M,0000,0000*57
$GPRMC,191512.500,A,4308.4603,N,07727.0847,W,38.07,274.92,180921,,,D*46
$GPGGA,191512.750,4308.4606,N,07727.0883,W,2,06,1.39,155.1,M,-34.4,M,0000,0000*5E
$GPRMC,191513.000,A,4308.4608,N,07727.0919,W,38.30,275.64,180921,,,D*4F
$GPGGA,191513.250,4308.4611,N,07727.0954,W,2,06,1.39,155.2,M,-34.4,M,0000,0000*54
$GPRMC,191513.500,A,4308.4615,N,07727.0989,W,38.31,277.30,180921,,,D*4D
$GPGGA,191513.750,4308.4619,N,07727.1024,W,2,06,1.39,155.4,M,-34.4,M,0000,0000*50
$GPRMC,191514.000,A,4308.4623,N,07727.1059,W,38.20,278.58,180921,,,D*4E
$GPGGA,191514.250,4308.4628,N,07727.1095,W,2,06,1.39,155.6,M,-34.4,M,0000,0000*58
$GPRMC,191514.500,A,4308.4632,N,07727.1131,W,38.22,279.33,180921,,,D*4A
$GPGGA,191514.750,4308.4637,N,07727.1166,W,2,06,1.39,155.9,M,-34.4,M,0000,0000*51
$GPRMC,191515.000,A,4308.4641,N,07727.1202,W,38.38,279.86,180921,,,D*4C
$GPGGA,191515.250,4308.4646,N,07727.1238,W,2,06,1.39,156.0,M,-34.4,M,0000,0000*51
$GPRMC,191515.500,A,4308.4651,N,07727.1274,W,38.44,280.37,180921,,,D*4E
$GPGGA,191515.750,4308.4656,N,07727.1309,W,2,06,1.39,156.1,M,-34.4,M,0000,0000*57
$GPRMC,191516.000,A,4308.4661,N,07727.1345,W,38.51,280.69,180921,,,D*47
$GPGGA,191516.250,4308.4666,N,07727.1381,W,2,06,1.39,156.3,M,-34.4,M,0000,0000*50
$GPRMC,191516.500,A,4308.4671,N,07727.1416,W,38.52,280.98,180921,,,D*4F
$GPGGA,191516.750,4308.4676,N,07727.1452,W,2,06,1.39,156.4,M,-34.4,M,0000,0000*5A
$GPRMC,191517.000,A,4308.4681,N,07727.1487,W,38.29,281.26,180921,,,D*44
$GPGGA,191517.250,4308.4687,N,07727.1523,W,2,06,1.39,156.5,M,-34.4,M,0000,0000*56
$GPRMC,191517.500,A,4308.4693,N,07727.1558,W,38.16,281.75,180921,,,D*4B
$GPGGA,191517.750,4308.4698,N,07727.1593,W,2,06,1.39,156.7,M,-34.4,M,0000,0000*54
$GPRMC,191518.000,A,4308.4703,N,07727.1628,W,37.70,281.62,180921,,,D*44
$GPGGA,191518.250,4308.4708,N,07727.1663,W,2,06,1.39,156.9,M,-34.4,M,0000,0000*54
$GPRMC,191518.500,A,4308.4714,N,07727.1697,W,37.46,281.66,180921,,,D*42
$GPGGA,191518.750,4308.4719,N,07727.1732,W,2,06,1.39,157.0,M,-34.4,M,0000,0000*5C
$GPRMC,191519.000,A,4308.4724,N,07727.1767,W,37.37,281.25,180921,,,D*4A
$GPGGA,191519.250,4308.4729,N,07727.1803,W,2,06,1.39,157.1,M,-34.4,M,0000,0000*57
$GPRMC,191519.500,A,4308.4734,N,07727.1838,W,37.45,280.61,180921,,,D*4F
$GPGGA,191519.750,4308.4738,N,07727.1874,W,2,06,1.39,157.2,M,-34.4,M,0000,0000*51
$GPRMC,191520.000,A,4308.4742,N,07727.1909,W,37.43,279.96,180921,,,D*4A
$GPGGA,191520.250,4308.4746,N,07727.1944,W,2,06,1.39,157.3,M,-34.4,M,0000,0000*54
$GPRMC,191520.500,A,4308.4751,N,07727.1980,W,37.75,279.46,180921,,,D*44
$GPGGA,191520.750,4308.4755,N,07727.2016,W,2,06,1.39,157.3,M,-34.4,M,0000,0000*5E
$GPRMC,191521.000,A,4308.4759,N,07727.2052,W,37.82,279.52,180921,,,D*40
$GPGGA,191521.250,4308.4764,N,07727.2088,W,2,06,1.39,157.2,M,-34.4,M,0000,0000*5E
$GPRMC,191521.500,A,4308.4768,N,07727.2124,W,37.75,279.32,180921,,,D*49
$GPGGA,191521.750,4308.4771,N,07727.2159,W,2,06,1.39,157.3,M,-34.4,M,0000,0000*53
$GPRMC,191522.000,A,4308.4775,N,07727.2195,W,37.78,278.92,180921,,,D*4F
$GPGGA,191522.250,4308.4779,N,07727.2231,W,2,06,1.39,157.3,M,-34.4,M,0000,0000*50
$GPRMC,191522.500,A,4308.4784,N,07727.2266,W,37.98,279.04,180921,,,D*4B
$GPGGA,191522.750,4308.4788,N,07727.2302,W,2,06,1.39,157.4,M,-34.4,M,0000,0000*5D
$GPRMC,191523.000,A,4308.4792,N,07727.2337,W,37.78,279.45,180921,,,D*46
$GPGGA,191523.250,4308.4795,N,07727.2372,W,2,06,1.39,157.4,M,-34.4,M,0000,0000*52
$GPRMC,191523.500,A,4308.4799,N,07727.2408,W,37.77,279.25,180921,,,D*4A
$GPGGA,191523.750,4308.4803,N,07727.2443,W,2,06,1.39,157.4,M,-34.4,M,0000,0000*52
$GPRMC,191524.000,A,4308.4806,N,07727.2478,W,37.61,278.89,180921,,,D*46
$GPGGA,191524.250,4308.4810,N,07727.2512,W,2,06,1.39,157.6,M,-34.4,M,0000,0000*55
$GPRMC,191524.500,A,4308.4814,N,07727.2546,W,37.48,278.97,180921,,,D*48
$GPGGA,191524.750,4308.4818,N,07727.2580,W,2,06,1.39,157.7,M,-34.4,M,0000,0000*52
$GPRMC,191525.000,A,4308.4821,N,07727.2613,W,35.76,278.97,180921,,,D*46
$GPGGA,191525.250,4308.4824,N,07727.2646,W,2,06,1.39,158.0,M,-34.4,M,0000,0000*58
$GPRMC,191525.500,A,4308.4827,N,07727.2679,W,35.49,278.47,180921,,,D*48
$GPGGA,191525.750,4308.4830,N,07727.2712,W,2,06,1.39,158.2,M,-34.4,M,0000,0000*5A
$GPRMC,191526.000,A,4308.4833,N,07727.2745,W,35.47,278.37,180921,,,D*4C
$GPGGA,191526.250,4308.4836,N,07727.2778,W,2,06,1.39,158.5,M,-34.4,M,0000,0000*51
$GPRMC,191526.500,A,4308.4839,N,07727.2812,W,35.87,277.69,180921,,,D*46
$GPGGA,191526.750,4308.4842,N,07727.2845,W,2,06,1.39,158.7,M,-34.4,M,0000,0000*54
$GPRMC,191527.000,A,4308.4846,N,07727.2879,W,35.90,277.88,180921,,,D*4E
$GPGGA,191527.250,4308.4849,N,07727.2913,W,2,06,1.39,158.9,M,-34.4,M,0000,0000*57
$GPRMC,191527.500,A,4308.4853,N,07727.2947,W,35.94,278.37,180921,,,D*4C
$GPGGA,191527.750,4308.4857,N,07727.2981,W,2,06,1.39,159.1,M,-34.4,M,0000,0000*5F
$GPRMC,191528.000,A,4308.4860,N,07727.3015,W,36.16,278.65,180921,,,D*47
$GPGGA,191528.250,4308.4865,N,07727.3049,W,2,06,1.39,159.4,M,-34.4,M,0000,0000*5D
$GPRMC,191528.500,A,4308.4870,N,07727.3083,W,36.13,279.41,180921,,,D*4E
$GPGGA,191528.750,4308.4874,N,07727.3117,W,2,06,1.39,159.6,M,-34.4,M,0000,0000*50
$GPRMC,191529.000,A,4308.4877,N,07727.3151,W,36.15,279.10,180921,,,D*41
$GPGGA,191529.250,4308.4881,N,07727.3185,W,2,06,1.39,159.9,M,-34.4,M,0000,0000*5A
$GPRMC,191529.500,A,4308.4884,N,07727.3219,W,36.14,278.28,180921,,,D*4C
$GPGGA,191529.750,4308.4888,N,07727.3253,W,2,06,1.39,160.1,M,-34.4,M,0000,0000*5C
$GPRMC,191530.000,A,4308.4891,N,07727.3287,W,36.10,278.30,180921,,,D*4F
$GPGGA,191530.250,4308.4894,N,07727.3321,W,2,06,1.39,160.3,M,-34.4,M,0000,0000*5A
$GPRMC,191530.500,A,4308.4898,N,07727.3356,W,36.04,278.24,180921,,,D*4E
$GPGGA,191530.750,4308.4902,N,07727.3390,W,2,06,1.39,160.6,M,-34.4,M,0000,0000*5E
$GPRMC,191531.000,A,4308.4906,N,07727.3424,W,36.23,278.74,180921,,,D*4E
$GPGGA,191531.250,4308.4909,N,07727.3458,W,2,06,1.39,160.8,M,-34.4,M,0000,0000*5C
$GPRMC,191531.500,A,4308.4913,N,07727.3492,W,36.02,279.24,180921,,,D*45
$GPGGA,191531.750,4308.4917,N,07727.3526,W,2,06,1.39,160.9,M,-34.4,M,0000,0000*5F
$GPRMC,191532.000,A,4308.4921,N,07727.3559,W,35.95,279.24,180921,,,D*49
$GPGGA,191532.250,4308.4924,N,07727.3592,W,2,06,1.39,161.0,M,-34.4,M,0000,0000*5E
$GPRMC,191532.500,A,4308.4927,N,07727.3626,W,36.05,278.87,180921,,,D*43
$GPGGA,191532.750,4308.4931,N,07727.3660,W,2,06,1.39,161.0,M,-34.4,M,0000,0000*51
$GPRMC,191533.000,A,4308.4934,N,07727.3694,W,36.42,278.76,180921,,,D*41
$GPGGA,191533.250,4308.4938,N,07727.3728,W,2,06,1.39,161.0,M,-34.4,M,0000,0000*51
$GPRMC,191533.500,A,4308.4942,N,07727.3762,W,36.56,279.17,180921,,,D*4E
$GPGGA,191533.750,4308.4946,N,07727.3797,W,2,06,1.39,160.9,M,-34.4,M,0000,0000*51
$GPRMC,191534.000,A,4308.4950,N,07727.3831,W,36.58,279.41,180921,,,D*4B
$GPGGA,191534.250,4308.4955,N,07727.3866,W,2,06,1.39,160.7,M,-34.4,M,0000,0000*5E
$GPRMC,191534.500,A,4308.4959,N,07727.3901,W,36.59,279.62,180921,,,D*45
$GPGGA,191534.750,4308.4964,N,07727.3935,W,2,06,1.39,160.6,M,-34.4,M,0000,0000*5F
$GPRMC,191535.000,A,4308.4967,N,07727.3970,W,36.64,279.34,180921,,,D*47
$GPGGA,191535.250,4308.4972,N,07727.4005,W,2,06,1.39,160.4,M,-34.4,M,0000,0000*53
$GPRMC,191535.500,A,4308.4975,N,07727.4039,W,36.80,279.31,180921,,,D*4D
$GPGGA,191535.750,4308.4979,N,07727.4073,W,2,06,1.39,160.4,M,-34.4,M,0000,0000*5C
$GPRMC,191536.000,A,4308.4983,N,07727.4107,W,36.59,279.23,180921,,,D*49
$GPGGA,191536.250,4308.4987,N,07727.4141,W,2,06,1.39,160.4,M,-34.4,M,0000,0000*5B
$GPRMC,191536.500,A,4308.4991,N,07727.4175,W,36.66,279.56,180921,,,D*44
$GPGGA,191536.750,4308.4994,N,07727.4209,W,2,06,1.39,160.6,M,-34.4,M,0000,0000*51
$GPRMC,191537.000,A,4308.4998,N,07727.4243,W,36.69,279.51,180921,,,D*47
$GPGGA,191537.250,4308.5002,N,07727.4277,W,2,06,1.39,160.7,M,-34.4,M,0000,0000*5A
$GPRMC,191537.500,A,4308.5006,N,07727.4310,W,36.48,279.57,180921,,,D*4F
$GPGGA,191537.750,4308.5010,N,07727.4344,W,2,06,1.39,160.8,M,-34.4,M,0000,0000*52
$GPRMC,191538.000,A,4308.5014,N,07727.4377,W,36.25,279.82,180921,,,D*44
$GPGGA,191538.250,4308.5018,N,07727.4410,W,2,06,1.39,160.9,M,-34.4,M,0000,0000*57
$GPRMC,191538.500,A,4308.5022,N,07727.4443,W,36.21,279.90,180921,,,D*43
$GPGGA,191538.750,4308.5026,N,07727.4477,W,2,06,1.39,161.0,M,-34.4,M,0000,0000*56
$GPRMC,191539.000,A,4308.5029,N,07727.4510,W,35.97,279.58,180921,,,D*41
$GPGGA,191539.250,4308.5033,N,07727.4543,W,2,06,1.39,161.2,M,-34.4,M,0000,0000*52
$GPRMC,191539.500,A,4308.5037,N,07727.4577,W,35.93,279.18,180921,,,D*4A
$GPGGA,191539.750,4308.5041,N,07727.4610,W,2,06,1.39,161.2,M,-34.4,M,0000,0000*57
$GPRMC,191540.000,A,4308.5046,N,07727.4643,W,35.87,279.43,180921,,,D*48
$GPGGA,191540.250,4308.5051,N,07727.4677,W,2,06,1.39,161.3,M,-34.4,M,0000,0000*5D
$GPRMC,191540.500,A,4308.5055,N,07727.4710,W,35.41,279.44,180921,,,D*45
$GPGGA,191540.750,4308.5059,N,07727.4744,W,2,06,1.39,161.3,M,-34.4,M,0000,0000*51
$GPRMC,191541.000,A,4308.5063,N,07727.4777,W,35.37,279.32,180921,,,D*45
$GPGGA,191541.250,4308.5067,N,07727.4811,W,2,06,1.32,161.3,M,-34.4,M,0000,0000*5C
$GPRMC,191541.500,A,4308.5071,N,07727.4844,W,35.71,279.38,180921,,,D*44
$GPGGA,191541.750,4308.5075,N,07727.4878,W,2,06,1.39,161.3,M,-34.4,M,0000,0000*5E
$GPRMC,191542.000,A,4308.5079,N,07727.4911,W,35.87,279.07,180921,,,D*4E
$GPGGA,191542.250,4308.5083,N,07727.4945,W,2,06,1.39,161.3,M,-34.4,M,0000,0000*5E
$GPRMC,191542.500,A,4308.5086,N,07727.4980,W,35.97,278.36,180921,,,D*41
$GPGGA,191542.750,4308.5090,N,07727.5014,W,2,06,1.39,161.2,M,-34.4,M,0000,0000*54
$GPRMC,191543.000,A,4308.5094,N,07727.5048,W,36.11,278.19,180921,,,D*4A
$GPGGA,191543.250,4308.5098,N,07727.5082,W,2,06,1.39,161.1,M,-34.4,M,0000,0000*54
$GPRMC,191543.500,A,4308.5102,N,07727.5116,W,36.21,278.42,180921,,,D*46
$GPGGA,191543.750,4308.5106,N,07727.5149,W,2,06,1.39,161.0,M,-34.4,M,0000,0000*50
$GPRMC,191544.000,A,4308.5110,N,07727.5183,W,36.27,278.66,180921,,,D*4B
$GPGGA,191544.250,4308.5114,N,07727.5216,W,2,06,1.39,160.9,M,-34.4,M,0000,0000*50
$GPRMC,191544.500,A,4308.5118,N,07727.5249,W,36.04,278.85,180921,,,D*4F
$GPGGA,191544.750,4308.5123,N,07727.5282,W,2,06,1.39,160.8,M,-34.4,M,0000,0000*5D
$GPRMC,191545.000,A,4308.5127,N,07727.5315,W,35.79,279.33,180921,,,D*4A
$GPGGA,191545.250,4308.5131,N,07727.5348,W,2,06,1.39,160.7,M,-34.4,M,0000,0000*52
$GPRMC,191545.500,A,4308.5135,N,07727.5380,W,35.53,279.41,180921,,,D*4D
$GPGGA,191545.750,4308.5139,N,07727.5413,W,2,06,1.39,160.6,M,-34.4,M,0000,0000*57
$GPRMC,191546.000,A,4308.5143,N,07727.5445,W,35.10,279.46,180921,,,D*44
$GPGGA,191546.250,4308.5146,N,07727.5478,W,2,06,1.39,160.4,M,-34.4,M,0000,0000*56
$GPRMC,191546.500,A,4308.5148,N,07727.5510,W,34.74,279.03,180921,,,D*49
$GPGGA,191546.750,4308.5151,N,07727.5542,W,2,06,1.39,160.3,M,-34.4,M,0000,0000*5A
$GPRMC,191547.000,A,4308.5154,N,07727.5574,W,34.59,279.25,180921,,,D*49
$GPGGA,191547.250,4308.5158,N,07727.5605,W,2,06,1.39,160.2,M,-34.4,M,0000,0000*56
$GPRMC,191547.500,A,4308.5161,N,07727.5637,W,34.41,278.95,180921,,,D*4D
$GPGGA,191547.750,4308.5165,N,07727.5669,W,2,06,1.39,160.0,M,-34.4,M,0000,0000*55
$GPRMC,191548.000,A,4308.5168,N,07727.5700,W,34.28,278.65,180921,,,D*4B
$GPGGA,191548.250,4308.5172,N,07727.5732,W,2,06,1.39,159.9,M,-34.4,M,0000,0000*55
$GPRMC,191548.500,A,4308.5175,N,07727.5763,W,34.15,278.12,180921,,,D*49
$GPGGA,191548.750,4308.5178,N,07727.5795,W,2,06,1.39,159.8,M,-34.4,M,0000,0000*56
$GPRMC,191549.000,A,4308.5181,N,07727.5826,W,33.75,277.71,180921,,,D*43
$GPGGA,191549.250,4308.5184,N,07727.5859,W,2,06,1.39,159.7,M,-34.4,M,0000,0000*51
$GPRMC,191549.500,A,4308.5187,N,07727.5891,W,34.26,277.47,180921,,,D*48
$GPGGA,191549.750,4308.5190,N,07727.5923,W,2,06,1.39,159.5,M,-34.4,M,0000,0000*5F
$GPRMC,191550.000,A,4308.5193,N,07727.5955,W,34.26,277.69,180921,,,D*45
$GPGGA,191550.250,4308.5196,N,07727.5987,W,2,06,1.39,159.3,M,-34.4,M,0000,0000*5C
$GPRMC,191550.500,A,4308.5200,N,07727.6019,W,34.26,277.94,180921,,,D*49
$GPGGA,191550.750,4308.5204,N,07727.6051,W,2,06,1.39,159.1,M,-34.4,M,0000,0000*52
$GPRMC,191551.000,A,4308.5207,N,07727.6082,W,34.19,278.07,180921,,,D*41
$GPGGA,191551.250,4308.5210,N,07727.6114,W,2,06,1.39,158.9,M,-34.4,M,0000,0000*5A
$GPRMC,191551.500,A,4308.5214,N,07727.6145,W,34.09,278.15,180921,,,D*4E
$GPGGA,191551.750,4308.5218,N,07727.6176,W,2,06,1.39,158.7,M,-34.4,M,0000,0000*5D
$GPRMC,191552.000,A,4308.5222,N,07727.6208,W,34.11,278.21,180921,,,D*49
$GPGGA,191552.250,4308.5225,N,07727.6240,W,2,06,1.39,158.6,M,-34.4,M,0000,0000*52
$GPRMC,191552.500,A,4308.5229,N,07727.6272,W,34.61,278.20,180921,,,D*4C
$GPGGA,191552.750,4308.5234,N,07727.6304,W,2,06,1.39,158.4,M,-34.4,M,0000,0000*54
$GPRMC,191553.000,A,4308.5238,N,07727.6336,W,34.69,278.16,180921,,,D*44
$GPGGA,191553.250,4308.5242,N,07727.6368,W,2,06,1.39,158.1,M,-34.4,M,0000,0000*5E
$GPRMC,191553.500,A,4308.5246,N,07727.6401,W,34.49,277.66,180921,,,D*41
$GPGGA,191553.750,4308.5250,N,07727.6433,W,2,06,1.39,157.8,M,-34.4,M,0000,0000*57
$GPRMC,191554.000,A,4308.5253,N,07727.6465,W,34.19,277.02,180921,,,D*42
$GPGGA,191554.250,4308.5256,N,07727.6497,W,2,06,1.39,157.5,M,-34.4,M,0000,0000*50
$GPRMC,191554.500,A,4308.5260,N,07727.6529,W,34.11,276.56,180921,,,D*46
$GPGGA,191554.750,4308.5263,N,07727.6561,W,2,06,1.39,157.3,M,-34.4,M,0000,0000*5D
$GPRMC,191555.000,A,4308.5266,N,07727.6592,W,33.83,276.14,180921,,,D*4E
$GPGGA,191555.250,4308.5270,N,07727.6624,W,2,06,1.39,157.0,M,-34.4,M,0000,0000*5A
$GPRMC,191555.500,A,4308.5274,N,07727.6655,W,33.75,276.01,180921,,,D*4D
$GPGGA,191555.750,4308.5277,N,07727.6687,W,2,06,1.39,156.7,M,-34.4,M,0000,0000*57
$GPRMC,191556.000,A,4308.5280,N,07727.6718,W,33.63,275.87,180921,,,D*42
$GPGGA,191556.250,4308.5284,N,07727.6749,W,2,06,1.39,156.4,M,-34.4,M,0000,0000*5D
$GPRMC,191556.500,A,4308.5287,N,07727.6780,W,33.55,275.99,180921,,,D*4B
$GPGGA,191556.750,4308.5289,N,07727.6812,W,2,06,1.39,156.2,M,-34.4,M,0000,0000*52
$GPRMC,191557.000,A,4308.5291,N,07727.6843,W,33.42,275.14,180921,,,D*4B
$GPGGA,191557.250,4308.5293,N,07727.6873,W,2,06,1.39,155.9,M,-34.4,M,0000,0000*52
$GPRMC,191557.500,A,4308.5295,N,07727.6903,W,33.28,274.44,180921,,,D*47
$GPGGA,191557.750,4308.5297,N,07727.6934,W,2,06,1.39,155.7,M,-34.4,M,0000,0000*5F
$GPRMC,191558.000,A,4308.5299,N,07727.6963,W,33.12,274.04,180921,,,D*4A
$GPGGA,191558.250,4308.5300,N,07727.6993,W,2,06,1.39,155.5,M,-34.4,M,0000,0000*55
$GPRMC,191558.500,A,4308.5302,N,07727.7023,W,31.91,273.87,180921,,,D*45
$GPGGA,191558.750,4308.5304,N,07727.7052,W,2,06,1.39,155.3,M,-34.4,M,0000,0000*57
$GPRMC,191559.000,A,4308.5306,N,07727.7082,W,31.57,273.92,180921,,,D*40
$GPGGA,191559.250,4308.5308,N,07727.7111,W,2,06,1.39,155.1,M,-34.4,M,0000,0000*5B
$GPRMC,191559.500,A,4308.5309,N,07727.7140,W,31.44,274.05,180921,,,D*4E
$GPGGA,191559.750,4308.5311,N,07727.7169,W,2,06,1.39,154.9,M,-34.4,M,0000,0000*50
$GPRMC,191600.000,A,4308.5312,N,07727.7197,W,31.07,273.64,180921,,,D*43
$GPGGA,191600.250,4308.5314,N,07727.7225,W,2,06,1.39,154.9,M,-34.4,M,0000,0000*54
$GPRMC,191600.500,A,4308.5316,N,07727.7253,W,31.01,273.89,180921,,,D*4C
$GPGGA,191600.750,4308.5318,N,07727.7281,W,2,06,1.39,154.8,M,-34.4,M,0000,0000*52
$GPRMC,191601.000,A,4308.5320,N,07727.7308,W,30.80,274.72,180921,,,D*49
$GPGGA,191601.250,4308.5322,N,07727.7336,W,2,06,1.39,154.7,M,-34.4,M,0000,0000*5D
$GPRMC,191601.500,A,4308.5324,N,07727.7363,W,30.61,274.94,180921,,,D*42
$GPGGA,191601.750,4308.5325,N,07727.7391,W,2,06,1.39,154.6,M,-34.4,M,0000,0000*53
$GPRMC,191602.000,A,4308.5327,N,07727.7418,W,29.12,274.46,180921,,,D*4F
$GPGGA,191602.250,4308.5328,N,07727.7445,W,2,06,1.39,154.6,M,-34.4,M,0000,0000*56
$GPRMC,191602.500,A,4308.5329,N,07727.7473,W,28.94,273.47,180921,,,D*40
$GPGGA,191602.750,4308.5330,N,07727.7499,W,2,06,1.39,154.7,M,-34.4,M,0000,0000*5A
$GPRMC,191603.000,A,4308.5331,N,07727.7526,W,28.52,273.27,180921,,,D*40
$GPGGA,191603.250,4308.5332,N,07727.7552,W,2,06,1.39,154.7,M,-34.4,M,0000,0000*5A
$GPRMC,191603.500,A,4308.5333,N,07727.7579,W,28.37,273.08,180921,,,D*43
$GPGGA,191603.750,4308.5334,N,07727.7604,W,2,06,1.39,154.6,M,-34.4,M,0000,0000*58
$GPRMC,191604.000,A,4308.5335,N,07727.7631,W,27.47,273.08,180921,,,D*40
$GPGGA,191604.250,4308.5336,N,07727.7657,W,2,06,1.39,154.5,M,-34.4,M,0000,0000*5D
$GPRMC,191604.500,A,4308.5337,N,07727.7683,W,27.39,272.65,180921,,,D*4D
$GPGGA,191604.750,4308.5338,N,07727.7708,W,2,06,1.39,154.4,M,-34.4,M,0000,0000*5C
$GPRMC,191605.000,A,4308.5339,N,07727.7734,W,26.97,272.05,180921,,,D*49
$GPGGA,191605.250,4308.5340,N,07727.7759,W,2,06,1.39,154.4,M,-34.4,M,0000,0000*53
$GPRMC,191605.500,A,4308.5341,N,07727.7784,W,26.70,271.96,180921,,,D*48
$GPGGA,191605.750,4308.5342,N,07727.7808,W,2,06,1.39,154.3,M,-34.4,M,0000,0000*58
$GPRMC,191606.000,A,4308.5342,N,07727.7832,W,25.24,271.55,180921,,,D*42
$GPGGA,191606.250,4308.5342,N,07727.7855,W,2,06,1.39,154.3,M,-34.4,M,0000,0000*56
$GPRMC,191606.500,A,4308.5343,N,07727.7878,W,24.20,271.09,180921,,,D*44
$GPGGA,191606.750,4308.5343,N,07727.7898,W,2,06,1.39,154.2,M,-34.4,M,0000,0000*52
$GPRMC,191607.000,A,4308.5344,N,07727.7919,W,22.55,270.37,180921,,,D*49
$GPGGA,191607.250,4308.5344,N,07727.7938,W,2,06,1.39,154.3,M,-34.4,M,0000,0000*5B
$GPRMC,191607.500,A,4308.5346,N,07727.7956,W,20.64,270.67,180921,,,D*40
$GPGGA,191607.750,4308.5346,N,07727.7973,W,2,06,1.39,154.6,M,-34.4,M,0000,0000*56
$GPRMC,191608.000,A,4308.5347,N,07727.7991,W,18.88,270.41,180921,,,D*4D
$GPGGA,191606.250,4308.5347,N,07727.8005,W,2,06,1.39,155.0,M,-34.4,M,0000,0000*53
$GPRMC,191606.500,A,4308.5347,N,07727.8019,W,16.11,269.45,180921,,,D*42
$GPGGA,191606.750,4308.5348,N,07727.8040,W,2,06,1.39,155.3,M,-34.4,M,0000,0000*5B
$GPRMC,191607.000,A,4308.5349,N,07727.8056,W,14.59,268.90,180921,,,D*44
$GPGGA,191607.250,4308.5349,N,07727.8069,W,2,06,1.39,155.6,M,-34.4,M,0000,0000*50
$GPRMC,191607.500,A,4308.5349,N,07727.8080,W,11.70,265.05,180921,,,D*45
$GPGGA,191607.750,4308.5350,N,07727.8088,W,2,06,1.39,155.8,M,-34.4,M,0000,0000*5C
$GPRMC,191608.000,A,4308.5350,N,07727.8095,W,8.98,262.32,180921,,,D*7E
$GPGGA,191608.250,4308.5351,N,07727.8100,W,2,06,1.39,156.1,M,-34.4,M,0000,0000*5C
$GPRMC,191608.500,A,4308.5351,N,07727.8103,W,6.27,253.48,180921,,,D*71
$GPGGA,191608.750,4308.5351,N,07727.8106,W,2,06,1.39,156.0,M,-34.4,M,0000,0000*5E
$GPRMC,191609.000,A,4308.5351,N,07727.8110,W,4.87,252.55,180921,,,D*72
$GPGGA,191609.250,4308.5353,N,07727.8108,W,2,06,1.39,155.2,M,-34.4,M,0000,0000*57
$GPRMC,191609.500,A,4308.5353,N,07727.8110,W,4.07,256.84,180921,,,D*75
$GPGGA,191609.750,4308.5353,N,07727.8113,W,2,06,1.39,155.1,M,-34.4,M,0000,0000*5B
$GPRMC,191610.000,A,4308.5352,N,07727.8112,W,2.94,242.77,180921,,,D*7E
$GPGGA,191610.250,4308.5352,N,07727.8114,W,2,06,1.32,155.4,M,-34.4,M,0000,0000*5E
$GPRMC,191610.500,A,4308.5352,N,07727.8117,W,2.95,250.49,180921,,,D*71
$GPGGA,191610.750,4308.5352,N,07727.8119,W,2,06,1.32,155.4,M,-34.4,M,0000,0000*56
$GPRMC,191611.000,A,4308.5352,N,07727.8122,W,3.84,264.70,180921,,,D*7F
$GPGGA,191611.250,4308.5353,N,07727.8126,W,2,06,1.32,155.3,M,-34.4,M,0000,0000*58
$GPRMC,191611.500,A,4308.5353,N,07727.8132,W,6.24,274.61,180921,,,D*74
$GPGGA,191611.750,4308.5354,N,07727.8139,W,2,06,1.39,155.2,M,-34.4,M,0000,0000*5E
$GPRMC,191612.000,A,4308.5356,N,07727.8146,W,8.01,277.63,180921,,,D*7C
$GPGGA,191612.250,4308.5357,N,07727.8154,W,2,06,1.39,155.0,M,-34.4,M,0000,0000*52
$GPRMC,191612.500,A,4308.5359,N,07727.8163,W,9.76,279.71,180921,,,D*7D
$GPGGA,191612.750,4308.5360,N,07727.8173,W,2,06,1.39,154.9,M,-34.4,M,0000,0000*5E
$GPRMC,191613.000,A,4308.5362,N,07727.8183,W,11.30,280.63,180921,,,D*41
$GPGGA,191613.250,4308.5364,N,07727.8196,W,2,06,1.39,154.9,M,-34.4,M,0000,0000*55
$GPRMC,191613.500,A,4308.5366,N,07727.8209,W,13.22,281.21,180921,,,D*47
$GPGGA,191613.750,4308.5368,N,07727.8226,W,2,06,1.39,154.8,M,-34.4,M,0000,0000*55
$GPRMC,191614.000,A,4308.5370,N,07727.8241,W,15.49,280.76,180921,,,D*46
$GPGGA,191614.250,4308.5371,N,07727.8257,W,2,06,1.39,154.6,M,-34.4,M,0000,0000*57
$GPRMC,191614.500,A,4308.5373,N,07727.8278,W,16.57,278.60,180921,,,D*46
$GPGGA,191614.750,4308.5375,N,07727.8297,W,2,06,1.39,154.5,M,-34.4,M,0000,0000*59
$GPRMC,191615.000,A,4308.5377,N,07727.8314,W,17.92,276.87,180921,,,D*42
$GPGGA,191615.250,4308.5378,N,07727.8332,W,2,06,1.39,154.4,M,-34.4,M,0000,0000*5F
$GPRMC,191615.500,A,4308.5379,N,07727.8350,W,18.18,276.37,180921,,,D*4F
$GPGGA,191615.750,4308.5380,N,07727.8368,W,2,06,1.39,154.3,M,-34.4,M,0000,0000*55
$GPRMC,191616.000,A,4308.5381,N,07727.8386,W,18.29,275.49,180921,,,D*4D
$GPGGA,191616.250,4308.5383,N,07727.8404,W,2,06,1.39,154.3,M,-34.4,M,0000,0000*5D
$GPRMC,191616.500,A,4308.5384,N,07727.8424,W,19.01,275.24,180921,,,D*42
$GPGGA,191616.750,4308.5386,N,07727.8446,W,2,06,1.39,154.2,M,-34.4,M,0000,0000*5A
$GPRMC,191617.000,A,4308.5387,N,07727.8466,W,20.32,275.25,180921,,,D*48
$GPGGA,191617.250,4308.5388,N,07727.8488,W,2,06,1.39,154.2,M,-34.4,M,0000,0000*52
$GPRMC,191617.500,A,4308.5389,N,07727.8508,W,20.91,274.58,180921,,,D*48
$GPGGA,191617.750,4308.5390,N,07727.8529,W,2,06,1.39,154.3,M,-34.4,M,0000,0000*55
$GPRMC,191618.000,A,4308.5391,N,07727.8550,W,21.03,274.31,180921,,,D*43
$GPGGA,191618.250,4308.5391,N,07727.8571,W,2,06,1.39,154.2,M,-34.4,M,0000,0000*52
$GPRMC,191618.500,A,4308.5390,N,07727.8597,W,22.50,273.99,180921,,,D*4C
$GPGGA,191618.750,4308.5390,N,07727.8623,W,2,06,1.39,153.8,M,-34.4,M,0000,0000*5F
$GPRMC,191619.000,A,4308.5390,N,07727.8646,W,23.62,273.28,180921,,,D*4D
$GPGGA,191619.250,4308.5390,N,07727.8669,W,2,06,1.39,153.8,M,-34.4,M,0000,0000*55
$GPRMC,191619.500,A,4308.5390,N,07727.8693,W,24.11,272.20,180921,,,D*4A
$GPGGA,191619.750,4308.5389,N,07727.8717,W,2,06,1.39,153.7,M,-34.4,M,0000,0000*5F
$GPRMC,191620.000,A,4308.5390,N,07727.8740,W,24.42,271.83,180921,,,D*46
$GPGGA,191620.250,4308.5390,N,07727.8765,W,2,06,1.39,153.5,M,-34.4,M,0000,0000*5F
$GPRMC,191620.500,A,4308.5390,N,07727.8790,W,24.93,271.82,180921,,,D*43
$GPGGA,191620.750,4308.5390,N,07727.8817,W,2,06,1.39,153.2,M,-34.4,M,0000,0000*57
$GPRMC,191621.000,A,4308.5391,N,07727.8841,W,25.28,271.72,180921,,,D*4B
$GPGGA,191621.250,4308.5392,N,07727.8866,W,2,06,1.39,153.1,M,-34.4,M,0000,0000*54
$GPRMC,191621.500,A,4308.5393,N,07727.8891,W,25.29,272.15,180921,,,D*42
$GPGGA,191621.750,4308.5393,N,07727.8915,W,2,06,1.39,153.0,M,-34.4,M,0000,0000*54
$GPRMC,191622.000,A,4308.5394,N,07727.8942,W,25.29,272.50,180921,,,D*4D
$GPGGA,191622.250,4308.5395,N,07727.8968,W,2,06,1.39,153.2,M,-34.4,M,0000,0000*5C
$GPRMC,191622.500,A,4308.5396,N,07727.8993,W,25.33,272.82,180921,,,D*42
$GPGGA,191622.750,4308.5396,N,07727.9020,W,2,06,1.39,153.3,M,-34.4,M,0000,0000*5F
$GPRMC,191623.000,A,4308.5397,N,07727.9046,W,25.53,273.18,180921,,,D*43
$GPGGA,191623.250,4308.5398,N,07727.9073,W,2,06,1.39,153.5,M,-34.4,M,0000,0000*55
$GPRMC,191623.500,A,4308.5399,N,07727.9101,W,25.12,272.68,180921,,,D*49
$GPGGA,191623.750,4308.5400,N,07727.9128,W,2,06,1.39,153.7,M,-34.4,M,0000,0000*5B
$GPRMC,191624.000,A,4308.5401,N,07727.9156,W,25.52,273.08,180921,,,D*4C
$GPGGA,191624.250,4308.5402,N,07727.9183,W,2,06,1.39,153.8,M,-34.4,M,0000,0000*55
$GPRMC,191624.500,A,4308.5403,N,07727.9210,W,26.05,273.25,180921,,,D*44
$GPGGA,191624.750,4308.5404,N,07727.9238,W,2,06,1.39,153.9,M,-34.4,M,0000,0000*54
$GPRMC,191625.000,A,4308.5406,N,07727.9264,W,26.74,273.91,180921,,,D*4F
$GPGGA,191625.250,4308.5407,N,07727.9291,W,2,06,1.39,153.8,M,-34.4,M,0000,0000*51
$GPRMC,191625.500,A,4308.5408,N,07727.9318,W,26.87,273.72,180921,,,D*4F
$GPGGA,191625.750,4308.5409,N,07727.9345,W,2,06,1.39,153.7,M,-34.4,M,0000,0000*5D
$GPRMC,191626.000,A,4308.5410,N,07727.9371,W,26.92,273.54,180921,,,D*4F
$GPGGA,191626.250,4308.5411,N,07727.9398,W,2,06,1.39,153.7,M,-34.4,M,0000,0000*52
$GPRMC,191626.500,A,4308.5412,N,07727.9425,W,27.00,273.57,180921,,,D*47
$GPGGA,191626.750,4308.5412,N,07727.9454,W,2,06,1.39,153.6,M,-34.4,M,0000,0000*52
$GPRMC,191627.000,A,4308.5413,N,07727.9482,W,27.68,273.13,180921,,,D*41
$GPGGA,191627.250,4308.5413,N,07727.9510,W,2,06,1.39,153.4,M,-34.4,M,0000,0000*54
$GPRMC,191627.500,A,4308.5413,N,07727.9539,W,27.91,272.43,180921,,,D*47
$GPGGA,191627.750,4308.5413,N,07727.9569,W,2,06,1.39,153.3,M,-34.4,M,0000,0000*58
$GPRMC,191628.000,A,4308.5413,N,07727.9597,W,28.36,272.05,180921,,,D*49
$GPGGA,191628.250,4308.5413,N,07727.9626,W,2,06,1.39,153.2,M,-34.4,M,0000,0000*5B
$GPRMC,191628.500,A,4308.5413,N,07727.9654,W,28.64,271.41,180921,,,D*44
$GPGGA,191628.750,4308.5413,N,07727.9683,W,2,06,1.39,152.8,M,-34.4,M,0000,0000*5A
$GPRMC,191629.000,A,4308.5413,N,07727.9711,W,29.10,270.83,180921,,,D*4D
$GPGGA,191629.250,4308.5413,N,07727.9740,W,2,06,1.39,152.5,M,-34.4,M,0000,0000*5D
$GPRMC,191629.500,A,4308.5413,N,07727.9768,W,29.05,270.79,180921,,,D*47
$GPGGA,191629.750,4308.5414,N,07727.9798,W,2,06,1.39,152.3,M,-34.4,M,0000,0000*5C
$GPRMC,191630.000,A,4308.5414,N,07727.9827,W,29.66,271.19,180921,,,D*4B
$GPGGA,191630.250,4308.5414,N,07727.9856,W,2,06,1.39,152.0,M,-34.4,M,0000,0000*5F
$GPRMC,191630.500,A,4308.5414,N,07727.9884,W,29.39,271.13,180921,,,D*47
$GPGGA,191630.750,4308.5414,N,07727.9912,W,2,06,1.39,151.7,M,-34.4,M,0000,0000*5F
$GPRMC,191631.000,A,4308.5415,N,07727.9940,W,29.45,271.97,180921,,,D*4C
$GPGGA,191631.250,4308.5416,N,07727.9970,W,2,06,1.39,151.5,M,-34.4,M,0000,0000*5F
$GPRMC,191631.500,A,4308.5417,N,07727.9999,W,29.72,272.28,180921,,,D*4C
$GPGGA,191631.750,4308.5417,N,07728.0028,W,2,06,1.39,151.3,M,-34.4,M,0000,0000*5F
$GPRMC,191632.000,A,4308.5417,N,07728.0057,W,29.98,272.04,180921,,,D*4D
$GPGGA,191632.250,4308.5417,N,07728.0087,W,2,06,1.39,151.0,M,-34.4,M,0000,0000*5F
$GPRMC,191632.500,A,4308.5418,N,07728.0118,W,30.17,271.71,180921,,,D*43
$GPGGA,191632.750,4308.5418,N,07728.0148,W,2,06,1.39,150.9,M,-34.4,M,0000,0000*5F
$GPRMC,191633.000,A,4308.5419,N,07728.0178,W,30.23,271.61,180921,,,D*46
$GPGGA,191633.250,4308.5420,N,07728.0208,W,2,06,1.39,150.9,M,-34.4,M,0000,0000*57
$GPRMC,191633.500,A,4308.5421,N,07728.0238,W,30.20,271.30,180921,,,D*48
$GPGGA,191633.750,4308.5422,N,07728.0268,W,2,06,1.39,150.9,M,-34.4,M,0000,0000*56
$GPRMC,191634.000,A,4308.5422,N,07728.0297,W,29.96,271.01,180921,,,D*4B
$GPGGA,191634.250,4308.5422,N,07728.0327,W,2,06,1.39,150.8,M,-34.4,M,0000,0000*5F
$GPRMC,191634.500,A,4308.5422,N,07728.0357,W,29.95,270.84,180921,,,D*4C
$GPGGA,191634.750,4308.5422,N,07728.0388,W,2,06,1.39,151.0,M,-34.4,M,0000,0000*56
$GPRMC,191635.000,A,4308.5423,N,07728.0418,W,30.58,271.14,180921,,,D*44
$GPGGA,191635.250,4308.5423,N,07728.0448,W,2,06,1.39,151.0,M,-34.4,M,0000,0000*58
$GPRMC,191635.500,A,4308.5423,N,07728.0478,W,30.84,270.99,180921,,,D*42
$GPGGA,191635.750,4308.5423,N,07728.0509,W,2,06,1.39,151.1,M,-34.4,M,0000,0000*58
$GPRMC,191636.000,A,4308.5423,N,07728.0539,W,31.11,270.79,180921,,,D*43
$GPGGA,191636.250,4308.5423,N,07728.0570,W,2,06,1.39,151.0,M,-34.4,M,0000,0000*51
$GPRMC,191636.500,A,4308.5424,N,07728.0600,W,31.37,271.07,180921,,,D*44
$GPGGA,191636.750,4308.5424,N,07728.0631,W,2,06,1.39,151.0,M,-34.4,M,0000,0000*55
$GPRMC,191637.000,A,4308.5425,N,07728.0662,W,31.64,271.43,180921,,,D*43
$GPGGA,191637.250,4308.5425,N,07728.0693,W,2,06,1.39,151.0,M,-34.4,M,0000,0000*58
$GPRMC,191637.500,A,4308.5425,N,07728.0725,W,31.82,271.38,180921,,,D*40
$GPGGA,191637.750,4308.5426,N,07728.0758,W,2,06,1.39,150.8,M,-34.4,M,0000,0000*51
$GPRMC,191638.000,A,4308.5426,N,07728.0790,W,32.90,270.97,180921,,,D*43
$GPGGA,191638.250,4308.5427,N,07728.0823,W,2,06,1.39,150.6,M,-34.4,M,0000,0000*57
$GPRMC,191638.500,A,4308.5428,N,07728.0855,W,33.30,271.21,180921,,,D*49
$GPGGA,191638.750,4308.5429,N,07728.0888,W,2,06,1.39,150.4,M,-34.4,M,0000,0000*5F
$GPRMC,191639.000,A,4308.5431,N,07728.0920,W,33.58,272.19,180921,,,D*40
$GPGGA,191639.250,4308.5432,N,07728.0952,W,2,06,1.39,150.3,M,-34.4,M,0000,0000*50
$GPRMC,191639.500,A,4308.5433,N,07728.0984,W,33.47,272.42,180921,,,D*49
$GPGGA,191639.750,4308.5434,N,07728.1016,W,2,06,1.39,150.2,M,-34.4,M,0000,0000*5A
$GPRMC,191640.000,A,4308.5435,N,07728.1049,W,33.48,272.14,180921,,,D*41
$GPGGA,191640.250,4308.5436,N,07728.1082,W,2,06,1.39,150.1,M,-34.4,M,0000,0000*5D
$GPRMC,191640.500,A,4308.5437,N,07728.1115,W,33.89,271.73,180921,,,D*41
$GPGGA,191640.750,4308.5438,N,07728.1148,W,2,06,1.39,149.9,M,-34.4,M,0000,0000*51
