Vers 81
USE_SERIAL_FEEDBACK=true
DEVELOPMENT_MODE=false
USE_RMC_ONLY=false

$GPRMC,152309.250,A,4308.4317,N,07729.6209,W,9.06,172.56,300821,,,A*7F
$GPGGA,152309.500,4308.4312,N,07729.6209,W,1,04,2.35,23.2,M,-34.4,M,,*67
$GPRMC,152309.750,A,4308.4308,N,07729.6208,W,8.98,172.55,300821,,,A*70
$GPGGA,152310.000,4308.4303,N,07729.6207,W,1,04,2.35,23.1,M,-34.4,M,,*67
$GPRMC,152310.250,A,4308.4300,N,07729.6205,W,8.54,170.32,300821,,,A*7B
$GPGGA,152310.500,4308.4299,N,07729.6204,W,1,04,2.35,22.5,M,-34.4,M,,*66
$GPRMC,152310.750,A,4308.4297,N,07729.6201,W,7.70,164.65,300821,,,A*7B
$GPGGA,152311.000,4308.4297,N,07729.6199,W,1,04,2.35,22.2,M,-34.4,M,,*6C
$GPRMC,152311.250,A,4308.4295,N,07729.6196,W,7.04,157.80,300821,,,A*78
$GPGGA,152311.500,4308.4292,N,07729.6194,W,1,04,2.35,22.2,M,-34.4,M,,*61
$GPRMC,152311.750,A,4308.4289,N,07729.6191,W,6.81,153.04,300821,,,A*73
$GPGGA,152312.000,4308.4291,N,07729.6188,W,1,04,2.35,23.3,M,-34.4,M,,*69
$GPRMC,152312.250,A,4308.4289,N,07729.6181,W,6.73,134.35,300821,,,A*7A
$GPGGA,152312.500,4308.4287,N,07729.6176,W,1,04,2.35,23.7,M,-34.4,M,,*6E
$GPRMC,152312.750,A,4308.4285,N,07729.6171,W,6.72,127.41,300821,,,A*7C
$GPGGA,152313.000,4308.4283,N,07729.6166,W,1,04,2.35,23.9,M,-34.4,M,,*61
$GPRMC,152313.250,A,4308.4281,N,07729.6161,W,6.68,124.93,300821,,,A*7A
$GPGGA,152313.500,4308.4280,N,07729.6157,W,1,04,2.35,24.1,M,-34.4,M,,*6A
$GPRMC,152313.750,A,4308.4279,N,07729.6149,W,6.87,116.36,300821,,,A*7D
$GPGGA,152314.000,4308.4278,N,07729.6144,W,1,04,2.35,24.5,M,-34.4,M,,*69
$GPRMC,152314.250,A,4308.4278,N,07729.6140,W,6.68,113.54,300821,,,A*77
$GPGGA,152314.500,4308.4278,N,07729.6135,W,1,04,2.35,24.6,M,-34.4,M,,*69
$GPRMC,152314.750,A,4308.4278,N,07729.6132,W,6.41,111.29,300821,,,A*74
$GPGGA,152315.000,4308.4277,N,07729.6128,W,1,04,2.35,24.8,M,-34.4,M,,*60
$GPRMC,152315.250,A,4308.4276,N,07729.6124,W,6.10,111.07,300821,,,A*71
$GPGGA,152315.500,4308.4275,N,07729.6121,W,1,04,2.35,24.8,M,-34.4,M,,*6E
$GPRMC,152315.750,A,4308.4274,N,07729.6117,W,5.84,110.94,300821,,,A*73
$GPGGA,152316.000,4308.4274,N,07729.6113,W,1,04,2.35,24.8,M,-34.4,M,,*68
$GPRMC,152316.250,A,4308.4273,N,07729.6108,W,5.63,109.42,300821,,,A*76
$GPGGA,152316.500,4308.4273,N,07729.6105,W,1,04,2.35,24.9,M,-34.4,M,,*6C
$GPRMC,152316.750,A,4308.4272,N,07729.6101,W,5.54,108.00,300821,,,A*78
$GPGGA,152317.000,4308.4271,N,07729.6097,W,1,04,2.35,25.1,M,-34.4,M,,*69
$GPRMC,152317.250,A,4308.4270,N,07729.6092,W,5.40,108.49,300821,,,A*7D
$GPGGA,152317.500,4308.4269,N,07729.6088,W,1,04,2.35,25.3,M,-34.4,M,,*69
$GPRMC,152317.750,A,4308.4266,N,07729.6082,W,5.29,110.39,300821,,,A*7F
$GPGGA,152318.000,4308.4264,N,07729.6077,W,1,04,2.35,25.6,M,-34.4,M,,*6B
$GPRMC,152318.250,A,4308.4261,N,07729.6071,W,5.26,111.65,300821,,,A*79
$GPGGA,152318.500,4308.4258,N,07729.6065,W,1,04,2.35,25.9,M,-34.4,M,,*6D
$GPRMC,152318.750,A,4308.4253,N,07729.6059,W,5.30,114.99,300821,,,A*76
$GPGGA,152319.000,4308.4244,N,07729.6050,W,1,04,2.35,26.4,M,-34.4,M,,*6C
$GPRMC,152319.250,A,4308.4237,N,07729.6044,W,5.85,125.64,300821,,,A*72
$GPGGA,152319.500,4308.4221,N,07729.6031,W,1,04,2.35,28.8,M,-34.4,M,,*6F
$GPRMC,152319.750,A,4308.4207,N,07729.6019,W,7.92,138.92,300821,,,A*7D
$GPGGA,152320.000,4308.4188,N,07729.6012,W,1,04,2.35,31.2,M,-34.4,M,,*63
$GPRMC,152320.250,A,4308.4175,N,07729.6000,W,9.62,150.67,300821,,,A*79
$GPGGA,152320.500,4308.4158,N,07729.5984,W,1,04,2.35,31.5,M,-34.4,M,,*69
$GPRMC,152320.750,A,4308.4127,N,07729.5961,W,12.77,156.71,300821,,,A*49
$GPGGA,152321.000,4308.4093,N,07729.5940,W,1,04,2.35,34.0,M,-34.4,M,,*63
$GPRMC,152321.250,A,4308.4069,N,07729.5920,W,16.55,161.19,300821,,,A*4D
$GPGGA,152321.500,4308.4044,N,07729.5905,W,1,04,2.35,34.9,M,-34.4,M,,*64
$GPRMC,152321.750,A,4308.4015,N,07729.5889,W,19.58,166.16,300821,,,A*4B
$GPGGA,152322.000,4308.3991,N,07729.5875,W,1,04,2.35,36.3,M,-34.4,M,,*6A
$GPRMC,152322.250,A,4308.3969,N,07729.5864,W,20.98,166.59,300821,,,A*46
$GPGGA,152322.500,4308.3945,N,07729.5851,W,1,04,2.35,37.5,M,-34.4,M,,*67
$GPRMC,152322.750,A,4308.3924,N,07729.5838,W,22.22,166.66,300821,,,A*4C
$GPGGA,152323.000,4308.3901,N,07729.5824,W,1,04,2.36,37.8,M,-34.4,M,,*6F
$GPRMC,152323.250,A,4308.3878,N,07729.5809,W,23.34,166.06,300821,,,A*42
$GPGGA,152323.500,4308.3848,N,07729.5786,W,1,04,2.35,38.5,M,-34.4,M,,*60
$GPRMC,152323.750,A,4308.3817,N,07729.5759,W,24.69,165.38,300821,,,A*45
$GPGGA,152324.000,4308.3786,N,07729.5733,W,1,04,2.36,37.5,M,-34.4,M,,*6D
$GPRMC,152324.250,A,4308.3755,N,07729.5708,W,26.18,164.57,300821,,,A*46
$GPGGA,152324.500,4308.3725,N,07729.5686,W,1,04,2.35,37.5,M,-34.4,M,,*6D
$GPRMC,152324.750,A,4308.3694,N,07729.5666,W,28.00,166.12,300821,,,A*42
$GPGGA,152325.000,4308.3661,N,07729.5643,W,1,04,2.35,38.2,M,-34.4,M,,*69
$GPRMC,152325.250,A,4308.3620,N,07729.5607,W,30.09,164.88,300821,,,A*4F
$GPGGA,152325.500,4308.3592,N,07729.5588,W,1,04,2.35,37.3,M,-34.4,M,,*69
$GPRMC,152325.750,A,4308.3566,N,07729.5574,W,30.79,164.64,300821,,,A*49
$GPGGA,152326.000,4308.3541,N,07729.5561,W,1,04,2.35,36.9,M,-34.4,M,,*6D
$GPRMC,152326.250,A,4308.3512,N,07729.5542,W,31.41,164.68,300821,,,A*4F
$GPGGA,152326.500,4308.3484,N,07729.5526,W,1,04,2.36,36.4,M,-34.4,M,,*6D
$GPRMC,152326.750,A,4308.3455,N,07729.5508,W,31.69,164.54,300821,,,A*43
$GPGGA,152327.000,4308.3429,N,07729.5495,W,1,04,2.35,36.0,M,-34.4,M,,*60
$GPRMC,152327.250,A,4308.3403,N,07729.5482,W,31.99,164.56,300821,,,A*4A
$GPGGA,152327.500,4308.3378,N,07729.5470,W,1,04,2.36,35.8,M,-34.4,M,,*65
$GPRMC,152327.750,A,4308.3352,N,07729.5458,W,32.19,164.66,300821,,,A*43
$GPGGA,152328.000,4308.3327,N,07729.5446,W,1,04,2.35,35.8,M,-34.4,M,,*63
$GPRMC,152328.250,A,4308.3301,N,07729.5435,W,33.09,164.69,300821,,,A*4B
$GPGGA,152328.500,4308.3273,N,07729.5420,W,1,04,2.35,35.6,M,-34.4,M,,*68
$GPRMC,152328.750,A,4308.3245,N,07729.5405,W,33.43,164.90,300821,,,A*44
$GPGGA,152329.000,4308.3219,N,07729.5394,W,1,04,2.36,35.2,M,-34.4,M,,*6F
$GPRMC,152329.250,A,4308.3193,N,07729.5382,W,33.55,165.18,300821,,,A*46
$GPGGA,152329.500,4308.3167,N,07729.5370,W,1,04,2.36,35.1,M,-34.4,M,,*69
$GPRMC,152329.750,A,4308.3140,N,07729.5357,W,33.84,165.41,300821,,,A*45
$GPGGA,152330.000,4308.3111,N,07729.5346,W,1,04,2.35,35.1,M,-34.4,M,,*63
$GPRMC,152330.250,A,4308.3084,N,07729.5335,W,34.11,166.24,300821,,,A*4E
$GPGGA,152330.500,4308.3057,N,07729.5324,W,1,04,2.36,35.1,M,-34.4,M,,*62
$GPRMC,152330.750,A,4308.3031,N,07729.5315,W,34.19,167.04,300821,,,A*4C
$GPGGA,152331.000,4308.3002,N,07729.5304,W,1,04,2.36,35.1,M,-34.4,M,,*64
$GPRMC,152331.250,A,4308.2975,N,07729.5294,W,34.51,167.51,300821,,,A*44
$GPGGA,152331.500,4308.2948,N,07729.5285,W,1,04,2.36,35.2,M,-34.4,M,,*6C
$GPRMC,152331.750,A,4308.2921,N,07729.5275,W,34.85,167.59,300821,,,A*4E
$GPGGA,152332.000,4308.2894,N,07729.5267,W,1,04,2.36,35.3,M,-34.4,M,,*67
$GPRMC,152332.250,A,4308.2866,N,07729.5259,W,34.96,167.88,300821,,,A*4A
$GPGGA,152332.500,4308.2838,N,07729.5254,W,1,04,2.36,35.8,M,-34.4,M,,*6F
$GPRMC,152332.750,A,4308.2809,N,07729.5248,W,35.79,168.63,300821,,,A*4C
$GPGGA,152333.000,4308.2782,N,07729.5241,W,1,04,2.36,36.1,M,-34.4,M,,*6B
$GPRMC,152333.250,A,4308.2755,N,07729.5234,W,35.99,169.06,300821,,,A*49
$GPGGA,152333.500,4308.2727,N,07729.5227,W,1,04,2.36,36.4,M,-34.4,M,,*64
$GPRMC,152333.750,A,4308.2699,N,07729.5220,W,36.21,169.32,300821,,,A*4F
$GPGGA,152334.000,4308.2669,N,07729.5212,W,1,04,2.36,36.6,M,-34.4,M,,*69
$GPRMC,152334.250,A,4308.2641,N,07729.5204,W,36.37,169.51,300821,,,A*4C
$GPGGA,152334.500,4308.2612,N,07729.5197,W,1,04,2.36,36.6,M,-34.4,M,,*6E
$GPRMC,152334.750,A,4308.2584,N,07729.5190,W,36.81,169.49,300821,,,A*49
$GPGGA,152335.000,4308.2555,N,07729.5185,W,1,04,2.36,36.7,M,-34.4,M,,*68
$GPRMC,152335.250,A,4308.2526,N,07729.5178,W,36.91,169.38,300821,,,A*44
$GPGGA,152335.500,4308.2497,N,07729.5171,W,1,04,2.36,37.3,M,-34.4,M,,*6C
$GPRMC,152335.750,A,4308.2470,N,07729.5164,W,36.97,169.00,300821,,,A*43
$GPGGA,152336.000,4308.2442,N,07729.5157,W,1,04,2.36,37.3,M,-34.4,M,,*66
$GPRMC,152336.250,A,4308.2414,N,07729.5150,W,37.02,168.84,300821,,,A*40
$GPGGA,152336.500,4308.2386,N,07729.5143,W,1,04,2.36,37.0,M,-34.4,M,,*6A
$GPRMC,152336.750,A,4308.2359,N,07729.5136,W,37.02,168.81,300821,,,A*4E
$GPGGA,152337.000,4308.2333,N,07729.5129,W,1,04,2.36,36.8,M,-34.4,M,,*65
$GPRMC,152337.250,A,4308.2306,N,07729.5122,W,36.80,168.80,300821,,,A*4F
$GPGGA,152337.500,4308.2279,N,07729.5114,W,1,04,2.36,36.7,M,-34.4,M,,*6E
$GPRMC,152337.750,A,4308.2250,N,07729.5105,W,36.78,168.42,300821,,,A*44
$GPGGA,152338.000,4308.2219,N,07729.5096,W,1,04,2.36,37.3,M,-34.4,M,,*6C
$GPRMC,152338.250,A,4308.2189,N,07729.5088,W,36.72,167.80,300821,,,A*46
$GPGGA,152338.500,4308.2160,N,07729.5079,W,1,04,2.36,37.7,M,-34.4,M,,*61
$GPRMC,152338.750,A,4308.2133,N,07729.5070,W,36.67,167.49,300821,,,A*44
$GPGGA,152339.000,4308.2106,N,07729.5061,W,1,04,2.36,37.7,M,-34.4,M,,*6C
$GPRMC,152339.250,A,4308.2080,N,07729.5052,W,36.61,167.12,300821,,,A*41
$GPGGA,152339.500,4308.2053,N,07729.5042,W,1,04,2.36,37.7,M,-34.4,M,,*69
$GPRMC,152339.750,A,4308.2027,N,07729.5034,W,36.53,166.75,300821,,,A*48
$GPGGA,152340.000,4308.2002,N,07729.5024,W,1,04,2.36,37.8,M,-34.4,M,,*69
$GPRMC,152340.250,A,4308.1976,N,07729.5016,W,36.28,166.44,300821,,,A*43
$GPGGA,152340.500,4308.1951,N,07729.5008,W,1,04,2.36,37.9,M,-34.4,M,,*6F
$GPRMC,152340.750,A,4308.1924,N,07729.5000,W,36.10,166.39,300821,,,A*47
$GPGGA,152341.000,4308.1898,N,07729.4992,W,1,04,2.36,38.3,M,-34.4,M,,*61
$GPRMC,152341.250,A,4308.1873,N,07729.4984,W,35.89,166.17,300821,,,A*4B
$GPGGA,152341.500,4308.1848,N,07729.4976,W,1,04,2.36,38.6,M,-34.4,M,,*66
$GPRMC,152341.750,A,4308.1823,N,07729.4968,W,35.67,166.06,300821,,,A*49
$GPGGA,152342.000,4308.1800,N,07729.4961,W,1,04,2.36,38.7,M,-34.4,M,,*6B
$GPRMC,152342.250,A,4308.1765,N,07729.4939,W,35.25,166.75,300821,,,A*44
$GPGGA,152342.500,4308.1733,N,07729.4918,W,1,04,2.36,38.2,M,-34.4,M,,*6A
$GPRMC,152342.750,A,4308.1703,N,07729.4902,W,35.21,166.66,300821,,,A*4F
$GPGGA,152343.000,4308.1678,N,07729.4892,W,1,04,2.36,38.2,M,-34.4,M,,*63
$GPRMC,152343.250,A,4308.1652,N,07729.4880,W,35.01,166.38,300821,,,A*4C
$GPGGA,152343.500,4308.1622,N,07729.4865,W,1,04,2.36,38.1,M,-34.4,M,,*62
$GPRMC,152343.750,A,4308.1596,N,07729.4855,W,34.99,166.26,300821,,,A*45
$GPGGA,152344.000,4308.1569,N,07729.4841,W,1,04,2.36,38.0,M,-34.4,M,,*6B
$GPRMC,152344.250,A,4308.1545,N,07729.4832,W,34.92,166.01,300821,,,A*46
$GPGGA,152344.500,4308.1521,N,07729.4823,W,1,04,2.36,38.0,M,-34.4,M,,*66
$GPRMC,152344.750,A,4308.1498,N,07729.4814,W,34.84,165.54,300821,,,A*42
$GPGGA,152345.000,4308.1474,N,07729.4806,W,1,04,2.36,38.2,M,-34.4,M,,*66
$GPRMC,152345.250,A,4308.1450,N,07729.4797,W,34.75,165.32,300821,,,A*48
$GPGGA,152345.500,4308.1425,N,07729.4785,W,1,04,2.36,38.1,M,-34.4,M,,*60
$GPRMC,152345.750,A,4308.1402,N,07729.4777,W,34.68,165.34,300821,,,A*4E
$GPGGA,152346.000,4308.1379,N,07729.4770,W,1,04,2.36,38.2,M,-34.4,M,,*61
$GPRMC,152346.250,A,4308.1356,N,07729.4762,W,34.60,165.60,300821,,,A*43
$GPGGA,152346.500,4308.1333,N,07729.4755,W,1,04,2.36,38.4,M,-34.4,M,,*6B
$GPRMC,152346.750,A,4308.1309,N,07729.4748,W,34.53,165.71,300821,,,A*44
$GPGGA,152347.000,4308.1283,N,07729.4740,W,1,04,2.36,39.0,M,-34.4,M,,*64
$GPRMC,152347.250,A,4308.1257,N,07729.4734,W,34.86,166.60,300821,,,A*4A
$GPGGA,152347.500,4308.1234,N,07729.4730,W,1,04,2.36,40.1,M,-34.4,M,,*65
$GPRMC,152347.750,A,4308.1213,N,07729.4727,W,34.67,168.70,300821,,,A*4D
$GPGGA,152348.000,4308.1194,N,07729.4726,W,1,04,6.61,42.5,M,-34.4,M,,*61
$GPRMC,152348.250,A,4308.1172,N,07729.4723,W,34.59,170.22,300821,,,A*44
$GPGGA,152348.500,4308.1151,N,07729.4721,W,1,04,6.60,44.8,M,-34.4,M,,*60
$GPRMC,152348.750,A,4308.1127,N,07729.4717,W,33.84,171.66,300821,,,A*40
$GPGGA,152349.000,4308.1105,N,07729.4714,W,1,04,2.36,45.3,M,-34.4,M,,*6E
$GPRMC,152349.250,A,4308.1081,N,07729.4711,W,33.88,172.83,300821,,,A*4B
$GPGGA,152349.500,4308.1058,N,07729.4710,W,1,04,2.36,45.5,M,-34.4,M,,*60
$GPRMC,152349.750,A,4308.1033,N,07729.4709,W,34.33,175.09,300821,,,A*4C
$GPGGA,152350.000,4308.1008,N,07729.4711,W,1,04,2.36,45.7,M,-34.4,M,,*6B
$GPRMC,152350.250,A,4308.0983,N,07729.4713,W,34.73,177.71,300821,,,A*40
$GPGGA,152350.500,4308.0958,N,07729.4719,W,1,04,2.36,46.2,M,-34.4,M,,*6D
$GPRMC,152350.750,A,4308.0931,N,07729.4722,W,34.97,180.53,300821,,,A*4C
$GPGGA,152351.000,4308.0903,N,07729.4724,W,1,04,2.36,47.0,M,-34.4,M,,*6A
$GPRMC,152351.250,A,4308.0876,N,07729.4727,W,36.44,181.62,300821,,,A*40
$GPGGA,152351.500,4308.0849,N,07729.4730,W,1,04,2.36,47.7,M,-34.4,M,,*62
$GPRMC,152351.750,A,4308.0824,N,07729.4734,W,36.63,182.97,300821,,,A*4C
$GPGGA,152352.000,4308.0798,N,07729.4737,W,1,04,2.36,48.0,M,-34.4,M,,*68
$GPRMC,152352.250,A,4308.0771,N,07729.4741,W,37.06,184.28,300821,,,A*47
$GPGGA,152352.500,4308.0747,N,07729.4748,W,1,04,2.36,48.5,M,-34.4,M,,*62
$GPRMC,152352.750,A,4308.0725,N,07729.4757,W,37.00,188.25,300821,,,A*43
$GPGGA,152353.000,4308.0700,N,07729.4765,W,1,04,2.36,48.6,M,-34.4,M,,*69
$GPRMC,152353.250,A,4308.0675,N,07729.4772,W,36.06,190.66,300821,,,A*4D
$GPGGA,152353.500,4308.0648,N,07729.4780,W,1,04,6.55,48.9,M,-34.4,M,,*64
$GPRMC,152353.750,A,4308.0622,N,07729.4788,W,36.00,192.52,300821,,,A*4C
$GPGGA,152354.000,4308.0597,N,07729.4797,W,1,04,6.55,49.4,M,-34.4,M,,*6D
$GPRMC,152354.250,A,4308.0571,N,07729.4805,W,35.87,194.11,300821,,,A*4C
$GPGGA,152354.500,4308.0547,N,07729.4816,W,1,04,2.36,49.7,M,-34.4,M,,*61
$GPRMC,152354.750,A,4308.0522,N,07729.4825,W,35.38,195.66,300821,,,A*48
$GPGGA,152355.000,4308.0497,N,07729.4834,W,1,04,6.53,49.6,M,-34.4,M,,*6F
$GPRMC,152355.250,A,4308.0472,N,07729.4843,W,35.62,195.88,300821,,,A*47
$GPGGA,152355.500,4308.0447,N,07729.4851,W,1,04,2.36,48.9,M,-34.4,M,,*6D
$GPRMC,152355.750,A,4308.0423,N,07729.4860,W,35.58,195.90,300821,,,A*47
$GPGGA,152356.000,4308.0399,N,07729.4869,W,1,04,2.36,48.4,M,-34.4,M,,*69
$GPRMC,152356.250,A,4308.0375,N,07729.4877,W,35.38,195.84,300821,,,A*40
$GPGGA,152356.500,4308.0351,N,07729.4886,W,1,04,2.36,47.7,M,-34.4,M,,*65
$GPRMC,152356.750,A,4308.0327,N,07729.4895,W,34.94,195.71,300821,,,A*43
$GPGGA,152357.000,4308.0304,N,07729.4904,W,1,04,2.36,47.2,M,-34.4,M,,*6F
$GPRMC,152357.250,A,4308.0282,N,07729.4913,W,34.27,195.89,300821,,,A*49
$GPGGA,152357.500,4308.0266,N,07729.4930,W,1,04,2.36,46.5,M,-34.4,M,,*6E
$GPRMC,152357.750,A,4308.0252,N,07729.4947,W,33.36,202.07,300821,,,A*4C
$GPGGA,152358.000,4308.0237,N,07729.4964,W,1,04,2.36,45.8,M,-34.4,M,,*6F
$GPRMC,152358.250,A,4308.0219,N,07729.4976,W,29.88,204.73,300821,,,A*40
$GPGGA,152358.500,4308.0202,N,07729.4989,W,1,04,2.36,45.1,M,-34.4,M,,*66
$GPRMC,152358.750,A,4308.0185,N,07729.5002,W,28.33,205.88,300821,,,A*4C
$GPGGA,152359.000,4308.0169,N,07729.5013,W,1,04,2.36,44.3,M,-34.4,M,,*64
$GPRMC,152359.250,A,4308.0153,N,07729.5025,W,26.67,207.08,300821,,,A*43
$GPGGA,152359.500,4308.0136,N,07729.5035,W,1,04,2.36,43.4,M,-34.4,M,,*6F
$GPRMC,152359.750,A,4308.0121,N,07729.5045,W,25.09,206.58,300821,,,A*4A
$GPGGA,152400.000,4308.0106,N,07729.5055,W,1,04,2.36,42.6,M,-34.4,M,,*67
$GPRMC,152400.250,A,4308.0092,N,07729.5064,W,23.46,207.20,300821,,,A*4D
$GPGGA,152400.500,4308.0079,N,07729.5074,W,1,04,2.36,41.9,M,-34.4,M,,*64
$GPRMC,152400.750,A,4308.0067,N,07729.5084,W,21.45,208.30,300821,,,A*43
$GPGGA,152401.000,4308.0055,N,07729.5093,W,1,04,6.47,41.4,M,-34.4,M,,*68
$GPRMC,152401.250,A,4308.0043,N,07729.5101,W,19.86,208.81,300821,,,A*43
$GPGGA,152401.500,4308.0033,N,07729.5109,W,1,04,2.36,40.8,M,-34.4,M,,*60
$GPRMC,152401.750,A,4308.0023,N,07729.5117,W,18.04,209.81,300821,,,A*4D
$GPGGA,152402.000,4308.0013,N,07729.5123,W,1,04,6.47,40.3,M,-34.4,M,,*65
$GPRMC,152402.250,A,4308.0003,N,07729.5129,W,16.85,209.84,300821,,,A*46
$GPGGA,152402.500,4307.9994,N,07729.5134,W,1,04,2.36,39.9,M,-34.4,M,,*60
$GPRMC,152402.750,A,4307.9984,N,07729.5141,W,16.36,210.27,300821,,,A*44
$GPGGA,152403.000,4307.9976,N,07729.5150,W,1,04,6.45,39.7,M,-34.4,M,,*64
$GPRMC,152403.250,A,4307.9968,N,07729.5159,W,15.56,214.59,300821,,,A*43
$GPGGA,152403.500,4307.9962,N,07729.5169,W,1,04,2.36,39.4,M,-34.4,M,,*6D
$GPRMC,152403.750,A,4307.9958,N,07729.5180,W,15.28,223.68,300821,,,A*4E
$GPGGA,152404.000,4307.9952,N,07729.5192,W,1,04,6.44,39.0,M,-34.4,M,,*6D
$GPRMC,152404.250,A,4307.9948,N,07729.5202,W,14.43,229.19,300821,,,A*44
$GPGGA,152404.500,4307.9944,N,07729.5214,W,1,04,6.44,38.8,M,-34.4,M,,*6B
$GPRMC,152404.750,A,4307.9941,N,07729.5224,W,13.23,235.02,300821,,,A*4A
$GPGGA,152405.000,4307.9938,N,07729.5233,W,1,04,6.43,38.6,M,-34.4,M,,*68
$GPRMC,152405.250,A,4307.9935,N,07729.5242,W,12.28,238.94,300821,,,A*45
$GPGGA,152405.500,4307.9934,N,07729.5251,W,1,04,2.36,38.6,M,-34.4,M,,*63
$GPRMC,152405.750,A,4307.9939,N,07729.5264,W,10.22,255.97,300821,,,A*48
$GPGGA,152406.000,4307.9941,N,07729.5274,W,1,04,6.42,38.7,M,-34.4,M,,*66
$GPRMC,152406.250,A,4307.9943,N,07729.5284,W,9.05,268.13,300821,,,A*72
$GPGGA,152406.500,4307.9950,N,07729.5298,W,1,04,6.42,38.7,M,-34.4,M,,*61
$GPRMC,152406.750,A,4307.9955,N,07729.5309,W,9.30,290.53,300821,,,A*71
$GPGGA,152407.000,4307.9964,N,07729.5326,W,1,04,6.41,39.2,M,-34.4,M,,*61
$GPRMC,152407.250,A,4307.9972,N,07729.5340,W,12.31,299.13,300821,,,A*4B
$GPGGA,152407.500,4307.9980,N,07729.5355,W,1,04,6.41,39.7,M,-34.4,M,,*6F
$GPRMC,152407.750,A,4307.9988,N,07729.5371,W,14.38,305.13,300821,,,A*42
$GPGGA,152408.000,4307.9996,N,07729.5385,W,1,04,6.41,40.2,M,-34.4,M,,*64
$GPRMC,152408.250,A,4308.0003,N,07729.5399,W,15.81,306.66,300821,,,A*40
$GPGGA,152408.500,4308.0012,N,07729.5415,W,1,04,6.40,40.6,M,-34.4,M,,*69
$GPRMC,152408.750,A,4308.0019,N,07729.5428,W,16.77,307.03,300821,,,A*4B
$GPGGA,152409.000,4308.0027,N,07729.5444,W,1,04,6.40,41.0,M,-34.4,M,,*68
$GPRMC,152409.250,A,4308.0034,N,07729.5460,W,17.74,304.79,300821,,,A*40
$GPGGA,152409.500,4308.0041,N,07729.5476,W,1,04,6.39,41.7,M,-34.4,M,,*65
$GPRMC,152409.750,A,4308.0048,N,07729.5492,W,18.27,303.07,300821,,,A*44
$GPGGA,152410.000,4308.0055,N,07729.5507,W,1,04,6.38,42.0,M,-34.4,M,,*6F
$GPRMC,152410.250,A,4308.0061,N,07729.5523,W,18.45,302.43,300821,,,A*4C
$GPGGA,152410.500,4308.0068,N,07729.5538,W,1,04,2.37,42.3,M,-34.4,M,,*60
$GPRMC,152410.750,A,4308.0075,N,07729.5554,W,18.66,301.10,300821,,,A*48
$GPGGA,152411.000,4308.0082,N,07729.5570,W,1,04,2.37,42.3,M,-34.4,M,,*6C
$GPRMC,152411.250,A,4308.0089,N,07729.5587,W,18.95,300.77,300821,,,A*4D
$GPGGA,152411.500,4308.0095,N,07729.5605,W,1,04,2.37,42.4,M,-34.4,M,,*69
$GPRMC,152411.750,A,4308.0102,N,07729.5623,W,19.51,299.20,300821,,,A*4D
$GPGGA,152412.000,4308.0109,N,07729.5642,W,1,04,6.36,42.8,M,-34.4,M,,*61
$GPRMC,152412.250,A,4308.0117,N,07729.5660,W,19.91,299.27,300821,,,A*43
$GPGGA,152412.500,4308.0125,N,07729.5679,W,1,04,6.36,43.0,M,-34.4,M,,*6B
$GPRMC,152412.750,A,4308.0133,N,07729.5698,W,20.51,299.59,300821,,,A*48
$GPGGA,152413.000,4308.0144,N,07729.5720,W,1,04,2.37,43.1,M,-34.4,M,,*61
$GPRMC,152413.250,A,4308.0152,N,07729.5739,W,21.31,300.09,300821,,,A*42
$GPGGA,152413.500,4308.0164,N,07729.5762,W,1,04,2.37,43.2,M,-34.4,M,,*63
$GPRMC,152413.750,A,4308.0176,N,07729.5785,W,22.40,301.18,300821,,,A*42
$GPGGA,152414.000,4308.0201,N,07729.5825,W,1,04,2.37,43.3,M,-34.4,M,,*6C
$GPRMC,152414.250,A,4308.0215,N,07729.5852,W,26.47,302.43,300821,,,A*4D
$GPGGA,152414.500,4308.0230,N,07729.5879,W,1,04,6.34,43.5,M,-34.4,M,,*63
$GPRMC,152414.750,A,4308.0244,N,07729.5906,W,28.11,303.85,300821,,,A*4A
$GPGGA,152415.000,4308.0257,N,07729.5932,W,1,04,6.34,44.1,M,-34.4,M,,*6B
$GPRMC,152415.250,A,4308.0269,N,07729.5958,W,29.02,304.19,300821,,,A*4B
$GPGGA,152415.500,4308.0281,N,07729.5984,W,1,04,6.33,45.0,M,-34.4,M,,*6F
$GPRMC,152415.750,A,4308.0293,N,07729.6010,W,29.58,304.13,300821,,,A*48
$GPGGA,152416.000,4308.0305,N,07729.6037,W,1,04,6.32,46.2,M,-34.4,M,,*66
$GPRMC,152416.250,A,4308.0317,N,07729.6063,W,29.78,304.02,300821,,,A*45
$GPGGA,152416.500,4308.0329,N,07729.6089,W,1,04,6.32,47.4,M,-34.4,M,,*6F
$GPRMC,152416.750,A,4308.0341,N,07729.6114,W,29.84,304.09,300821,,,A*4A
$GPGGA,152417.000,4308.0353,N,07729.6140,W,1,04,6.32,48.4,M,-34.4,M,,*6D
$GPRMC,152417.250,A,4308.0365,N,07729.6166,W,29.97,304.10,300821,,,A*47
$GPGGA,152417.500,4308.0377,N,07729.6190,W,1,04,2.37,49.2,M,-34.4,M,,*65
$GPRMC,152417.750,A,4308.0389,N,07729.6216,W,30.39,304.23,300821,,,A*48
$GPGGA,152418.000,4308.0401,N,07729.6243,W,1,04,6.31,49.9,M,-34.4,M,,*6D
$GPRMC,152418.250,A,4308.0414,N,07729.6270,W,31.40,304.40,300821,,,A*4B
$GPGGA,152418.500,4308.0428,N,07729.6297,W,1,04,2.37,50.3,M,-34.4,M,,*6A
$GPRMC,152418.750,A,4308.0442,N,07729.6325,W,32.45,304.93,300821,,,A*44
$GPGGA,152419.000,4308.0456,N,07729.6353,W,1,04,6.30,51.3,M,-34.4,M,,*6C
$GPRMC,152419.250,A,4308.0468,N,07729.6381,W,32.79,305.15,300821,,,A*46
$GPGGA,152419.500,4308.0481,N,07729.6408,W,1,04,6.29,52.3,M,-34.4,M,,*61
$GPRMC,152419.750,A,4308.0494,N,07729.6436,W,32.85,304.83,300821,,,A*46
$GPGGA,152420.000,4308.0507,N,07729.6464,W,1,04,6.29,53.5,M,-34.4,M,,*6C
$GPRMC,152420.250,A,4308.0519,N,07729.6492,W,32.81,304.42,300821,,,A*4A
$GPGGA,152420.500,4308.0532,N,07729.6521,W,1,04,2.37,54.8,M,-34.4,M,,*6E
$GPRMC,152420.750,A,4308.0544,N,07729.6549,W,33.12,303.86,300821,,,A*44
$GPGGA,152421.000,4308.0557,N,07729.6579,W,1,04,6.28,55.6,M,-34.4,M,,*61
$GPRMC,152421.250,A,4308.0570,N,07729.6608,W,33.75,303.01,300821,,,A*4F
$GPGGA,152421.500,4308.0583,N,07729.6637,W,1,04,2.37,56.3,M,-34.4,M,,*68
$GPRMC,152421.750,A,4308.0598,N,07729.6668,W,34.77,301.89,300821,,,A*4D
$GPGGA,152422.000,4308.0611,N,07729.6698,W,1,04,6.27,56.8,M,-34.4,M,,*6D
$GPRMC,152422.250,A,4308.0624,N,07729.6728,W,34.83,300.83,300821,,,A*4A
$GPGGA,152422.500,4308.0635,N,07729.6757,W,1,04,6.27,57.0,M,-34.4,M,,*65
$GPRMC,152422.750,A,4308.0647,N,07729.6786,W,34.52,299.24,300821,,,A*4E
$GPGGA,152423.000,4308.0658,N,07729.6816,W,1,04,6.26,57.1,M,-34.4,M,,*60
$GPRMC,152423.250,A,4308.0669,N,07729.6846,W,34.08,298.16,300821,,,A*4A
$GPGGA,152423.500,4308.0680,N,07729.6875,W,1,04,6.25,57.0,M,-34.4,M,,*67
$GPRMC,152423.750,A,4308.0691,N,07729.6904,W,33.87,297.01,300821,,,A*46
$GPGGA,152424.000,4308.0701,N,07729.6933,W,1,04,6.25,56.9,M,-34.4,M,,*66
$GPRMC,152424.250,A,4308.0712,N,07729.6962,W,33.66,296.13,300821,,,A*43
$GPGGA,152424.500,4308.0722,N,07729.6991,W,1,04,6.25,56.9,M,-34.4,M,,*6A
$GPRMC,152424.750,A,4308.0732,N,07729.7021,W,33.57,295.45,300821,,,A*49
$GPGGA,152425.000,4308.0742,N,07729.7049,W,1,04,6.24,57.1,M,-34.4,M,,*6D
$GPRMC,152425.250,A,4308.0753,N,07729.7078,W,33.38,294.79,300821,,,A*41
$GPGGA,152425.500,4308.0762,N,07729.7108,W,1,04,2.37,57.3,M,-34.4,M,,*6A
$GPRMC,152425.750,A,4308.0772,N,07729.7137,W,33.05,294.36,300821,,,A*48
$GPGGA,152426.000,4308.0781,N,07729.7165,W,1,04,6.23,57.5,M,-34.4,M,,*6D
$GPRMC,152426.250,A,4308.0790,N,07729.7202,W,32.80,293.58,300821,,,A*44
$GPGGA,152426.500,4308.0801,N,07729.7247,W,1,05,2.04,63.8,M,-34.4,M,,*66
$GPRMC,152426.750,A,4308.0810,N,07729.7284,W,32.96,293.51,300821,,,A*46
$GPGGA,152427.000,4308.0820,N,07729.7324,W,1,05,2.04,68.7,M,-34.4,M,,*61
$GPRMC,152427.250,A,4308.0829,N,07729.7359,W,33.03,292.94,300821,,,A*4C
$GPGGA,152427.500,4308.0837,N,07729.7392,W,1,05,2.04,71.1,M,-34.4,M,,*61
$GPRMC,152427.750,A,4308.0846,N,07729.7425,W,33.04,292.37,300821,,,A*42
$GPGGA,152428.000,4308.0854,N,07729.7457,W,1,05,2.04,72.9,M,-34.4,M,,*6B
$GPRMC,152428.250,A,4308.0862,N,07729.7488,W,33.28,291.45,300821,,,A*41
$GPGGA,152428.500,4308.0870,N,07729.7518,W,1,05,2.04,73.4,M,-34.4,M,,*6E
$GPRMC,152428.750,A,4308.0877,N,07729.7549,W,33.34,290.34,300821,,,A*46
$GPGGA,152429.000,4308.0884,N,07729.7579,W,1,05,2.04,73.8,M,-34.4,M,,*6A
$GPRMC,152429.250,A,4308.0891,N,07729.7608,W,33.33,289.32,300821,,,A*45
$GPGGA,152429.500,4308.0898,N,07729.7641,W,1,05,2.04,74.3,M,-34.4,M,,*66
$GPRMC,152429.750,A,4308.0905,N,07729.7673,W,32.98,288.51,300821,,,A*44
$GPGGA,152430.000,4308.0912,N,07729.7708,W,1,05,2.04,76.7,M,-34.4,M,,*62
$GPRMC,152430.250,A,4308.0919,N,07729.7743,W,32.46,288.41,300821,,,A*44
$GPGGA,152430.500,4308.0928,N,07729.7783,W,1,05,2.04,80.6,M,-34.4,M,,*65
$GPRMC,152430.750,A,4308.0935,N,07729.7820,W,32.38,288.26,300821,,,A*4D
$GPGGA,152431.000,4308.0943,N,07729.7855,W,1,05,2.04,83.9,M,-34.4,M,,*64
$GPRMC,152431.250,A,4308.0950,N,07729.7889,W,32.17,287.64,300821,,,A*4D
$GPGGA,152431.500,4308.0957,N,07729.7925,W,1,05,2.04,86.5,M,-34.4,M,,*6B
$GPRMC,152431.750,A,4308.0963,N,07729.7958,W,32.09,286.40,300821,,,A*4D
$GPGGA,152432.000,4308.0968,N,07729.7989,W,1,05,2.04,88.0,M,-34.4,M,,*6C
$GPRMC,152432.250,A,4308.0976,N,07729.8021,W,31.87,285.32,300821,,,A*44
$GPGGA,152432.500,4308.0983,N,07729.8053,W,1,05,2.04,88.3,M,-34.4,M,,*6E
$GPRMC,152432.750,A,4308.0991,N,07729.8085,W,31.81,284.79,300821,,,A*4E
$GPGGA,152433.000,4308.0997,N,07729.8116,W,1,05,2.04,88.6,M,-34.4,M,,*6A
$GPRMC,152433.250,A,4308.1002,N,07729.8146,W,31.61,283.65,300821,,,A*42
$GPGGA,152433.500,4308.1008,N,07729.8177,W,1,05,2.04,88.8,M,-34.4,M,,*68
$GPRMC,152433.750,A,4308.1012,N,07729.8207,W,31.56,282.36,300821,,,A*43
$GPGGA,152434.000,4308.1017,N,07729.8236,W,1,05,2.04,89.0,M,-34.4,M,,*6B
$GPRMC,152434.250,A,4308.1021,N,07729.8266,W,31.49,281.52,300821,,,A*49
$GPGGA,152434.500,4308.1026,N,07729.8296,W,1,05,2.04,89.2,M,-34.4,M,,*64
$GPRMC,152434.750,A,4308.1030,N,07729.8325,W,31.25,281.34,300821,,,A*40
$GPGGA,152435.000,4308.1035,N,07729.8355,W,1,05,2.04,89.4,M,-34.4,M,,*6A
$GPRMC,152435.250,A,4308.1040,N,07729.8384,W,31.17,281.44,300821,,,A*4E
$GPGGA,152435.500,4308.1044,N,07729.8412,W,1,05,2.02,89.6,M,-34.4,M,,*69
$GPRMC,152435.750,A,4308.1048,N,07729.8441,W,30.74,281.02,300821,,,A*4B
$GPGGA,152436.000,4308.1051,N,07729.8468,W,1,05,2.02,89.7,M,-34.4,M,,*67
$GPRMC,152436.250,A,4308.1053,N,07729.8496,W,30.30,279.54,300821,,,A*49
$GPGGA,152436.500,4308.1054,N,07729.8523,W,1,05,2.04,89.9,M,-34.4,M,,*61
$GPRMC,152436.750,A,4308.1056,N,07729.8551,W,30.12,277.39,300821,,,A*46
$GPGGA,152437.000,4308.1056,N,07729.8578,W,1,05,2.04,90.0,M,-34.4,M,,*68
$GPRMC,152437.250,A,4308.1057,N,07729.8606,W,29.87,275.78,300821,,,A*41
$GPGGA,152437.500,4308.1058,N,07729.8633,W,1,05,2.04,90.2,M,-34.4,M,,*6D
$GPRMC,152437.750,A,4308.1059,N,07729.8661,W,29.87,274.28,300821,,,A*4F
$GPGGA,152438.000,4308.1059,N,07729.8688,W,1,05,2.04,90.4,M,-34.4,M,,*60
$GPRMC,152438.250,A,4308.1060,N,07729.8716,W,29.74,273.02,300821,,,A*4D
$GPGGA,152438.500,4308.1060,N,07729.8743,W,1,05,2.04,90.5,M,-34.4,M,,*68
$GPRMC,152438.750,A,4308.1061,N,07729.8771,W,29.60,271.69,300821,,,A*42
$GPGGA,152439.000,4308.1061,N,07729.8798,W,1,05,2.04,90.7,M,-34.4,M,,*69
$GPRMC,152439.250,A,4308.1061,N,07729.8826,W,29.34,270.96,300821,,,A*4B
$GPGGA,152439.500,4308.1061,N,07729.8853,W,1,05,2.04,90.8,M,-34.4,M,,*6B
$GPRMC,152439.750,A,4308.1061,N,07729.8880,W,29.27,270.67,300821,,,A*4E
$GPGGA,152440.000,4308.1061,N,07729.8907,W,1,05,2.04,91.0,M,-34.4,M,,*69
$GPRMC,152440.250,A,4308.1061,N,07729.8935,W,28.93,270.22,300821,,,A*45
$GPGGA,152440.500,4308.1061,N,07729.8962,W,1,05,2.05,91.3,M,-34.4,M,,*6D
$GPRMC,152440.750,A,4308.1060,N,07729.8989,W,28.68,270.21,300821,,,A*41
$GPGGA,152441.000,4308.1061,N,07729.9016,W,1,05,2.05,91.6,M,-34.4,M,,*67
$GPRMC,152441.250,A,4308.1061,N,07729.9042,W,28.40,270.65,300821,,,A*41
$GPGGA,152441.500,4308.1061,N,07729.9069,W,1,05,2.02,91.8,M,-34.4,M,,*63
$GPRMC,152441.750,A,4308.1062,N,07729.9094,W,28.19,271.08,300821,,,A*4A
$GPGGA,152442.000,4308.1062,N,07729.9120,W,1,05,2.05,92.2,M,-34.4,M,,*64
$GPRMC,152442.250,A,4308.1063,N,07729.9146,W,27.95,271.47,300821,,,A*43
$GPGGA,152442.500,4308.1063,N,07729.9171,W,1,05,2.02,92.4,M,-34.4,M,,*65
$GPRMC,152442.750,A,4308.1063,N,07729.9196,W,27.04,271.44,300821,,,A*40
$GPGGA,152443.000,4308.1062,N,07729.9220,W,1,05,2.05,92.7,M,-34.4,M,,*63
$GPRMC,152443.250,A,4308.1061,N,07729.9244,W,26.55,270.10,300821,,,A*4F
$GPGGA,152443.500,4308.1059,N,07729.9267,W,1,05,2.05,92.9,M,-34.4,M,,*63
$GPRMC,152443.750,A,4308.1057,N,07729.9290,W,25.88,268.06,300821,,,A*4B
$GPGGA,152444.000,4308.1054,N,07729.9313,W,1,05,2.05,92.9,M,-34.4,M,,*6E
$GPRMC,152444.250,A,4308.1053,N,07729.9336,W,25.56,266.37,300821,,,A*4F
$GPGGA,152444.500,4308.1051,N,07729.9360,W,1,05,2.05,93.1,M,-34.4,M,,*63
$GPRMC,152444.750,A,4308.1050,N,07729.9383,W,25.12,266.04,300821,,,A*47
$GPGGA,152445.000,4308.1048,N,07729.9405,W,1,05,2.05,93.3,M,-34.4,M,,*69
$GPRMC,152445.250,A,4308.1047,N,07729.9429,W,25.01,265.44,300821,,,A*47
$GPGGA,152445.500,4308.1044,N,07729.9451,W,1,05,2.05,93.6,M,-34.4,M,,*64
$GPRMC,152445.750,A,4308.1042,N,07729.9473,W,24.52,264.31,300821,,,A*4C
$GPGGA,152446.000,4308.1039,N,07729.9495,W,1,05,2.05,93.9,M,-34.4,M,,*6F
$GPRMC,152446.250,A,4308.1036,N,07729.9517,W,24.24,263.11,300821,,,A*4E
$GPGGA,152446.500,4308.1033,N,07729.9539,W,1,05,2.05,94.1,M,-34.4,M,,*68
$GPRMC,152446.750,A,4308.1029,N,07729.9560,W,24.18,262.12,300821,,,A*48
$GPGGA,152447.000,4308.1027,N,07729.9583,W,1,05,2.05,94.4,M,-34.4,M,,*6D
$GPRMC,152447.250,A,4308.1024,N,07729.9605,W,24.20,261.70,300821,,,A*4D
$GPGGA,152447.500,4308.1021,N,07729.9627,W,1,05,2.05,94.5,M,-34.4,M,,*62
$GPRMC,152447.750,A,4308.1019,N,07729.9650,W,24.22,262.00,300821,,,A*40
$GPGGA,152448.000,4308.1017,N,07729.9672,W,1,05,2.05,94.6,M,-34.4,M,,*6E
$GPRMC,152448.250,A,4308.1014,N,07729.9695,W,24.30,262.20,300821,,,A*4F
$GPGGA,152448.500,4308.1011,N,07729.9716,W,1,05,2.05,94.7,M,-34.4,M,,*6F
$GPRMC,152448.750,A,4308.1008,N,07729.9738,W,24.30,261.45,300821,,,A*41
$GPGGA,152449.000,4308.1004,N,07729.9760,W,1,05,2.05,94.9,M,-34.4,M,,*60
$GPRMC,152449.250,A,4308.1001,N,07729.9783,W,24.21,260.79,300821,,,A*42
$GPGGA,152449.500,4308.0998,N,07729.9804,W,1,05,2.05,95.1,M,-34.4,M,,*6C
$GPRMC,152449.750,A,4308.0994,N,07729.9827,W,24.03,260.06,300821,,,A*4A
$GPGGA,152450.000,4308.0991,N,07729.9848,W,1,05,2.05,95.6,M,-34.4,M,,*67
$GPRMC,152450.250,A,4308.0987,N,07729.9870,W,23.93,259.10,300821,,,A*44
$GPGGA,152450.500,4308.0983,N,07729.9891,W,1,05,2.05,95.9,M,-34.4,M,,*6A
$GPRMC,152450.750,A,4308.0979,N,07729.9912,W,23.61,257.92,300821,,,A*4C
$GPGGA,152451.000,4308.0975,N,07729.9933,W,1,05,2.05,96.3,M,-34.4,M,,*67
$GPRMC,152451.250,A,4308.0970,N,07729.9954,W,23.41,256.76,300821,,,A*4A
$GPGGA,152451.500,4308.0966,N,07729.9975,W,1,05,2.05,96.7,M,-34.4,M,,*66
$GPRMC,152451.750,A,4308.0961,N,07729.9997,W,23.82,255.78,300821,,,A*42
$GPGGA,152452.000,4308.0957,N,07730.0019,W,1,05,2.05,97.1,M,-34.4,M,,*67
$GPRMC,152452.250,A,4308.0953,N,07730.0041,W,24.04,255.56,300821,,,A*43
$GPGGA,152452.500,4308.0949,N,07730.0062,W,1,05,2.05,97.4,M,-34.4,M,,*64
$GPRMC,152452.750,A,4308.0944,N,07730.0084,W,23.92,255.24,300821,,,A*44
$GPGGA,152453.000,4308.0941,N,07730.0106,W,1,05,2.05,97.8,M,-34.4,M,,*67
$GPRMC,152453.250,A,4308.0936,N,07730.0128,W,23.99,255.56,300821,,,A*4C
$GPGGA,152453.500,4308.0932,N,07730.0150,W,1,05,2.05,98.2,M,-34.4,M,,*60
$GPRMC,152453.750,A,4308.0928,N,07730.0172,W,24.00,255.13,300821,,,A*4F
$GPGGA,152454.000,4308.0923,N,07730.0193,W,1,05,2.05,98.5,M,-34.4,M,,*6A
$GPRMC,152454.250,A,4308.0918,N,07730.0215,W,24.02,254.57,300821,,,A*4F
$GPGGA,152454.500,4308.0914,N,07730.0237,W,1,05,2.03,98.9,M,-34.4,M,,*6C
$GPRMC,152454.750,A,4308.0908,N,07730.0259,W,24.29,253.78,300821,,,A*40
$GPGGA,152455.000,4308.0903,N,07730.0281,W,1,05,2.03,99.2,M,-34.4,M,,*69
$GPRMC,152455.250,A,4308.0897,N,07730.0303,W,24.54,252.75,300821,,,A*4B
$GPGGA,152455.500,4308.0892,N,07730.0326,W,1,05,2.05,98.8,M,-34.4,M,,*64
$GPRMC,152455.750,A,4308.0886,N,07730.0349,W,25.34,252.58,300821,,,A*48
$GPGGA,152456.000,4308.0882,N,07730.0373,W,1,05,2.05,99.2,M,-34.4,M,,*68
$GPRMC,152456.250,A,4308.0877,N,07730.0396,W,25.74,253.46,300821,,,A*48
$GPGGA,152456.500,4308.0872,N,07730.0420,W,1,05,2.05,99.6,M,-34.4,M,,*67
$GPRMC,152456.750,A,4308.0867,N,07730.0444,W,26.09,253.73,300821,,,A*4B
$GPGGA,152457.000,4308.0861,N,07730.0468,W,1,05,2.05,100.1,M,-34.4,M,,*5B
$GPRMC,152457.250,A,4308.0856,N,07730.0492,W,26.83,253.69,300821,,,A*4F
$GPGGA,152457.500,4308.0850,N,07730.0517,W,1,05,2.05,100.6,M,-34.4,M,,*52
$GPRMC,152457.750,A,4308.0845,N,07730.0543,W,27.39,253.75,300821,,,A*48
$GPGGA,152458.000,4308.0841,N,07730.0568,W,1,05,2.05,101.0,M,-34.4,M,,*57
$GPRMC,152458.250,A,4308.0837,N,07730.0594,W,27.62,254.24,300821,,,A*40
$GPGGA,152458.500,4308.0832,N,07730.0619,W,1,05,2.03,101.6,M,-34.4,M,,*53
$GPRMC,152458.750,A,4308.0828,N,07730.0646,W,28.09,254.68,300821,,,A*4D
$GPGGA,152459.000,4308.0824,N,07730.0672,W,1,05,2.05,102.1,M,-34.4,M,,*5F
$GPRMC,152459.250,A,4308.0819,N,07730.0699,W,28.45,255.09,300821,,,A*47
$GPGGA,152459.500,4308.0814,N,07730.0725,W,1,05,2.05,102.6,M,-34.4,M,,*5D
$GPRMC,152459.750,A,4308.0811,N,07730.0753,W,28.78,255.78,300821,,,A*45
$GPGGA,152500.000,4308.0807,N,07730.0780,W,1,05,2.05,103.1,M,-34.4,M,,*5E
$GPRMC,152500.250,A,4308.0803,N,07730.0807,W,28.97,256.86,300821,,,A*43
$GPGGA,152500.500,4308.0800,N,07730.0835,W,1,05,2.03,103.5,M,-34.4,M,,*5F
$GPRMC,152500.750,A,4308.0797,N,07730.0863,W,29.27,258.45,300821,,,A*4D
$GPGGA,152501.000,4308.0795,N,07730.0892,W,1,05,2.05,103.9,M,-34.4,M,,*5F
$GPRMC,152501.250,A,4308.0791,N,07730.0919,W,29.48,259.10,300821,,,A*4B
$GPGGA,152501.500,4308.0788,N,07730.0946,W,1,05,2.03,104.2,M,-34.4,M,,*54
$GPRMC,152501.750,A,4308.0785,N,07730.0973,W,29.03,259.77,300821,,,A*49
$GPGGA,152502.000,4308.0783,N,07730.1000,W,1,05,2.03,104.5,M,-34.4,M,,*54
$GPRMC,152502.250,A,4308.0781,N,07730.1027,W,28.75,261.08,300821,,,A*41
$GPGGA,152502.500,4308.0780,N,07730.1054,W,1,06,2.04,104.9,M,-34.4,M,,*5B
$GPRMC,152502.750,A,4308.0779,N,07730.1080,W,28.15,263.06,300821,,,A*44
$GPGGA,152503.000,4308.0778,N,07730.1107,W,1,06,2.04,105.2,M,-34.4,M,,*55
$GPRMC,152503.250,A,4308.0777,N,07730.1134,W,27.80,264.09,300821,,,A*4B
$GPGGA,152503.500,4308.0776,N,07730.1160,W,1,06,2.04,105.6,M,-34.4,M,,*5B
$GPRMC,152503.750,A,4308.0775,N,07730.1186,W,27.11,264.98,300821,,,A*45
$GPGGA,152504.000,4308.0776,N,07730.1212,W,1,06,2.04,106.0,M,-34.4,M,,*5A
$GPRMC,152504.250,A,4308.0777,N,07730.1238,W,26.60,267.12,300821,,,A*45
$GPGGA,152504.500,4308.0778,N,07730.1263,W,1,06,2.04,106.3,M,-34.4,M,,*54
$GPRMC,152504.750,A,4308.0780,N,07730.1289,W,26.31,269.03,300821,,,A*48
$GPGGA,152505.000,4308.0783,N,07730.1315,W,1,06,2.04,106.6,M,-34.4,M,,*51
$GPRMC,152505.250,A,4308.0784,N,07730.1340,W,26.35,270.80,300821,,,A*4B
$GPGGA,152505.500,4308.0786,N,07730.1365,W,1,06,2.03,107.0,M,-34.4,M,,*56
$GPRMC,152505.750,A,4308.0788,N,07730.1390,W,26.23,272.19,300821,,,A*4A
$GPGGA,152506.000,4308.0792,N,07730.1416,W,1,06,2.04,107.4,M,-34.4,M,,*55
$GPRMC,152506.250,A,4308.0795,N,07730.1441,W,26.02,274.07,300821,,,A*41
$GPGGA,152506.500,4308.0799,N,07730.1468,W,1,06,2.04,107.8,M,-34.4,M,,*5E
$GPRMC,152506.750,A,4308.0805,N,07730.1496,W,26.88,276.64,300821,,,A*4D
$GPGGA,152507.000,4308.0811,N,07730.1524,W,1,06,2.04,108.1,M,-34.4,M,,*5A
$GPRMC,152507.250,A,4308.0817,N,07730.1551,W,27.54,279.00,300821,,,A*4D
$GPGGA,152507.500,4308.0825,N,07730.1580,W,1,06,2.04,108.4,M,-34.4,M,,*53
$GPRMC,152507.750,A,4308.0832,N,07730.1608,W,28.38,281.57,300821,,,A*40
$GPGGA,152508.000,4308.0839,N,07730.1636,W,1,06,2.04,108.6,M,-34.4,M,,*58
$GPRMC,152508.250,A,4308.0844,N,07730.1664,W,28.74,282.83,300821,,,A*43
$GPGGA,152508.500,4308.0850,N,07730.1691,W,1,06,2.04,108.9,M,-34.4,M,,*50
$GPRMC,152508.750,A,4308.0855,N,07730.1718,W,29.00,283.31,300821,,,A*46
$GPGGA,152509.000,4308.0860,N,07730.1746,W,1,06,2.04,109.2,M,-34.4,M,,*56
$GPRMC,152509.250,A,4308.0865,N,07730.1773,W,29.07,283.91,300821,,,A*41
$GPGGA,152509.500,4308.0871,N,07730.1800,W,1,06,2.04,109.5,M,-34.4,M,,*59
$GPRMC,152509.750,A,4308.0877,N,07730.1826,W,28.85,285.48,300821,,,A*41
$GPGGA,152510.000,4308.0883,N,07730.1853,W,1,06,2.04,109.7,M,-34.4,M,,*5D
$GPRMC,152510.250,A,4308.0888,N,07730.1879,W,28.76,285.87,300821,,,A*49
$GPGGA,152510.500,4308.0893,N,07730.1905,W,1,06,2.04,110.1,M,-34.4,M,,*55
$GPRMC,152510.750,A,4308.0899,N,07730.1931,W,28.51,285.27,300821,,,A*4E
$GPGGA,152511.000,4308.0904,N,07730.1957,W,1,06,2.04,110.5,M,-34.4,M,,*5D
$GPRMC,152511.250,A,4308.0908,N,07730.1983,W,28.34,284.51,300821,,,A*49
$GPGGA,152511.500,4308.0912,N,07730.2009,W,1,06,2.04,110.9,M,-34.4,M,,*52
$GPRMC,152511.750,A,4308.0916,N,07730.2034,W,28.16,283.72,300821,,,A*43
$GPGGA,152512.000,4308.0920,N,07730.2059,W,1,06,2.04,111.4,M,-34.4,M,,*5C
$GPRMC,152512.250,A,4308.0925,N,07730.2084,W,27.54,283.66,300821,,,A*42
$GPGGA,152512.500,4308.0929,N,07730.2110,W,1,06,2.04,111.8,M,-34.4,M,,*50
$GPRMC,152512.750,A,4308.0934,N,07730.2135,W,27.52,284.06,300821,,,A*4B
$GPGGA,152513.000,4308.0938,N,07730.2160,W,1,06,2.05,112.1,M,-34.4,M,,*58
$GPRMC,152513.250,A,4308.0943,N,07730.2185,W,27.42,283.94,300821,,,A*49
$GPGGA,152513.500,4308.0947,N,07730.2210,W,1,06,2.05,112.4,M,-34.4,M,,*54
$GPRMC,152513.750,A,4308.0952,N,07730.2235,W,27.40,284.77,300821,,,A*4C
$GPGGA,152514.000,4308.0955,N,07730.2260,W,1,06,2.05,112.8,M,-34.4,M,,*5E
$GPRMC,152514.250,A,4308.0960,N,07730.2285,W,27.40,284.27,300821,,,A*41
$GPGGA,152514.500,4308.0964,N,07730.2310,W,1,06,2.05,113.2,M,-34.4,M,,*54
$GPRMC,152514.750,A,4308.0968,N,07730.2335,W,27.42,283.87,300821,,,A*49
$GPGGA,152515.000,4308.0972,N,07730.2360,W,1,06,2.05,113.7,M,-34.4,M,,*55
$GPRMC,152515.250,A,4308.0976,N,07730.2384,W,27.14,283.86,300821,,,A*4A
$GPGGA,152515.500,4308.0981,N,07730.2409,W,1,06,2.03,114.0,M,-34.4,M,,*52
$GPRMC,152515.750,A,4308.0986,N,07730.2435,W,27.36,284.71,300821,,,A*42
$GPGGA,152516.000,4308.0992,N,07730.2461,W,1,06,2.05,114.4,M,-34.4,M,,*5A
$GPRMC,152516.250,A,4308.0998,N,07730.2487,W,28.00,284.89,300821,,,A*4F
$GPGGA,152516.500,4308.1003,N,07730.2513,W,1,06,2.05,114.9,M,-34.4,M,,*56
$GPRMC,152516.750,A,4308.1008,N,07730.2539,W,28.20,284.38,300821,,,A*47
$GPGGA,152517.000,4308.1014,N,07730.2564,W,1,06,2.05,115.5,M,-34.4,M,,*59
$GPRMC,152517.250,A,4308.1020,N,07730.2590,W,27.99,284.66,300821,,,A*4C
$GPGGA,152517.500,4308.1026,N,07730.2616,W,1,06,2.05,116.1,M,-34.4,M,,*5C
$GPRMC,152517.750,A,4308.1033,N,07730.2643,W,28.40,285.26,300821,,,A*48
$GPGGA,152518.000,4308.1040,N,07730.2670,W,1,06,2.05,116.8,M,-34.4,M,,*5F
$GPRMC,152518.250,A,4308.1046,N,07730.2697,W,29.14,285.49,300821,,,A*40
$GPGGA,152518.500,4308.1053,N,07730.2725,W,1,06,2.05,117.4,M,-34.4,M,,*54
$GPRMC,152518.750,A,4308.1060,N,07730.2753,W,29.71,286.06,300821,,,A*43
$GPGGA,152519.000,4308.1068,N,07730.2782,W,1,06,2.05,118.0,M,-34.4,M,,*5E
$GPRMC,152519.250,A,4308.1074,N,07730.2811,W,30.83,286.49,300821,,,A*45
$GPGGA,152519.500,4308.1082,N,07730.2839,W,1,06,2.05,118.4,M,-34.4,M,,*54
$GPRMC,152519.750,A,4308.1089,N,07730.2867,W,31.10,287.16,300821,,,A*43
$GPGGA,152520.000,4308.1096,N,07730.2896,W,1,06,2.05,118.8,M,-34.4,M,,*57
$GPRMC,152520.250,A,4308.1103,N,07730.2924,W,31.40,287.16,300821,,,A*4C
$GPGGA,152520.500,4308.1109,N,07730.2953,W,1,06,2.05,119.3,M,-34.4,M,,*57
$GPRMC,152520.750,A,4308.1114,N,07730.2982,W,31.63,285.89,300821,,,A*46
$GPGGA,152521.000,4308.1120,N,07730.3010,W,1,06,2.05,119.9,M,-34.4,M,,*5D
$GPRMC,152521.250,A,4308.1125,N,07730.3038,W,31.38,285.01,300821,,,A*47
$GPGGA,152521.500,4308.1130,N,07730.3067,W,1,06,2.05,120.3,M,-34.4,M,,*59
$GPRMC,152521.750,A,4308.1134,N,07730.3096,W,31.35,284.21,300821,,,A*48
$GPGGA,152522.000,4308.1138,N,07730.3123,W,1,06,2.05,120.8,M,-34.4,M,,*5D
$GPRMC,152522.250,A,4308.1141,N,07730.3151,W,31.22,283.05,300821,,,A*41
$GPGGA,152522.500,4308.1145,N,07730.3178,W,1,06,2.05,121.0,M,-34.4,M,,*55
$GPRMC,152522.750,A,4308.1150,N,07730.3206,W,29.85,282.60,300821,,,A*43
$GPGGA,152523.000,4308.1154,N,07730.3234,W,1,06,2.05,121.1,M,-34.4,M,,*5B
$GPRMC,152523.250,A,4308.1158,N,07730.3262,W,29.91,281.89,300821,,,A*4C
$GPGGA,152523.500,4308.1163,N,07730.3291,W,1,06,2.05,121.1,M,-34.4,M,,*55
$GPRMC,152523.750,A,4308.1167,N,07730.3319,W,30.16,281.24,300821,,,A*48
$GPGGA,152524.000,4308.1170,N,07730.3348,W,1,06,2.05,121.2,M,-34.4,M,,*53
$GPRMC,152524.250,A,4308.1174,N,07730.3376,W,30.19,280.14,300821,,,A*4C
$GPGGA,152524.500,4308.1176,N,07730.3404,W,1,06,2.05,121.2,M,-34.4,M,,*5F
$GPRMC,152524.750,A,4308.1178,N,07730.3432,W,30.30,278.85,300821,,,A*46
$GPGGA,152525.000,4308.1180,N,07730.3460,W,1,06,2.05,121.1,M,-34.4,M,,*53
$GPRMC,152525.250,A,4308.1181,N,07730.3488,W,30.56,277.58,300821,,,A*4A
$GPGGA,152525.500,4308.1183,N,07730.3516,W,1,06,2.05,121.2,M,-34.4,M,,*56
$GPRMC,152525.750,A,4308.1184,N,07730.3544,W,30.56,276.82,300821,,,A*4D
$GPGGA,152526.000,4308.1185,N,07730.3572,W,1,06,2.05,121.4,M,-34.4,M,,*52
$GPRMC,152526.250,A,4308.1186,N,07730.3601,W,30.58,275.35,300821,,,A*4A
$GPGGA,152526.500,4308.1187,N,07730.3631,W,1,07,1.35,121.8,M,-34.4,M,,*5C
$GPRMC,152526.750,A,4308.1189,N,07730.3660,W,30.58,273.49,300821,,,A*4A
$GPGGA,152527.000,4308.1190,N,07730.3689,W,1,07,1.35,122.0,M,-34.4,M,,*56
$GPRMC,152527.250,A,4308.1191,N,07730.3719,W,30.35,272.30,300821,,,A*4C
$GPGGA,152527.500,4308.1191,N,07730.3748,W,1,07,1.35,122.4,M,-34.4,M,,*5A
$GPRMC,152527.750,A,4308.1191,N,07730.3777,W,30.04,270.68,300821,,,A*4C
$GPGGA,152528.000,4308.1192,N,07730.3806,W,1,07,1.35,122.5,M,-34.4,M,,*57
$GPRMC,152528.250,A,4308.1192,N,07730.3835,W,30.03,270.34,300821,,,A*42
$GPGGA,152528.500,4308.1193,N,07730.3864,W,1,07,1.35,122.6,M,-34.4,M,,*54
$GPRMC,152528.750,A,4308.1193,N,07730.3893,W,30.08,269.75,300821,,,A*4C
$GPGGA,152529.000,4308.1193,N,07730.3922,W,1,07,1.35,122.7,M,-34.4,M,,*52
$GPRMC,152529.250,A,4308.1192,N,07730.3952,W,30.11,269.60,300821,,,A*49
$GPGGA,152529.500,4308.1192,N,07730.3981,W,1,07,1.35,122.8,M,-34.4,M,,*50
$GPRMC,152529.750,A,4308.1192,N,07730.4011,W,30.22,269.48,300821,,,A*4F
$GPGGA,152530.000,4308.1192,N,07730.4041,W,1,07,1.35,122.8,M,-34.4,M,,*5F
$GPRMC,152530.250,A,4308.1192,N,07730.4072,W,30.35,269.54,300821,,,A*4C
$GPGGA,152530.500,4308.1193,N,07730.4102,W,1,07,1.35,122.7,M,-34.4,M,,*52
$GPRMC,152530.750,A,4308.1193,N,07730.4133,W,31.66,269.93,300821,,,A*40
$GPGGA,152531.000,4308.1193,N,07730.4164,W,1,07,1.35,122.6,M,-34.4,M,,*57
$GPRMC,152531.250,A,4308.1193,N,07730.4195,W,32.15,269.99,300821,,,A*45
$GPGGA,152531.500,4308.1193,N,07730.4226,W,1,07,1.35,122.5,M,-34.4,M,,*54
$GPRMC,152531.750,A,4308.1194,N,07730.4257,W,32.50,270.82,300821,,,A*49
$GPGGA,152532.000,4308.1195,N,07730.4289,W,1,07,1.35,122.5,M,-34.4,M,,*51
$GPRMC,152532.250,A,4308.1195,N,07730.4321,W,32.75,271.08,300821,,,A*4A
$GPGGA,152532.500,4308.1196,N,07730.4352,W,1,07,1.35,122.4,M,-34.4,M,,*51
$GPRMC,152532.750,A,4308.1196,N,07730.4384,W,32.86,271.19,300821,,,A*4F
$GPGGA,152533.000,4308.1197,N,07730.4415,W,1,07,1.35,122.2,M,-34.4,M,,*56
$GPRMC,152533.250,A,4308.1197,N,07730.4447,W,32.98,271.06,300821,,,A*43
$GPGGA,152533.500,4308.1197,N,07730.4478,W,1,07,1.34,121.9,M,-34.4,M,,*51
$GPRMC,152533.750,A,4308.1198,N,07730.4510,W,33.18,271.07,300821,,,A*42
$GPGGA,152534.000,4308.1198,N,07730.4542,W,1,07,1.35,121.6,M,-34.4,M,,*5A
$GPRMC,152534.250,A,4308.1199,N,07730.4573,W,33.15,270.96,300821,,,A*40
$GPGGA,152534.500,4308.1200,N,07730.4605,W,1,07,1.34,121.3,M,-34.4,M,,*59
$GPRMC,152534.750,A,4308.1200,N,07730.4637,W,33.27,270.93,300821,,,A*41
$GPGGA,152535.000,4308.1201,N,07730.4669,W,1,07,1.35,121.0,M,-34.4,M,,*54
$GPRMC,152535.250,A,4308.1202,N,07730.4701,W,33.65,271.58,300821,,,A*43
$GPGGA,152535.500,4308.1203,N,07730.4734,W,1,07,1.35,120.7,M,-34.4,M,,*5C
$GPRMC,152535.750,A,4308.1204,N,07730.4766,W,33.73,271.59,300821,,,A*47
$GPGGA,152536.000,4308.1204,N,07730.4799,W,1,07,1.35,120.6,M,-34.4,M,,*5B
$GPRMC,152536.250,A,4308.1205,N,07730.4831,W,33.82,271.40,300821,,,A*4B
$GPGGA,152536.500,4308.1205,N,07730.4864,W,1,07,1.34,120.5,M,-34.4,M,,*50
$GPRMC,152536.750,A,4308.1206,N,07730.4896,W,34.10,271.30,300821,,,A*4B
$GPGGA,152537.000,4308.1207,N,07730.4929,W,1,07,1.35,120.6,M,-34.4,M,,*5C
$GPRMC,152537.250,A,4308.1207,N,07730.4962,W,34.33,271.45,300821,,,A*47
$GPGGA,152537.500,4308.1209,N,07730.4995,W,1,07,1.35,120.7,M,-34.4,M,,*51
$GPRMC,152537.750,A,4308.1210,N,07730.5027,W,34.26,272.18,300821,,,A*42
$GPGGA,152538.000,4308.1211,N,07730.5061,W,1,07,1.35,120.8,M,-34.4,M,,*5E
$GPRMC,152538.250,A,4308.1213,N,07730.5093,W,34.32,273.03,300821,,,A*4A
$GPGGA,152538.500,4308.1216,N,07730.5126,W,1,07,1.34,120.8,M,-34.4,M,,*5F
$GPRMC,152538.750,A,4308.1218,N,07730.5159,W,34.33,273.95,300821,,,A*4D
$GPGGA,152539.000,4308.1220,N,07730.5192,W,1,07,1.34,120.7,M,-34.4,M,,*5E
$GPRMC,152539.250,A,4308.1222,N,07730.5225,W,34.70,274.61,300821,,,A*43
$GPGGA,152539.500,4308.1226,N,07730.5258,W,1,07,1.35,120.7,M,-34.4,M,,*59
$GPRMC,152539.750,A,4308.1229,N,07730.5290,W,34.54,275.57,300821,,,A*41
$GPGGA,152540.000,4308.1232,N,07730.5323,W,1,07,1.34,120.8,M,-34.4,M,,*54
$GPRMC,152540.250,A,4308.1234,N,07730.5356,W,34.55,276.01,300821,,,A*4C
$GPGGA,152540.500,4308.1237,N,07730.5389,W,1,07,1.35,120.9,M,-34.4,M,,*54
$GPRMC,152540.750,A,4308.1240,N,07730.5422,W,34.76,276.05,300821,,,A*4B
$GPGGA,152541.000,4308.1242,N,07730.5456,W,1,07,1.34,121.1,M,-34.4,M,,*5F
$GPRMC,152541.250,A,4308.1245,N,07730.5490,W,35.09,275.89,300821,,,A*4D
$GPGGA,152541.500,4308.1247,N,07730.5523,W,1,07,1.35,121.2,M,-34.4,M,,*5E
$GPRMC,152541.750,A,4308.1249,N,07730.5556,W,34.66,275.57,300821,,,A*44
$GPGGA,152542.000,4308.1251,N,07730.5589,W,1,07,1.34,121.4,M,-34.4,M,,*58
$GPRMC,152542.250,A,4308.1253,N,07730.5622,W,34.45,275.47,300821,,,A*49
$GPGGA,152542.500,4308.1256,N,07730.5654,W,1,07,1.35,121.4,M,-34.4,M,,*58
$GPRMC,152542.750,A,4308.1258,N,07730.5687,W,34.19,275.77,300821,,,A*42
$GPGGA,152543.000,4308.1261,N,07730.5719,W,1,07,1.34,121.3,M,-34.4,M,,*56
$GPRMC,152543.250,A,4308.1264,N,07730.5751,W,34.15,276.49,300821,,,A*41
$GPGGA,152543.500,4308.1267,N,07730.5783,W,1,07,1.35,121.3,M,-34.4,M,,*57
$GPRMC,152543.750,A,4308.1269,N,07730.5815,W,33.96,276.54,300821,,,A*46
$GPGGA,152544.000,4308.1272,N,07730.5847,W,1,07,1.34,121.3,M,-34.4,M,,*57
$GPRMC,152544.250,A,4308.1274,N,07730.5878,W,33.60,276.09,300821,,,A*42
$GPGGA,152544.500,4308.1277,N,07730.5910,W,1,07,1.34,121.3,M,-34.4,M,,*54
$GPRMC,152544.750,A,4308.1279,N,07730.5941,W,33.14,275.84,300821,,,A*44
$GPGGA,152545.000,4308.1281,N,07730.5973,W,1,07,1.34,121.4,M,-34.4,M,,*5B
$GPRMC,152545.250,A,4308.1284,N,07730.6004,W,33.12,276.16,300821,,,A*47
$GPGGA,152545.500,4308.1286,N,07730.6035,W,1,07,1.34,121.4,M,-34.4,M,,*51
$GPRMC,152545.750,A,4308.1289,N,07730.6067,W,32.86,276.43,300821,,,A*46
$GPGGA,152546.000,4308.1291,N,07730.6098,W,1,07,1.34,121.4,M,-34.4,M,,*56
$GPRMC,152546.250,A,4308.1294,N,07730.6129,W,32.75,276.59,300821,,,A*40
$GPGGA,152546.500,4308.1296,N,07730.6160,W,1,07,1.34,121.4,M,-34.4,M,,*52
$GPRMC,152546.750,A,4308.1298,N,07730.6191,W,32.76,276.44,300821,,,A*45
$GPGGA,152547.000,4308.1301,N,07730.6222,W,1,07,1.34,121.4,M,-34.4,M,,*5C
$GPRMC,152547.250,A,4308.1303,N,07730.6253,W,32.93,276.52,300821,,,A*43
$GPGGA,152547.500,4308.1306,N,07730.6284,W,1,07,1.35,121.3,M,-34.4,M,,*54
$GPRMC,152547.750,A,4308.1308,N,07730.6316,W,32.98,276.76,300821,,,A*40
$GPGGA,152548.000,4308.1312,N,07730.6346,W,1,07,1.34,121.2,M,-34.4,M,,*54
$GPRMC,152548.250,A,4308.1315,N,07730.6378,W,32.94,277.70,300821,,,A*45
$GPGGA,152548.500,4308.1318,N,07730.6410,W,1,07,1.34,121.0,M,-34.4,M,,*5D
$GPRMC,152548.750,A,4308.1322,N,07730.6442,W,33.67,277.72,300821,,,A*45
$GPGGA,152549.000,4308.1325,N,07730.6475,W,1,07,1.34,120.9,M,-34.4,M,,*5C
$GPRMC,152549.250,A,4308.1327,N,07730.6507,W,33.71,277.27,300821,,,A*43
$GPGGA,152549.500,4308.1330,N,07730.6540,W,1,07,1.28,120.8,M,-34.4,M,,*56
$GPRMC,152549.750,A,4308.1333,N,07730.6572,W,33.84,276.68,300821,,,A*41
$GPGGA,152550.000,4308.1336,N,07730.6604,W,1,07,1.34,120.7,M,-34.4,M,,*5C
$GPRMC,152550.250,A,4308.1338,N,07730.6636,W,33.89,276.47,300821,,,A*44
$GPGGA,152550.500,4308.1340,N,07730.6668,W,1,07,1.34,120.4,M,-34.4,M,,*51
$GPRMC,152550.750,A,4308.1344,N,07730.6700,W,33.85,276.56,300821,,,A*42
$GPGGA,152551.000,4308.1346,N,07730.6733,W,1,07,1.34,120.2,M,-34.4,M,,*5A
$GPRMC,152551.250,A,4308.1349,N,07730.6765,W,33.90,276.62,300821,,,A*4B
$GPGGA,152551.500,4308.1352,N,07730.6797,W,1,07,1.34,119.9,M,-34.4,M,,*55
$GPRMC,152551.750,A,4308.1356,N,07730.6830,W,34.47,276.83,300821,,,A*4D
$GPGGA,152552.000,4308.1359,N,07730.6863,W,1,07,1.34,119.7,M,-34.4,M,,*52
$GPRMC,152552.250,A,4308.1362,N,07730.6896,W,34.68,277.26,300821,,,A*43
$GPGGA,152552.500,4308.1365,N,07730.6929,W,1,07,1.34,119.6,M,-34.4,M,,*56
$GPRMC,152552.750,A,4308.1369,N,07730.6962,W,34.97,277.27,300821,,,A*46
$GPGGA,152553.000,4308.1372,N,07730.6996,W,1,07,1.34,119.4,M,-34.4,M,,*52
$GPRMC,152553.250,A,4308.1375,N,07730.7029,W,35.02,277.16,300821,,,A*47
$GPGGA,152553.500,4308.1378,N,07730.7062,W,1,07,1.34,119.3,M,-34.4,M,,*59
$GPRMC,152553.750,A,4308.1381,N,07730.7095,W,34.60,277.18,300821,,,A*45
$GPGGA,152554.000,4308.1384,N,07730.7128,W,1,07,1.34,119.3,M,-34.4,M,,*57
$GPRMC,152554.250,A,4308.1387,N,07730.7162,W,34.83,277.10,300821,,,A*4D
$GPGGA,152554.500,4308.1389,N,07730.7196,W,1,07,1.34,119.4,M,-34.4,M,,*5D
$GPRMC,152554.750,A,4308.1393,N,07730.7230,W,35.07,277.20,300821,,,A*47
$GPGGA,152555.000,4308.1395,N,07730.7264,W,1,07,1.34,119.6,M,-34.4,M,,*58
$GPRMC,152555.250,A,4308.1398,N,07730.7297,W,35.12,276.60,300821,,,A*44
$GPGGA,152555.500,4308.1400,N,07730.7331,W,1,07,1.34,119.5,M,-34.4,M,,*54
$GPRMC,152555.750,A,4308.1402,N,07730.7366,W,35.44,275.99,300821,,,A*4C
$GPGGA,152556.000,4308.1405,N,07730.7400,W,1,07,1.34,119.7,M,-34.4,M,,*50
$GPRMC,152556.250,A,4308.1407,N,07730.7434,W,35.44,275.84,300821,,,A*43
$GPGGA,152556.500,4308.1408,N,07730.7468,W,1,07,1.34,119.7,M,-34.4,M,,*56
$GPRMC,152556.750,A,4308.1410,N,07730.7502,W,35.36,275.49,300821,,,A*40
$GPGGA,152557.000,4308.1412,N,07730.7535,W,1,07,1.34,119.6,M,-34.4,M,,*51
$GPRMC,152557.250,A,4308.1414,N,07730.7568,W,35.15,275.34,300821,,,A*47
$GPGGA,152557.500,4308.1417,N,07730.7602,W,1,07,1.34,119.5,M,-34.4,M,,*55
$GPRMC,152557.750,A,4308.1419,N,07730.7636,W,35.24,275.41,300821,,,A*47
$GPGGA,152558.000,4308.1421,N,07730.7670,W,1,07,1.34,119.5,M,-34.4,M,,*5F
$GPRMC,152558.250,A,4308.1424,N,07730.7704,W,35.29,275.46,300821,,,A*49
$GPGGA,152558.500,4308.1426,N,07730.7738,W,1,07,1.34,119.6,M,-34.4,M,,*53
$GPRMC,152558.750,A,4308.1429,N,07730.7771,W,35.31,275.58,300821,,,A*45
$GPGGA,152559.000,4308.1432,N,07730.7806,W,1,07,1.34,119.6,M,-34.4,M,,*50
$GPRMC,152559.250,A,4308.1434,N,07730.7840,W,35.34,275.73,300821,,,A*4C
$GPGGA,152559.500,4308.1437,N,07730.7873,W,1,07,1.34,119.6,M,-34.4,M,,*52
$GPRMC,152559.750,A,4308.1441,N,07730.7906,W,35.33,277.11,300821,,,A*49
$GPGGA,152600.000,4308.1445,N,07730.7939,W,1,07,1.34,119.5,M,-34.4,M,,*51
$GPRMC,152600.250,A,4308.1448,N,07730.7972,W,35.26,277.30,300821,,,A*4E
$GPGGA,152600.500,4308.1451,N,07730.8005,W,1,07,1.34,119.4,M,-34.4,M,,*59
$GPRMC,152600.750,A,4308.1453,N,07730.8040,W,35.50,276.46,300821,,,A*47
$GPGGA,152601.000,4308.1456,N,07730.8074,W,1,07,1.34,119.4,M,-34.4,M,,*5C
$GPRMC,152601.250,A,4308.1458,N,07730.8108,W,35.77,275.76,300821,,,A*40
$GPGGA,152601.500,4308.1460,N,07730.8142,W,1,07,1.34,119.3,M,-34.4,M,,*5F
$GPRMC,152601.750,A,4308.1462,N,07730.8175,W,35.54,275.04,300821,,,A*42
$GPGGA,152602.000,4308.1464,N,07730.8208,W,1,07,1.34,119.2,M,-34.4,M,,*51
$GPRMC,152602.250,A,4308.1465,N,07730.8241,W,35.04,274.45,300821,,,A*46
$GPGGA,152602.500,4308.1467,N,07730.8273,W,1,07,1.34,119.1,M,-34.4,M,,*58
$GPRMC,152602.750,A,4308.1468,N,07730.8306,W,34.75,273.99,300821,,,A*4D
$GPGGA,152603.000,4308.1470,N,07730.8339,W,1,07,1.34,119.0,M,-34.4,M,,*54
$GPRMC,152603.250,A,4308.1473,N,07730.8372,W,34.62,273.91,300821,,,A*4E
$GPGGA,152603.500,4308.1474,N,07730.8405,W,1,07,1.34,118.8,M,-34.4,M,,*54
$GPRMC,152603.750,A,4308.1476,N,07730.8438,W,34.35,273.78,300821,,,A*42
$GPGGA,152604.000,4308.1478,N,07730.8471,W,1,07,1.34,118.8,M,-34.4,M,,*59
$GPRMC,152604.250,A,4308.1479,N,07730.8507,W,34.54,273.38,300821,,,A*41
$GPGGA,152604.500,4308.1481,N,07730.8540,W,1,07,1.34,119.0,M,-34.4,M,,*50
$GPRMC,152604.750,A,4308.1483,N,07730.8574,W,34.55,273.37,300821,,,A*4B
$GPGGA,152605.000,4308.1484,N,07730.8607,W,1,07,1.34,119.2,M,-34.4,M,,*53
$GPRMC,152605.250,A,4308.1486,N,07730.8640,W,34.60,273.38,300821,,,A*47
$GPGGA,152605.500,4308.1487,N,07730.8673,W,1,07,1.34,119.1,M,-34.4,M,,*55
$GPRMC,152605.750,A,4308.1489,N,07730.8707,W,35.04,273.56,300821,,,A*44
$GPGGA,152606.000,4308.1490,N,07730.8740,W,1,07,1.34,119.0,M,-34.4,M,,*55
$GPRMC,152606.250,A,4308.1491,N,07730.8773,W,35.20,273.76,300821,,,A*4C
$GPGGA,152606.500,4308.1493,N,07730.8806,W,1,07,1.34,119.0,M,-34.4,M,,*5E
$GPRMC,152606.750,A,4308.1495,N,07730.8839,W,35.05,274.09,300821,,,A*44
$GPGGA,152607.000,4308.1497,N,07730.8873,W,1,07,1.34,119.0,M,-34.4,M,,*5C
$GPRMC,152607.250,A,4308.1499,N,07730.8905,W,34.78,274.31,300821,,,A*42
$GPGGA,152607.500,4308.1500,N,07730.8938,W,1,07,1.34,119.1,M,-34.4,M,,*59
$GPRMC,152607.750,A,4308.1502,N,07730.8970,W,34.38,274.19,300821,,,A*48
$GPGGA,152608.000,4308.1504,N,07730.9002,W,1,07,1.34,119.0,M,-34.4,M,,*57
$GPRMC,152608.250,A,4308.1507,N,07730.9035,W,34.58,275.39,300821,,,A*4B
$GPGGA,152608.500,4308.1510,N,07730.9067,W,1,07,1.34,119.1,M,-34.4,M,,*55
$GPRMC,152608.750,A,4308.1512,N,07730.9099,W,34.61,276.92,300821,,,A*44
$GPGGA,152609.000,4308.1514,N,07730.9131,W,1,07,1.34,119.3,M,-34.4,M,,*55
$GPRMC,152609.250,A,4308.1517,N,07730.9164,W,34.54,277.81,300821,,,A*43
$GPGGA,152609.500,4308.1521,N,07730.9196,W,1,07,1.34,119.4,M,-34.4,M,,*5C
$GPRMC,152609.750,A,4308.1525,N,07730.9229,W,34.59,279.48,300821,,,A*4B
$GPGGA,152610.000,4308.1530,N,07730.9262,W,1,07,1.34,119.6,M,-34.4,M,,*5B
$GPRMC,152610.250,A,4308.1534,N,07730.9296,W,35.64,280.84,300821,,,A*4B
$GPGGA,152610.500,4308.1539,N,07730.9329,W,1,07,1.34,119.8,M,-34.4,M,,*57
$GPRMC,152610.750,A,4308.1545,N,07730.9363,W,36.08,282.34,300821,,,A*43
$GPGGA,152611.000,4308.1551,N,07730.9397,W,1,07,1.34,120.2,M,-34.4,M,,*58
$GPRMC,152611.250,A,4308.1559,N,07730.9432,W,36.35,284.76,300821,,,A*47
$GPGGA,152611.500,4308.1568,N,07730.9466,W,1,07,1.34,120.8,M,-34.4,M,,*54
$GPRMC,152611.750,A,4308.1575,N,07730.9500,W,36.60,287.18,300821,,,A*47
$GPGGA,152612.000,4308.1584,N,07730.9534,W,1,07,1.34,121.1,M,-34.4,M,,*5E
$GPRMC,152612.250,A,4308.1592,N,07730.9567,W,36.68,288.31,300821,,,A*45
$GPGGA,152612.500,4308.1600,N,07730.9600,W,1,07,1.34,121.1,M,-34.4,M,,*50
$GPRMC,152612.750,A,4308.1610,N,07730.9632,W,36.16,289.90,300821,,,A*49
$GPGGA,152613.000,4308.1619,N,07730.9663,W,1,07,1.34,121.3,M,-34.4,M,,*5B
$GPRMC,152613.250,A,4308.1628,N,07730.9695,W,35.84,290.65,300821,,,A*41
$GPGGA,152613.500,4308.1637,N,07730.9727,W,1,07,1.34,121.4,M,-34.4,M,,*54
$GPRMC,152613.750,A,4308.1646,N,07730.9758,W,35.61,290.46,300821,,,A*46
$GPGGA,152614.000,4308.1654,N,07730.9790,W,1,07,1.34,121.4,M,-34.4,M,,*5F
$GPRMC,152614.250,A,4308.1663,N,07730.9821,W,35.16,290.39,300821,,,A*4A
$GPGGA,152614.500,4308.1672,N,07730.9852,W,1,07,1.34,121.4,M,-34.4,M,,*5F
$GPRMC,152614.750,A,4308.1681,N,07730.9883,W,35.03,291.07,300821,,,A*43
$GPGGA,152615.000,4308.1691,N,07730.9914,W,1,07,1.34,121.5,M,-34.4,M,,*54
$GPRMC,152615.250,A,4308.1700,N,07730.9944,W,35.00,291.54,300821,,,A*40
$GPGGA,152615.500,4308.1710,N,07730.9975,W,1,07,1.34,121.5,M,-34.4,M,,*5E
$GPRMC,152615.750,A,4308.1720,N,07731.0006,W,35.03,292.12,300821,,,A*42
$GPGGA,152616.000,4308.1730,N,07731.0037,W,1,07,1.34,121.5,M,-34.4,M,,*5D
$GPRMC,152616.250,A,4308.1739,N,07731.0067,W,35.08,292.23,300821,,,A*42
$GPGGA,152616.500,4308.1748,N,07731.0097,W,1,07,1.34,121.5,M,-34.4,M,,*5D
$GPRMC,152616.750,A,4308.1758,N,07731.0128,W,35.04,292.06,300821,,,A*41
$GPGGA,152617.000,4308.1768,N,07731.0159,W,1,07,1.34,121.4,M,-34.4,M,,*59
$GPRMC,152617.250,A,4308.1777,N,07731.0190,W,35.21,292.42,300821,,,A*4C
$GPGGA,152617.500,4308.1786,N,07731.0221,W,1,07,1.34,121.4,M,-34.4,M,,*50
$GPRMC,152617.750,A,4308.1795,N,07731.0251,W,34.90,292.03,300821,,,A*45
$GPGGA,152618.000,4308.1804,N,07731.0282,W,1,07,1.34,121.3,M,-34.4,M,,*51
$GPRMC,152618.250,A,4308.1813,N,07731.0312,W,34.56,291.89,300821,,,A*43
$GPGGA,152618.500,4308.1822,N,07731.0342,W,1,07,1.28,121.3,M,-34.4,M,,*50
$GPRMC,152618.750,A,4308.1830,N,07731.0373,W,34.52,291.40,300821,,,A*41
$GPGGA,152619.000,4308.1839,N,07731.0403,W,1,07,1.34,121.2,M,-34.4,M,,*50
$GPRMC,152619.250,A,4308.1847,N,07731.0433,W,34.25,291.46,300821,,,A*40
$GPGGA,152619.500,4308.1856,N,07731.0463,W,1,07,1.34,121.2,M,-34.4,M,,*5A
$GPRMC,152619.750,A,4308.1864,N,07731.0492,W,34.11,291.07,300821,,,A*4D
$GPGGA,152620.000,4308.1873,N,07731.0522,W,1,07,1.34,121.1,M,-34.4,M,,*55
$GPRMC,152620.250,A,4308.1881,N,07731.0552,W,34.00,291.30,300821,,,A*40
$GPGGA,152620.500,4308.1890,N,07731.0581,W,1,07,1.28,121.1,M,-34.4,M,,*59
$GPRMC,152620.750,A,4308.1899,N,07731.0610,W,33.68,292.24,300821,,,A*46
$GPGGA,152621.000,4308.1908,N,07731.0639,W,1,07,1.34,121.1,M,-34.4,M,,*50
$GPRMC,152621.250,A,4308.1917,N,07731.0668,W,33.42,292.52,300821,,,A*43
$GPGGA,152621.500,4308.1926,N,07731.0697,W,1,07,1.28,121.0,M,-34.4,M,,*51
$GPRMC,152621.750,A,4308.1934,N,07731.0724,W,33.21,292.37,300821,,,A*48
$GPGGA,152622.000,4308.1943,N,07731.0752,W,1,07,1.34,120.9,M,-34.4,M,,*59
$GPRMC,152622.250,A,4308.1952,N,07731.0780,W,32.96,292.46,300821,,,A*4B
$GPGGA,152622.500,4308.1961,N,07731.0808,W,1,07,1.28,120.9,M,-34.4,M,,*51
$GPRMC,152622.750,A,4308.1970,N,07731.0836,W,32.22,292.33,300821,,,A*41
$GPGGA,152623.000,4308.1979,N,07731.0863,W,1,07,1.34,120.9,M,-34.4,M,,*5C
$GPRMC,152623.250,A,4308.1988,N,07731.0891,W,31.95,292.03,300821,,,A*43
$GPGGA,152623.500,4308.1996,N,07731.0919,W,1,07,1.34,121.0,M,-34.4,M,,*5C
$GPRMC,152623.750,A,4308.2006,N,07731.0946,W,31.75,292.39,300821,,,A*46
$GPGGA,152624.000,4308.2015,N,07731.0974,W,1,07,1.34,121.0,M,-34.4,M,,*54
$GPRMC,152624.250,A,4308.2024,N,07731.1001,W,31.67,292.57,300821,,,A*44
$GPGGA,152624.500,4308.2033,N,07731.1029,W,1,07,1.34,121.0,M,-34.4,M,,*55
$GPRMC,152624.750,A,4308.2041,N,07731.1057,W,31.59,292.15,300821,,,A*4A
$GPGGA,152625.000,4308.2049,N,07731.1085,W,1,07,1.34,121.1,M,-34.4,M,,*5B
$GPRMC,152625.250,A,4308.2058,N,07731.1112,W,31.37,291.81,300821,,,A*40
$GPGGA,152625.500,4308.2066,N,07731.1141,W,1,07,1.34,121.1,M,-34.4,M,,*5A
$GPRMC,152625.750,A,4308.2075,N,07731.1170,W,31.41,291.64,300821,,,A*44
$GPGGA,152626.000,4308.2084,N,07731.1198,W,1,07,1.34,121.2,M,-34.4,M,,*57
$GPRMC,152626.250,A,4308.2093,N,07731.1227,W,31.90,292.17,300821,,,A*40
$GPGGA,152626.500,4308.2102,N,07731.1256,W,1,07,1.34,121.3,M,-34.4,M,,*5D
$GPRMC,152626.750,A,4308.2111,N,07731.1285,W,31.98,291.74,300821,,,A*48
$GPGGA,152627.000,4308.2119,N,07731.1314,W,1,07,1.34,121.4,M,-34.4,M,,*53
$GPRMC,152627.250,A,4308.2128,N,07731.1343,W,32.21,292.07,300821,,,A*4B
$GPGGA,152627.500,4308.2137,N,07731.1371,W,1,07,1.28,121.5,M,-34.4,M,,*55
$GPRMC,152627.750,A,4308.2145,N,07731.1400,W,32.18,291.93,300821,,,A*41
$GPGGA,152628.000,4308.2154,N,07731.1429,W,1,07,1.34,121.6,M,-34.4,M,,*5E
$GPRMC,152628.250,A,4308.2163,N,07731.1458,W,32.19,292.09,300821,,,A*43
$GPGGA,152628.500,4308.2172,N,07731.1488,W,1,07,1.34,121.6,M,-34.4,M,,*54
$GPRMC,152628.750,A,4308.2180,N,07731.1517,W,32.18,292.09,300821,,,A*40
$GPGGA,152629.000,4308.2189,N,07731.1545,W,1,07,1.34,121.6,M,-34.4,M,,*54
$GPRMC,152629.250,A,4308.2198,N,07731.1575,W,32.40,292.75,300821,,,A*4F
$GPGGA,152629.500,4308.2207,N,07731.1604,W,1,07,1.34,121.7,M,-34.4,M,,*53
$GPRMC,152629.750,A,4308.2216,N,07731.1632,W,32.90,292.68,300821,,,A*4E
$GPGGA,152630.000,4308.2225,N,07731.1660,W,1,07,1.34,121.7,M,-34.4,M,,*5C
$GPRMC,152630.250,A,4308.2235,N,07731.1689,W,33.24,292.63,300821,,,A*47
$GPGGA,152630.500,4308.2244,N,07731.1718,W,1,07,1.34,121.7,M,-34.4,M,,*50
$GPRMC,152630.750,A,4308.2253,N,07731.1748,W,33.61,292.61,300821,,,A*4D
$GPGGA,152631.000,4308.2262,N,07731.1777,W,1,07,1.34,121.7,M,-34.4,M,,*59
$GPRMC,152631.250,A,4308.2271,N,07731.1807,W,33.82,291.93,300821,,,A*4E
$GPGGA,152631.500,4308.2280,N,07731.1837,W,1,07,1.34,121.6,M,-34.4,M,,*5A
$GPRMC,152631.750,A,4308.2289,N,07731.1867,W,33.92,291.73,300821,,,A*45
$GPGGA,152632.000,4308.2298,N,07731.1897,W,1,07,1.34,121.7,M,-34.4,M,,*5E
$GPRMC,152632.250,A,4308.2307,N,07731.1927,W,34.00,291.62,300821,,,A*4D
$GPGGA,152632.500,4308.2316,N,07731.1957,W,1,07,1.34,121.6,M,-34.4,M,,*50
$GPRMC,152632.750,A,4308.2325,N,07731.1988,W,34.23,291.87,300821,,,A*47
$GPGGA,152633.000,4308.2334,N,07731.2017,W,1,07,1.28,121.6,M,-34.4,M,,*57
$GPRMC,152633.250,A,4308.2343,N,07731.2048,W,34.32,291.68,300821,,,A*44
$GPGGA,152633.500,4308.2352,N,07731.2076,W,1,07,1.34,121.6,M,-34.4,M,,*58
$GPRMC,152633.750,A,4308.2361,N,07731.2104,W,34.09,292.20,300821,,,A*4F
$GPGGA,152634.000,4308.2370,N,07731.2132,W,1,07,1.34,121.7,M,-34.4,M,,*5A
$GPRMC,152634.250,A,4308.2379,N,07731.2161,W,33.83,292.05,300821,,,A*45
$GPGGA,152634.500,4308.2387,N,07731.2188,W,1,07,1.34,122.0,M,-34.4,M,,*52
$GPRMC,152634.750,A,4308.2396,N,07731.2216,W,34.09,290.97,300821,,,A*4E
$GPGGA,152635.000,4308.2405,N,07731.2245,W,1,07,1.34,122.3,M,-34.4,M,,*5A
