Vers 81
USE_SERIAL_FEEDBACK=true
DEVELOPMENT_MODE=false
USE_RMC_ONLY=false

$GPRMC,222221.750,A,4308.2807,N,07726.2739,W,0.52,119.54,260821,,,A*74
$GPGGA,222222.000,4308.2805,N,07726.2739,W,1,03,5.43,184.4,M,-34.4,M,,*53
$GPRMC,222222.250,A,4308.2804,N,07726.2739,W,0.44,115.23,260821,,,A*7A
$GPGGA,222222.500,4308.2802,N,07726.2739,W,1,03,5.43,184.4,M,-34.4,M,,*51
$GPRMC,222222.750,A,4308.2802,N,07726.2738,W,0.44,118.94,260821,,,A*79
$GPGGA,222223.000,4308.2802,N,07726.2737,W,1,03,5.43,184.4,M,-34.4,M,,*5B
$GPRMC,222223.250,A,4308.2802,N,07726.2736,W,0.52,108.42,260821,,,A*7E
$GPGGA,222223.500,4308.2803,N,07726.2735,W,1,03,5.43,184.4,M,-34.4,M,,*5D
$GPRMC,222223.750,A,4308.2805,N,07726.2733,W,0.62,92.96,260821,,,A*41
$GPGGA,222224.000,4308.2806,N,07726.2732,W,1,03,5.43,184.4,M,-34.4,M,,*5D
$GPRMC,222224.250,A,4308.2806,N,07726.2731,W,0.67,87.38,260821,,,A*47
$GPGGA,222224.500,4308.2805,N,07726.2731,W,1,03,5.43,184.4,M,-34.4,M,,*58
$GPRMC,222224.750,A,4308.2805,N,07726.2731,W,0.57,90.79,260821,,,A*41
$GPGGA,222225.000,4308.2804,N,07726.2730,W,1,03,5.43,184.4,M,-34.4,M,,*5C
$GPRMC,222225.250,A,4308.2803,N,07726.2729,W,0.55,91.31,260821,,,A*45
$GPGGA,222225.500,4308.2803,N,07726.2729,W,1,03,5.43,184.4,M,-34.4,M,,*56
$GPRMC,222225.750,A,4308.2802,N,07726.2729,W,0.42,92.26,260821,,,A*42
$GPGGA,222226.000,4308.2801,N,07726.2729,W,1,03,5.43,184.4,M,-34.4,M,,*52
$GPGGA,222226.500,4308.2800,N,07726.2729,W,1,03,5.44,184.4,M,-34.4,M,,*51
$GPRMC,222226.500,A,4308.2800,N,07726.2729,W,0.32,87.61,260821,,A*44
$GPGGA,222226.750,4308.2801,N,07726.2728,W,1,03,5.44,184.4,M,-34.4,M,,*56
$GPRMC,222226.750,A,4308.2801,N,07726.2728,W,0.38,82.57,260821,$GPGGA,222227.000,4308.2800,N,07726.2727,W,1,03,5.44,184.4,M,-34.4,M,,*5B
$GPRMC,222227.250,A,4308.2800,N,07726.2726,W,0.37,90.30,260821,,,A*4F
$GPGGA,222227.500,4308.2798,N,07726.2726,W,1,03,5.44,184.4,M,-34.4,M,,*51
$GPRMC,222227.750,A,4308.2797,N,07726.2725,W,0.41,111.15,260821,,,A*76
$GPGGA,222228.000,4308.2796,N,07726.2724,W,1,03,5.44,184.4,M,-34.4,M,,*57
$GPRMC,222228.250,A,4308.2796,N,07726.2724,W,0.45,131.45,260821,,,A*7F
$GPGGA,222228.500,4308.2796,N,07726.2724,W,1,03,5.44,184.4,M,-34.4,M,,*52
$GPRMC,222228.750,A,4308.2796,N,07726.2723,W,0.45,146.88,260821,,,A*7C
$GPGGA,222229.000,4308.2795,N,07726.2723,W,1,03,5.44,184.4,M,-34.4,M,,*52
$GPRMC,222229.250,A,4308.2795,N,07726.2722,W,0.46,154.23,260821,,,A*7B
$GPGGA,222229.500,4308.2794,N,07726.2722,W,1,03,5.44,184.4,M,-34.4,M,,*57
$GPRMC,222229.750,A,4308.2795,N,07726.2721,W,0.44,153.07,260821,,,A*7E
$GPGGA,222230.000,4308.2795,N,07726.2720,W,1,03,5.44,184.4,M,-34.4,M,,*59
$GPRMC,222230.250,A,4308.2794,N,07726.2719,W,0.43,149.98,260821,,,A*73
$GPGGA,222230.500,4308.2793,N,07726.2719,W,1,03,5.44,184.4,M,-34.4,M,,*50
$GPRMC,222230.750,A,4308.2793,N,07726.2719,W,0.43,154.24,260821,,,A*7A
$GPGGA,222231.000,4308.2793,N,07726.2718,W,1,03,5.44,184.4,M,-34.4,M,,*55
$GPRMC,222231.250,A,4308.2793,N,07726.2717,W,0.41,138.69,260821,,,A*71
$GPGGA,222231.500,4308.2792,N,07726.2716,W,1,03,5.44,184.4,M,-34.4,M,,*5F
$GPRMC,222231.750,A,4308.2791,N,07726.2715,W,0.40,138.62,260821,,,A*7E
$GPGGA,222232.000,4308.2791,N,07726.2715,W,1,03,5.44,184.4,M,-34.4,M,,*59
$GPGGA,222232.500,4308.2793,N,07726.2712,W,1,03,5.45,184.4,M,-34.4,M,,*58
$GPRMC,222232.500,A,4308.2793,N,07726.2712,W,0.34,125.30,260821,,A*77
$GPGGA,222232.750,4308.2793,N,07726.2711,W,1,03,5.45,184.4,M,-34.4,M,,*5C
$GPRMC,222232.750,A,4308.2793,N,07726.2711,W,0.35,119.83,260821,,A*75
$GPGGA,222233.000,4308.2793,N,07726.2711,W,1,03,5.45,184.4,M,-34.4,M,,*5F
$GPRMC,222233.000,A,4308.2793,N,07726.2711,W,0.35,120.82,260821,,A*7D
$GPGGA,222233.250,4308.2793,N,07726.2710,W,1,03,5.45,184.4,M,-34.4,M,,*59
$GPRMC,222233.250,A,4308.2793,N,07726.2710,W,0.35,120.03,260821,,A*72
$GPGGA,222233.500,4308.2793,N,07726.2709,W,1,03,5.45,184.4,M,-34.4,M,,*53
$GPRMC,222233.500,A,4308.2793,N,07726.2709,W,0.37,110.96,260821,,A*75
$GPGGA,222233.750,4308.2793,N,07726.2708,W,1,03,5.45,184.4,M,-34.4,M,,*55
$GPRMC,222233.750,A,4308.2793,N,07726.2708,W,0.36,111.85,260821,,A*71
$GPGGA,222234.000,4308.2792,N,07726.2709,W,1,03,5.45,184.4,M,-34.4,M,,*50
$GPRMC,222234.000,A,4308.2792,N,07726.2709,W,0.33,118.13,260821$GPGGA,222234.250,4308.2792,N,07726.2708,W,1,03,5.45,184.4,M,-34.4,M,,*56
$GPRMC,222234.500,A,4308.2791,N,07726.2709,W,0.29,126.16,260821,,,A*72
$GPGGA,222234.750,4308.2791,N,07726.2709,W,1,03,5.45,184.4,M,-34.4,M,,*51
$GPRMC,222235.000,A,4308.2791,N,07726.2709,W,0.24,126.35,260821,,,A*7A
$GPGGA,222235.250,4308.2791,N,07726.2708,W,1,03,5.45,184.4,M,-34.4,M,,*54
$GPRMC,222235.500,A,4308.2790,N,07726.2709,W,0.27,122.49,260821,,,A*72
$GPGGA,222235.750,4308.2790,N,07726.2709,W,1,03,5.45,184.4,M,-34.4,M,,*51
$GPRMC,222236.000,A,4308.2789,N,07726.2709,W,0.26,123.66,260821,,,A*71
$GPGGA,222236.250,4308.2789,N,07726.2709,W,1,03,5.46,184.4,M,-34.4,M,,*5C
$GPRMC,222236.500,A,4308.2788,N,07726.2710,W,0.24,138.86,260821,,,A*7B
$GPGGA,222236.750,4308.2787,N,07726.2710,W,1,03,5.45,184.4,M,-34.4,M,,*5C
$GPRMC,222237.000,A,4308.2786,N,07726.2710,W,0.24,148.86,260821,,,A*76
$GPGGA,222237.250,4308.2786,N,07726.2710,W,1,03,5.46,184.4,M,-34.4,M,,*5A
$GPRMC,222237.500,A,4308.2785,N,07726.2710,W,0.28,143.09,260821,,,A*70
$GPGGA,222237.750,4308.2784,N,07726.2710,W,1,03,5.45,184.4,M,-34.4,M,,*5E
$GPRMC,222238.000,A,4308.2783,N,07726.2710,W,0.30,147.68,260821,,,A*76
$GPGGA,222238.083,4308.2782,N,07726.2711,W,1,03,5.46,184.4,M,-3.4,M,,*5C
$GPRMC,222238.500,A,4308.2781,N,07726.2711,W,0.34,158.89,260821,,,A*75
$GPGGA,222238.750,4308.2780,N,07726.2712,W,1,03,5.46,184.4,M,-34.4,M,,*54
$GPRMC,222239.000,A,4308.2779,N,07726.2712,W,0.35,165.80,260821,,,A*73
$GPGGA,222239.250,4308.2779,N,07726.2713,W,1,03,5.46,184.4,M,-34.4,M,,*57
$GPRMC,222239.500,A,4308.2778,N,07726.2713,W,0.37,167.81,260821,,,A*77
$GPGGA,222239.750,4308.2778,N,07726.2712,W,1,03,5.46,184.4,M,-34.4,M,,*52
$GPRMC,222240.000,A,4308.2777,N,07726.2712,W,0.40,162.28,260821,,,A*74
$GPGGA,222240.250,4308.2777,N,07726.2712,W,1,03,5.46,184.4,M,-34.4,M,,*56
$GPRMC,222240.500,A,4308.2776,N,07726.2713,W,0.44,175.63,260821,,,A*7C
$GPGGA,222240.750,4308.2777,N,07726.2713,W,1,03,5.46,184.4,M,-34.4,M,,*52
$GPRMC,222241.000,A,4308.2778,N,07726.2712,W,0.40,169.57,260821,,,A*79
$GPGGA,222241.250,4308.2780,N,07726.2712,W,1,03,5.47,184.4,M,-34.4,M,,*5E
$GPRMC,222241.500,A,4308.2782,N,07726.2711,W,0.33,156.75,260821,,,A*72
$GPGGA,222241.750,4308.2784,N,07726.2711,W,1,03,5.46,184.4,M,-34.4,M,,*5D
$GPRMC,222242.000,A,4308.2785,N,07726.2712,W,0.27,169.31,260821,,,A*79
$GPGGA,222242.250,4308.2787,N,07726.2712,W,1,03,5.46,184.4,M,-34.4,M,,*5B
$GPRMC,222242.500,A,4308.2788,N,07726.2713,W,0.24,179.31,260821,,,A*72
$GPGGA,222242.750,4308.2789,N,07726.2713,W,1,03,5.47,184.4,M,-34.4,M,,*50
$GPRMC,222243.000,A,4308.2791,N,07726.2713,W,0.25,178.55,260821,,,A*7C
$GPGGA,222243.250,4308.2793,N,07726.2713,W,1,03,5.47,184.4,M,-34.4,M,,*5F
$GPRMC,222243.500,A,4308.2794,N,07726.2713,W,0.21,182.84,260821,,,A*71
$GPGGA,222243.750,4308.2796,N,07726.2714,W,1,03,5.47,184.4,M,-34.4,M,,*58
$GPRMC,222244.000,A,4308.2798,N,07726.2715,W,0.15,211.53,260821,,,A*7D
$GPGGA,222244.083,4308.2800,N,07726.2715,W,1,03,5.47,184.4,M,-3.4,M,,*57
$GPRMC,222244.500,A,4308.2803,N,07726.2715,W,0.05,202.79,260821,,,A*7E
$GPGGA,222244.750,4308.2803,N,07726.2715,W,1,03,5.47,184.4,M,-34.4,M,,*5D
$GPRMC,222245.000,A,4308.2803,N,07726.2716,W,0.12,189.86,260821,,,A*7F
$GPGGA,222245.250,4308.2803,N,07726.2716,W,1,03,5.47,184.4,M,-34.4,M,,*5A
$GPRMC,222245.500,A,4308.2803,N,07726.2716,W,0.15,170.17,260821,,,A*73
$GPGGA,222245.750,4308.2804,N,07726.2716,W,1,03,5.47,184.4,M,-34.4,M,,*58
$GPRMC,222246.000,A,4308.2805,N,07726.2716,W,0.17,164.36,260821,,,A*77
$GPGGA,222246.250,4308.2806,N,07726.2716,W,1,03,5.47,184.4,M,-34.4,M,,*5C
$GPRMC,222246.500,A,4308.2807,N,07726.2716,W,0.23,133.87,260821,,,A*7F
$GPGGA,222246.750,4308.2809,N,07726.2715,W,1,03,5.47,184.4,M,-34.4,M,,*55
$GPRMC,222247.000,A,4308.2810,N,07726.2716,W,0.25,124.25,260821,,,A*75
$GPGGA,222247.250,4308.2811,N,07726.2716,W,1,03,5.47,184.4,M,-34.4,M,,*5B
$GPRMC,222247.500,A,4308.2811,N,07726.2717,W,0.25,129.68,260821,,,A*74
$GPGGA,222247.750,4308.2813,N,07726.2716,W,1,03,5.47,184.4,M,-34.4,M,,*5C
$GPRMC,222248.000,A,4308.2815,N,07726.2716,W,0.28,115.06,260821,,,A*71
$GPGGA,222248.250,4308.2816,N,07726.2716,W,1,03,5.48,184.4,M,-34.4,M,,*5C
$GPRMC,222248.500,A,4308.2817,N,07726.2716,W,0.27,108.38,260821,,,A*78
$GPGGA,222248.750,4308.2819,N,07726.2716,W,1,03,5.48,184.4,M,-34.4,M,,*56
$GPRMC,222249.000,A,4308.2820,N,07726.2716,W,0.33,96.67,260821,,,A*41
$GPGGA,222249.250,4308.2822,N,07726.2716,W,1,03,5.48,184.4,M,-34.4,M,,*5A
$GPRMC,222249.500,A,4308.2822,N,07726.2717,W,0.31,103.95,260821,,,A*75
$GPGGA,222249.750,4308.2823,N,07726.2718,W,1,03,5.48,184.4,M,-34.4,M,,*50
$GPRMC,222250.000,A,4308.2823,N,07726.2719,W,0.25,123.14,260821,,,A*79
$GPGGA,222250.094,4308.2824,N,07726.2720,W,1,03,5.48,184.4,M,-34,M,,*5B
$GPRMC,222250.500,A,4308.2825,N,07726.2721,W,0.20,132.59,260821,,,A*7D
$GPGGA,222250.750,4308.2827,N,07726.2722,W,1,03,5.48,184.4,M,-34.4,M,,*55
$GPRMC,222251.000,A,4308.2828,N,07726.2723,W,0.17,131.73,260821,,,A*79
$GPGGA,222251.250,4308.2829,N,07726.2723,W,1,03,5.48,184.4,M,-34.4,M,,*5E
$GPRMC,222251.500,A,4308.2830,N,07726.2724,W,0.14,136.16,260821,,,A*75
$GPGGA,222251.750,4308.2833,N,07726.2725,W,1,03,5.48,184.4,M,-34.4,M,,*56
$GPRMC,222252.000,A,4308.2834,N,07726.2726,W,0.08,158.58,260821,,,A*7A
$GPGGA,222252.250,4308.2836,N,07726.2727,W,1,03,5.48,184.4,M,-34.4,M,,*57
$GPRMC,222252.500,A,4308.2838,N,07726.2727,W,0.07,117.07,260821,,,A*7C
$GPGGA,222252.750,4308.2841,N,07726.2727,W,1,03,5.48,184.4,M,-34.4,M,,*52
$GPRMC,222253.000,A,4308.2842,N,07726.2727,W,0.09,91.72,260821,,,A*46
$GPGGA,222253.250,4308.2846,N,07726.2727,W,1,03,5.48,184.4,M,-34.4,M,,*51
$GPRMC,222253.500,A,4308.2848,N,07726.2727,W,0.10,64.17,260821,,,A*48
$GPGGA,222253.750,4308.2848,N,07726.2727,W,1,03,5.49,184.4,M,-34.4,M,,*5B
$GPRMC,222254.000,A,4308.2848,N,07726.2727,W,0.04,37.55,260821,,,A*4F
$GPGGA,222254.250,4308.2848,N,07726.2727,W,1,03,5.49,184.4,M,-34.4,M,,*59
$GPRMC,222254.500,A,4308.2848,N,07726.2727,W,0.11,18.92,260821,,,A*48
$GPGGA,222254.750,4308.2848,N,07726.2727,W,1,03,5.48,184.4,M,-34.4,M,,*5D
$GPRMC,222255.000,A,4308.2849,N,07726.2727,W,0.09,347.53,260821,,,A*70
$GPGGA,222255.250,4308.2849,N,07726.2727,W,1,03,69.73,184.4,M,-34.4,M,,*6A
$GPRMC,222255.500,A,4308.2849,N,07726.2727,W,0.08,333.88,260821,,,A*71
$GPGGA,222255.750,4308.2849,N,07726.2728,W,1,03,5.49,184.4,M,-34.4,M,,*53
$GPRMC,222256.000,A,4308.2850,N,07726.2727,W,0.06,19.85,260821,,,A*47
$GPGGA,222256.094,4308.2851,N,07726.2727,W,1,03,5.49,184.4,M,-3.4,M,,*59
$GPRMC,222256.500,A,4308.2853,N,07726.2726,W,0.14,36.50,260821,,,A*46
$GPGGA,222256.750,4308.2853,N,07726.2726,W,1,03,5.49,184.4,M,-34.4,M,,*55
$GPRMC,222257.000,A,4308.2853,N,07726.2726,W,0.08,354.49,260821,,,A*70
$GPGGA,222257.250,4308.2853,N,07726.2726,W,1,03,69.77,184.4,M,-34.4,M,,*66
$GPRMC,222257.500,A,4308.2853,N,07726.2726,W,0.17,31.07,260821,,,A*41
$GPGGA,222257.750,4308.2854,N,07726.2726,W,1,03,5.50,184.4,M,-34.4,M,,*5B
$GPRMC,222258.000,A,4308.2856,N,07726.2727,W,0.16,10.75,260821,,,A*48
$GPGGA,222258.250,4308.2859,N,07726.2728,W,1,03,69.79,184.4,M,-34.4,M,,*63
$GPRMC,222258.500,A,4308.2861,N,07726.2729,W,0.21,357.29,260821,,,A*7A
$GPGGA,222258.750,4308.2863,N,07726.2730,W,1,03,69.80,184.4,M,-34.4,M,,*60
$GPRMC,222259.000,A,4308.2864,N,07726.2730,W,0.23,337.63,260821,,,A*79
$GPGGA,222259.250,4308.2864,N,07726.2730,W,1,03,5.50,184.4,M,-34.4,M,,*54
$GPRMC,222259.500,A,4308.2866,N,07726.2731,W,0.27,333.89,260821,,,A*7B
$GPGGA,222259.750,4308.2867,N,07726.2731,W,1,03,5.49,184.4,M,-34.4,M,,*5B
$GPRMC,222300.000,A,4308.2868,N,07726.2732,W,0.20,332.04,260821,,,A*7D
$GPGGA,222300.250,4308.2870,N,07726.2731,W,1,03,5.50,184.4,M,-34.4,M,,*5D
$GPRMC,222300.500,A,4308.2870,N,07726.2732,W,0.22,343.75,260821,,,A*73
$GPGGA,222300.750,4308.2870,N,07726.2732,W,1,03,5.50,184.4,M,-34.4,M,,*5B
$GPRMC,222301.000,A,4308.2870,N,07726.2732,W,0.34,345.64,260821,,,A*76
$GPGGA,222301.250,4308.2870,N,07726.2732,W,1,03,69.86,184.4,M,-34.4,M,,*6E
$GPRMC,222301.500,A,4308.2871,N,07726.2732,W,0.39,350.37,260821,,,A*7D
$GPGGA,222301.750,4308.2871,N,07726.2732,W,1,03,69.87,184.4,M,-34.4,M,,*6B
$GPRMC,222302.000,A,4308.2871,N,07726.2732,W,0.38,351.29,260821,,,A*74
$GPGGA,222302.090,4308.2872,N,07726.2732,W,1,03,69.88,184.4,M,-0,A,4308.2872,N,07726.2732,W,0.41,354.24,260821,,,A*78
$GPGGA,222302.500,4308.2872,N,07726.2732,W,1,03,69.89,184.4,M,-34.4,M,,*62
$GPRMC,222302.500,A,4308.2872,N,07726.2732,W,0.46,352.16,260821,,A*74
$GPGGA,222302.750,4308.2872,N,07726.2732,W,1,03,69.89,184.4,M,-34.4,M,,*65
$GPRMC,222302.750,A,4308.2872,N,07726.2732,W,0.50,356.19,260821,,A*7F
$GPGGA,222303.000,4308.2873,N,07726.2732,W,1,03,69.90,184.4,M,-34.4,M,,*6F
$GPRMC,222303.000,A,4308.2873,N,07726.2732,W,0.55,354.94,260821,,A*7F
$GPGGA,222303.250,4308.2873,N,07726.2732,W,1,03,69.90,184.4,M,-34.4,M,,*68
$GPRMC,222303.250,A,4308.2873,N,07726.2732,W,0.62,354.68,260821,,A*7F
$GPGGA,222303.500,4308.2877,N,07726.2733,W,1,03,69.91,184.4,M,-34.4,M,,*6E
$GPRMC,222303.500,A,4308.2877,N,07726.2733,W,0.69,350.49,260821,,A*74
$GPGGA,222303.750,4308.2882,N,07726.2733,W,1,03,69.91,184.4,M,-34.4,M,,*63
$GPRMC,222303.750,A,4308.2882,N,07726.2733,W,0.80,354.53,260821,,A*71
$GPGGA,222304.000,4308.2887,N,07726.2732,W,1,03,69.92,184.4,M,-34.4,M,,*61
$GPRMC,222304.000,A,4308.2887,N,07726.2732,W,0.88,357.43,260821$GPGGA,222304.250,4308.2890,N,07726.2732,W,1,03,69.92,184.4,M,-34.4,M,,*60
$GPRMC,222304.500,A,4308.2892,N,07726.2732,W,0.89,359.66,260821,,,A*73
$GPGGA,222304.750,4308.2894,N,07726.2732,W,1,03,69.94,184.4,M,-34.4,M,,*67
$GPRMC,222305.000,A,4308.2895,N,07726.2733,W,0.84,1.12,260821,,,A*71
$GPGGA,222305.250,4308.2898,N,07726.2733,W,1,03,69.95,184.4,M,-34.4,M,,*6F
$GPRMC,222305.500,A,4308.2899,N,07726.2733,W,0.83,0.96,260821,,,A*72
$GPGGA,222305.750,4308.2900,N,07726.2734,W,1,03,69.96,184.4,M,-34.4,M,,*6E
$GPRMC,222306.000,A,4308.2901,N,07726.2734,W,0.77,357.00,260821,,,A*76
$GPGGA,222306.250,4308.2903,N,07726.2734,W,1,03,69.97,184.4,M,-34.4,M,,*6A
$GPRMC,222306.500,A,4308.2904,N,07726.2735,W,0.77,359.19,260821,,,A*71
$GPGGA,222306.750,4308.2905,N,07726.2734,W,1,03,69.98,184.4,M,-34.4,M,,*66
$GPRMC,222307.000,A,4308.2906,N,07726.2734,W,0.74,7.26,260821,,,A*71
$GPGGA,222307.250,4308.2907,N,07726.2734,W,1,03,69.99,184.4,M,-34.4,M,,*61
$GPRMC,222307.500,A,4308.2908,N,07726.2734,W,0.74,5.30,260821,,,A*7F
$GPGGA,222307.750,4308.2910,N,07726.2734,W,1,03,70.00,184.4,M,-34.4,M,,*6A
$GPRMC,222308.000,A,4308.2912,N,07726.2734,W,0.79,7.92,260821,,,A*79
$GPGGA,222308.089,4308.2914,N,07726.2733,W,1,03,70.01,184.5,M,-4.4,M,,*65
$GPRMC,222308.500,A,4308.2916,N,07726.2733,W,0.81,12.58,260821,,,A*4A
$GPGGA,222308.750,4308.2918,N,07726.2733,W,1,03,70.02,184.5,M,-34.4,M,,*69
$GPRMC,222309.000,A,4308.2919,N,07726.2733,W,0.82,8.38,260821,,,A*7F
$GPGGA,222309.250,4308.2920,N,07726.2733,W,1,03,70.03,184.5,M,-34.4,M,,*67
$GPRMC,222309.500,A,4308.2921,N,07726.2733,W,0.81,4.84,260821,,,A*79
$GPGGA,222309.750,4308.2923,N,07726.2733,W,1,03,70.04,184.5,M,-34.4,M,,*66
$GPRMC,222310.000,A,4308.2925,N,07726.2733,W,0.86,4.75,260821,,,A*79
$GPGGA,222310.250,4308.2927,N,07726.2732,W,1,03,70.06,184.5,M,-34.4,M,,*6C
$GPRMC,222310.500,A,4308.2928,N,07726.2731,W,0.91,8.88,260821,,,A*7B
$GPGGA,222310.750,4308.2929,N,07726.2731,W,1,03,70.07,184.4,M,-34.4,M,,*64
$GPRMC,222311.000,A,4308.2928,N,07726.2732,W,0.82,7.72,260821,,,A*74
$GPGGA,222311.250,4308.2929,N,07726.2732,W,1,03,70.08,184.4,M,-34.4,M,,*6C
$GPRMC,222311.500,A,4308.2929,N,07726.2732,W,0.77,3.72,260821,,,A*7E
$GPGGA,222311.750,4308.2930,N,07726.2732,W,1,03,70.09,184.4,M,-34.4,M,,*60
$GPRMC,222312.000,A,4308.2931,N,07726.2732,W,0.78,3.73,260821,,,A*7F
$GPGGA,222312.250,4308.2933,N,07726.2732,W,1,03,70.10,184.4,M,-34.4,M,,*6D
$GPRMC,222312.500,A,4308.2934,N,07726.2731,W,0.80,5.08,260821,,,A*71
$GPGGA,222312.750,4308.2935,N,07726.2731,W,1,03,70.11,184.4,M,-34.4,M,,*6C
$GPRMC,222313.000,A,4308.2936,N,07726.2731,W,0.80,4.74,260821,,,A*7D
$GPGGA,222313.250,4308.2936,N,07726.2731,W,1,03,70.12,184.4,M,-34.4,M,,*68
$GPRMC,222313.500,A,4308.2938,N,07726.2730,W,0.80,6.43,260821,,,A*71
$GPGGA,222313.750,4308.2939,N,07726.2729,W,1,03,70.13,184.4,M,-34.4,M,,*6A
$GPRMC,222314.000,A,4308.2940,N,07726.2729,W,0.83,8.32,260821,,,A*7F
$GPGGA,222314.095,4308.2941,N,07726.2729,W,1,03,70.14,184.4,M,-4.4,M,,*6B
$GPRMC,222314.500,A,4308.2943,N,07726.2729,W,0.82,5.50,260821,,,A*71
$GPGGA,222314.750,4308.2944,N,07726.2728,W,1,03,70.15,184.4,M,-34.4,M,,*60
$GPRMC,222315.000,A,4308.2945,N,07726.2727,W,0.84,11.31,260821,,,A*49
$GPGGA,222315.250,4308.2946,N,07726.2727,W,1,03,70.17,184.4,M,-34.4,M,,*6B
$GPRMC,222315.500,A,4308.2947,N,07726.2727,W,0.82,11.31,260821,,,A*48
$GPGGA,222315.750,4308.2947,N,07726.2727,W,1,03,70.18,184.4,M,-34.4,M,,*60
$GPRMC,222316.000,A,4308.2948,N,07726.2727,W,0.79,9.38,260821,,,A*75
$GPGGA,222316.250,4308.2949,N,07726.2727,W,1,03,70.19,184.4,M,-34.4,M,,*69
$GPRMC,222316.500,A,4308.2949,N,07726.2726,W,0.78,8.72,260821,,,A*7E
$GPGGA,222316.750,4308.2949,N,07726.2726,W,1,03,70.20,184.4,M,-34.4,M,,*67
$GPRMC,222317.000,A,4308.2950,N,07726.2725,W,0.76,11.98,260821,,,A*43
$GPGGA,222317.250,4308.2951,N,07726.2723,W,1,03,70.21,184.4,M,-34.4,M,,*6E
$GPRMC,222317.500,A,4308.2953,N,07726.2722,W,0.80,18.27,260821,,,A*46
$GPGGA,222317.750,4308.2954,N,07726.2721,W,1,03,5.53,184.4,M,-34.4,M,,*5B
$GPRMC,222318.000,A,4308.2955,N,07726.2720,W,0.82,21.04,260821,,,A*41
$GPGGA,222318.250,4308.2955,N,07726.2719,W,1,03,5.53,184.4,M,-34.4,M,,*5B
$GPRMC,222318.500,A,4308.2956,N,07726.2719,W,0.81,20.48,260821,,,A*47
$GPGGA,222318.750,4308.2957,N,07726.2718,W,1,03,5.54,184.4,M,-34.4,M,,*5A
$GPRMC,222319.000,A,4308.2956,N,07726.2718,W,0.77,19.73,260821,,,A*49
$GPGGA,222319.250,4308.2957,N,07726.2719,W,1,03,5.53,184.4,M,-34.4,M,,*58
$GPRMC,222319.500,A,4308.2957,N,07726.2718,W,0.77,19.06,260821,,,A*4F
$GPGGA,222319.750,4308.2957,N,07726.2718,W,1,03,5.53,184.4,M,-34.4,M,,*5C
$GPRMC,222320.000,A,4308.2958,N,07726.2717,W,0.73,18.02,260821,,,A*41
$GPGGA,222320.094,4308.2957,N,07726.2717,W,1,03,5.54,184.4,M,-3.4,M,,*51
$GPRMC,222320.500,A,4308.2958,N,07726.2716,W,0.74,19.75,260821,,,A*43
$GPGGA,222320.750,4308.2958,N,07726.2716,W,1,03,5.54,184.3,M,-34.4,M,,*57
$GPRMC,222321.000,A,4308.2958,N,07726.2717,W,0.64,13.98,260821,,,A*4E
$GPGGA,222321.250,4308.2958,N,07726.2716,W,1,03,70.30,184.3,M,-34.4,M,,*63
$GPRMC,222321.500,A,4308.2958,N,07726.2716,W,0.63,17.86,260821,,,A*46
$GPGGA,222321.750,4308.2958,N,07726.2714,W,1,03,5.54,184.3,M,-34.4,M,,*54
$GPRMC,222322.000,A,4308.2958,N,07726.2713,W,0.69,28.41,260821,,,A*48
$GPGGA,222322.250,4308.2959,N,07726.2712,W,1,03,5.55,184.3,M,-34.4,M,,*54
$GPRMC,222322.500,A,4308.2958,N,07726.2713,W,0.63,25.02,260821,,,A*4D
$GPGGA,222322.750,4308.2958,N,07726.2714,W,1,03,5.54,184.3,M,-34.4,M,,*57
$GPRMC,222323.000,A,4308.2958,N,07726.2713,W,0.56,17.52,260821,,,A*4B
$GPGGA,222323.250,4308.2958,N,07726.2713,W,1,03,5.55,184.3,M,-34.4,M,,*55
$GPRMC,222323.500,A,4308.2959,N,07726.2713,W,0.54,16.34,260821,,,A*4C
$GPGGA,222323.750,4308.2959,N,07726.2712,W,1,03,5.54,184.3,M,-34.4,M,,*51
$GPRMC,222324.000,A,4308.2959,N,07726.2712,W,0.52,15.55,260821,,,A*4D
$GPGGA,222324.250,4308.2959,N,07726.2712,W,1,03,5.54,184.3,M,-34.4,M,,*53
$GPRMC,222324.500,A,4308.2959,N,07726.2712,W,0.48,10.37,260821,,,A*42
$GPGGA,222324.750,4308.2959,N,07726.2712,W,1,03,70.37,184.3,M,-34.4,M,,*61
$GPRMC,222325.000,A,4308.2959,N,07726.2712,W,0.42,0.99,260821,,,A*79
$GPGGA,222325.250,4308.2959,N,07726.2712,W,1,03,70.38,184.3,M,-34.4,M,,*6A
$GPRMC,222325.500,A,4308.2959,N,07726.2712,W,0.39,355.07,260821,,,A*74
$GPGGA,222325.750,4308.2959,N,07726.2711,W,1,03,70.40,184.3,M,-34.4,M,,*63
$GPRMC,222326.000,A,4308.2960,N,07726.2711,W,0.39,2.31,260821,,,A*7F
$GPGGA,222326.082,4308.2960,N,07726.2711,W,1,03,70.40,184.3,M,-34.4,M,,*62
$GPRMC,222326.500,A,4308.2960,N,07726.2711,W,0.39,0.43,260821,,,A*7D
$GPGGA,222326.750,4308.2961,N,07726.2711,W,1,03,70.42,184.3,M,-34.4,M,,*69
$GPRMC,222327.000,A,4308.2961,N,07726.2711,W,0.39,2.14,260821,,,A*78
$GPGGA,222327.250,4308.2961,N,07726.2711,W,1,03,70.43,184.3,M,-34.4,M,,*6C
$GPRMC,222327.500,A,4308.2961,N,07726.2711,W,0.39,3.37,260821,,,A*7D
$GPGGA,222327.750,4308.2962,N,07726.2711,W,1,03,70.44,184.3,M,-34.4,M,,*6D
$GPRMC,222328.000,A,4308.2962,N,07726.2711,W,0.40,14.36,260821,,,A*4D
$GPGGA,222328.250,4308.2962,N,07726.2711,W,1,03,70.45,184.3,M,-34.4,M,,*66
$GPRMC,222328.500,A,4308.2963,N,07726.2711,W,0.41,22.35,260821,,,A*4E
$GPGGA,222328.750,4308.2963,N,07726.2710,W,1,03,5.55,184.3,M,-34.4,M,,*50
$GPRMC,222329.000,A,4308.2963,N,07726.2709,W,0.41,24.72,260821,,,A*46
$GPGGA,222329.250,4308.2964,N,07726.2708,W,1,03,5.55,184.3,M,-34.4,M,,*5A
$GPRMC,222329.500,A,4308.2964,N,07726.2708,W,0.37,20.53,260821,,,A*43
$GPGGA,222329.750,4308.2964,N,07726.2708,W,1,03,5.56,184.3,M,-34.4,M,,*5C
$GPRMC,222330.000,A,4308.2964,N,07726.2708,W,0.33,19.62,260821,,,A*42
$GPGGA,222330.250,4308.2964,N,07726.2708,W,1,03,5.55,184.3,M,-34.4,M,,*52
$GPRMC,222330.500,A,4308.2964,N,07726.2708,W,0.31,29.33,260821,,,A*42
$GPGGA,222330.750,4308.2965,N,07726.2708,W,1,03,5.56,184.3,M,-34.4,M,,*55
$GPRMC,222331.000,A,4308.2965,N,07726.2707,W,0.32,36.61,260821,,,A*42
$GPGGA,222331.250,4308.2965,N,07726.2707,W,1,03,5.56,184.3,M,-34.4,M,,*5E
$GPRMC,222331.500,A,4308.2965,N,07726.2707,W,0.28,47.29,260821,,,A*46
$GPGGA,222331.750,4308.2965,N,07726.2707,W,1,03,5.56,184.3,M,-34.4,M,,*5B
$GPRMC,222332.000,A,4308.2965,N,07726.2707,W,0.30,56.68,260821,,,A*4C
$GPGGA,222332.082,4308.2965,N,07726.2706,W,1,03,5.56,184.3,M,-3.4,M,,*51
$GPRMC,222332.500,A,4308.2966,N,07726.2706,W,0.34,48.71,260821,,,A*48
$GPGGA,222332.750,4308.2966,N,07726.2706,W,1,03,5.56,184.3,M,-34.4,M,,*5A
$GPRMC,222333.000,A,4308.2966,N,07726.2706,W,0.30,48.33,260821,,,A*4E
$GPGGA,222333.250,4308.2966,N,07726.2705,W,1,03,5.57,184.3,M,-34.4,M,,*5C
$GPRMC,222333.500,A,4308.2966,N,07726.2705,W,0.28,50.52,260821,,,A*4F
$GPGGA,222333.750,4308.2966,N,07726.2705,W,1,03,5.56,184.3,M,-34.4,M,,*58
$GPRMC,222334.000,A,4308.2966,N,07726.2705,W,0.24,62.41,260821,,,A*42
$GPGGA,222334.250,4308.2966,N,07726.2705,W,1,03,5.56,184.3,M,-34.4,M,,*5A
$GPRMC,222334.500,A,4308.2966,N,07726.2704,W,0.18,78.33,260821,,,A*47
$GPGGA,222334.750,4308.2966,N,07726.2704,W,1,03,5.57,184.3,M,-34.4,M,,*5F
$GPRMC,222335.000,A,4308.2966,N,07726.2704,W,0.19,87.91,260821,,,A*4A
$GPGGA,222335.250,4308.2966,N,07726.2704,W,1,03,5.57,184.3,M,-34.4,M,,*5B
$GPRMC,222335.500,A,4308.2966,N,07726.2704,W,0.14,112.07,260821,,,A*70
$GPGGA,222335.750,4308.2966,N,07726.2703,W,1,03,5.57,184.3,M,-34.4,M,,*59
$GPRMC,222336.000,A,4308.2966,N,07726.2703,W,0.23,174.15,260821,,,A*76
$GPGGA,222336.250,4308.2966,N,07726.2703,W,1,03,5.57,184.3,M,-34.4,M,,*5F
$GPRMC,222336.500,A,4308.2966,N,07726.2703,W,0.30,176.03,260821,,,A*74
$GPGGA,222336.750,4308.2966,N,07726.2703,W,1,03,5.57,184.3,M,-34.4,M,,*5A
$GPRMC,222337.000,A,4308.2965,N,07726.2703,W,0.32,167.48,260821,,,A*7E
$GPGGA,222337.250,4308.2965,N,07726.2703,W,1,03,5.57,184.3,M,-34.4,M,,*5D
$GPRMC,222337.500,A,4308.2965,N,07726.2703,W,0.36,184.04,260821,,,A*7A
$GPGGA,222337.750,4308.2965,N,07726.2703,W,1,03,5.57,184.3,M,-34.4,M,,*58
$GPRMC,222338.000,A,4308.2964,N,07726.2703,W,0.34,189.62,260821,,,A*7E
$GPGGA,222338.082,4308.2964,N,07726.2703,W,1,03,5.57,184.3,M,-3.4,M,,*5E
$GPRMC,222338.500,A,4308.2964,N,07726.2703,W,0.35,195.25,260821,,,A*74
$GPGGA,222338.750,4308.2964,N,07726.2703,W,1,03,5.57,184.3,M,-34.4,M,,*56
$GPRMC,222339.000,A,4308.2963,N,07726.2703,W,0.44,190.65,260821,,,A*70
$GPGGA,222339.250,4308.2963,N,07726.2704,W,1,03,5.57,184.3,M,-34.4,M,,*52
$GPRMC,222339.500,A,4308.2963,N,07726.2704,W,0.48,190.54,260821,,,A*7C
$GPGGA,222339.750,4308.2962,N,07726.2704,W,1,03,5.57,184.3,M,-34.4,M,,*56
$GPRMC,222340.000,A,4308.2962,N,07726.2704,W,0.47,190.25,260821,,,A*7F
$GPGGA,222340.250,4308.2962,N,07726.2704,W,1,03,5.57,184.3,M,-34.4,M,,*5D
$GPRMC,222340.500,A,4308.2961,N,07726.2704,W,0.49,190.49,260821,,,A*7D
$GPGGA,222340.750,4308.2961,N,07726.2704,W,1,03,5.58,184.3,M,-34.4,M,,*54
$GPRMC,222341.000,A,4308.2961,N,07726.2704,W,0.51,193.68,260821,,,A*70
$GPGGA,222341.250,4308.2960,N,07726.2704,W,1,03,5.58,184.3,M,-34.4,M,,*51
$GPRMC,222341.500,A,4308.2960,N,07726.2704,W,0.53,189.86,260821,,,A*7D
$GPGGA,222341.750,4308.2959,N,07726.2704,W,1,03,5.58,184.3,M,-34.4,M,,*5E
$GPRMC,222342.000,A,4308.2958,N,07726.2704,W,0.61,191.53,260821,,,A*70
$GPGGA,222342.250,4308.2957,N,07726.2704,W,1,03,5.58,184.3,M,-34.4,M,,*56
$GPRMC,222342.500,A,4308.2957,N,07726.2703,W,0.57,182.09,260821,,,A*75
$GPGGA,222342.750,4308.2956,N,07726.2703,W,1,03,5.58,184.3,M,-34.4,M,,*55
$GPRMC,222343.000,A,4308.2955,N,07726.2703,W,0.58,182.59,260821,,,A*79
$GPGGA,222343.250,4308.2954,N,07726.2703,W,1,03,5.58,184.3,M,-34.4,M,,*53
$GPRMC,222343.500,A,4308.2954,N,07726.2703,W,0.59,180.70,260821,,,A*75
$GPGGA,222343.750,4308.2953,N,07726.2703,W,1,03,5.58,184.3,M,-34.4,M,,*51
$GPRMC,222344.000,A,4308.2952,N,07726.2703,W,0.64,183.74,260821,,,A*78
$GPGGA,222344.088,4308.2951,N,07726.2703,W,1,03,5.58,184.3,M,-34,M,,*56
$GPRMC,222344.500,A,4308.2950,N,07726.2703,W,0.64,180.52,260821,,,A*78
$GPGGA,222344.750,4308.2949,N,07726.2703,W,1,03,5.58,184.3,M,-34.4,M,,*5D
$GPRMC,222345.000,A,4308.2948,N,07726.2703,W,0.65,184.71,260821,,,A*71
$GPGGA,222345.250,4308.2947,N,07726.2704,W,1,03,5.59,184.3,M,-34.4,M,,*51
$GPRMC,222345.500,A,4308.2946,N,07726.2705,W,0.70,189.19,260821,,,A*7B
$GPGGA,222345.750,4308.2945,N,07726.2706,W,1,03,5.58,184.3,M,-34.4,M,,*55
$GPRMC,222346.000,A,4308.2943,N,07726.2707,W,0.76,196.80,260821,,,A*72
$GPGGA,222346.250,4308.2941,N,07726.2708,W,1,03,5.59,184.3,M,-34.4,M,,*58
$GPRMC,222346.500,A,4308.2940,N,07726.2708,W,0.79,197.45,260821,,,A*7C
$GPGGA,222346.750,4308.2939,N,07726.2708,W,1,03,5.59,184.3,M,-34.4,M,,*52
$GPRMC,222347.000,A,4308.2937,N,07726.2707,W,0.79,192.02,260821,,,A*71
$GPGGA,222347.250,4308.2936,N,07726.2707,W,1,03,5.59,184.3,M,-34.4,M,,*56
$GPRMC,222347.500,A,4308.2934,N,07726.2706,W,0.81,186.12,260821,,,A*75
$GPGGA,222347.750,4308.2933,N,07726.2706,W,1,03,5.59,184.3,M,-34.4,M,,*57
$GPRMC,222348.000,A,4308.2932,N,07726.2706,W,0.81,183.35,260821,,,A*79
$GPGGA,222348.250,4308.2930,N,07726.2706,W,1,03,5.59,184.3,M,-34.4,M,,*5E
$GPRMC,222348.500,A,4308.2928,N,07726.2706,W,0.85,185.41,260821,,,A*76
$GPGGA,222348.750,4308.2926,N,07726.2707,W,1,03,5.59,184.3,M,-34.4,M,,*5D
$GPRMC,222349.000,A,4308.2924,N,07726.2708,W,0.91,189.80,260821,,,A*74
$GPGGA,222349.250,4308.2922,N,07726.2708,W,1,03,5.59,184.3,M,-34.4,M,,*52
$GPRMC,222349.500,A,4308.2920,N,07726.2708,W,0.94,189.27,260821,,,A*7D
$GPGGA,222349.750,4308.2918,N,07726.2708,W,1,03,5.60,184.3,M,-34.4,M,,*54
$GPRMC,222350.000,A,4308.2916,N,07726.2709,W,0.97,189.77,260821,,,A*72
$GPGGA,222350.088,4308.2915,N,07726.2709,W,1,03,5.60,184.3,M,-34,M,,*52
$GPRMC,222350.500,A,4308.2912,N,07726.2710,W,1.03,190.85,260821,,,A*72
$GPGGA,222350.750,4308.2910,N,07726.2710,W,1,03,5.60,184.3,M,-34.4,M,,*5D
$GPRMC,222351.000,A,4308.2907,N,07726.2710,W,1.08,189.61,260821,,,A*7B
$GPGGA,222351.250,4308.2905,N,07726.2711,W,1,03,5.60,184.3,M,-34.4,M,,*5C
$GPRMC,222351.500,A,4308.2903,N,07726.2711,W,1.12,189.17,260821,,,A*71
$GPGGA,222351.750,4308.2901,N,07726.2711,W,1,03,5.60,184.3,M,-34.4,M,,*5D
$GPRMC,222352.000,A,4308.2899,N,07726.2712,W,1.15,188.58,260821,,,A*7B
$GPGGA,222352.250,4308.2897,N,07726.2712,W,1,03,5.60,184.3,M,-34.4,M,,*56
$GPRMC,222352.500,A,4308.2895,N,07726.2713,W,1.17,189.40,260821,,,A*79
$GPGGA,222352.750,4308.2893,N,07726.2714,W,1,03,5.60,184.3,M,-34.4,M,,*51
$GPRMC,222353.000,A,4308.2890,N,07726.2715,W,1.25,191.36,260821,,,A*77
$GPGGA,222353.250,4308.2888,N,07726.2716,W,1,03,5.60,184.3,M,-34.4,M,,*5D
$GPRMC,222353.500,A,4308.2886,N,07726.2716,W,1.27,190.62,260821,,,A*74
$GPGGA,222353.750,4308.2885,N,07726.2717,W,1,03,5.60,184.3,M,-34.4,M,,*54
$GPRMC,222354.000,A,4308.2884,N,07726.2716,W,1.25,188.53,260821,,,A*7D
$GPGGA,222354.250,4308.2882,N,07726.2716,W,1,03,5.61,184.3,M,-34.4,M,,*51
$GPRMC,222354.500,A,4308.2880,N,07726.2717,W,1.27,188.53,260821,,,A*7F
$GPGGA,222354.750,4308.2878,N,07726.2718,W,1,03,5.60,184.3,M,-34.4,M,,*5E
$GPRMC,222355.000,A,4308.2877,N,07726.2718,W,1.28,187.10,260821,,,A*7B
$GPGGA,222355.250,4308.2875,N,07726.2718,W,1,03,5.61,184.3,M,-34.4,M,,*56
$GPRMC,222355.500,A,4308.2872,N,07726.2719,W,1.34,186.78,260821,,,A*78
$GPGGA,222355.750,4308.2869,N,07726.2721,W,1,03,5.61,184.2,M,-34.4,M,,*55
$GPRMC,222356.000,A,4308.2867,N,07726.2721,W,1.38,188.65,260821,,,A*7F
$GPGGA,222356.092,4308.2865,N,07726.2722,W,1,03,5.61,184.2,M,-34,M,,*50
$GPRMC,222356.500,A,4308.2862,N,07726.2722,W,1.41,188.27,260821,,,A*74
$GPGGA,222356.750,4308.2859,N,07726.2723,W,1,03,5.61,184.2,M,-34.4,M,,*57
$GPRMC,222357.000,A,4308.2857,N,07726.2723,W,1.44,186.63,260821,,,A*7C
$GPGGA,222357.250,4308.2855,N,07726.2723,W,1,03,5.61,184.2,M,-34.4,M,,*5F
$GPRMC,222357.500,A,4308.2851,N,07726.2724,W,1.49,186.59,260821,,,A*7C
$GPGGA,222357.750,4308.2848,N,07726.2724,W,1,03,5.61,184.2,M,-34.4,M,,*51
$GPRMC,222358.000,A,4308.2846,N,07726.2725,W,1.54,186.60,260821,,,A*77
$GPGGA,222358.250,4308.2844,N,07726.2724,W,1,03,5.61,184.2,M,-34.4,M,,*57
$GPRMC,222358.500,A,4308.2842,N,07726.2723,W,1.54,182.22,260821,,,A*72
$GPGGA,222358.750,4308.2840,N,07726.2723,W,1,03,5.61,184.2,M,-34.4,M,,*51
$GPRMC,222359.000,A,4308.2837,N,07726.2724,W,1.60,184.75,260821,,,A*70
$GPGGA,222359.250,4308.2834,N,07726.2725,W,1,03,5.61,184.2,M,-34.4,M,,*50
$GPRMC,222359.500,A,4308.2831,N,07726.2725,W,1.66,185.49,260821,,,A*7A
$GPGGA,222359.750,4308.2829,N,07726.2725,W,1,03,5.62,184.2,M,-34.4,M,,*5A
$GPRMC,222400.000,A,4308.2828,N,07726.2724,W,1.66,182.30,260821,,,A*74
$GPGGA,222400.250,4308.2826,N,07726.2724,W,1,03,5.62,184.2,M,-34.4,M,,*5A
$GPRMC,222400.500,A,4308.2824,N,07726.2725,W,1.67,183.24,260821,,,A*79
$GPGGA,222400.750,4308.2823,N,07726.2724,W,1,03,5.62,184.2,M,-34.4,M,,*5A
$GPRMC,222401.000,A,4308.2821,N,07726.2723,W,1.65,180.55,260821,,,A*79
$GPGGA,222401.250,4308.2819,N,07726.2723,W,1,03,5.62,184.2,M,-34.4,M,,*50
$GPRMC,222401.500,A,4308.2818,N,07726.2722,W,1.66,178.17,260821,,,A*75
$GPGGA,222401.750,4308.2817,N,07726.2721,W,1,03,5.62,184.2,M,-34.4,M,,*59
$GPRMC,222402.000,A,4308.2815,N,07726.2721,W,1.66,177.40,260821,,,A*70
$GPGGA,222402.095,4308.2813,N,07726.2721,W,1,03,5.62,184.2,M,-34,M,,*50
$GPRMC,222402.500,A,4308.2811,N,07726.2720,W,1.66,176.87,260821,,,A*7A
$GPGGA,222402.750,4308.2810,N,07726.2719,W,1,03,5.62,184.2,M,-34.4,M,,*56
$GPRMC,222403.000,A,4308.2808,N,07726.2719,W,1.66,174.27,260821,,,A*74
$GPGGA,222403.250,4308.2806,N,07726.2719,W,1,03,5.62,184.2,M,-34.4,M,,*55
$GPRMC,222403.500,A,4308.2804,N,07726.2718,W,1.68,174.70,260821,,,A*70
$GPGGA,222403.750,4308.2801,N,07726.2719,W,1,03,5.63,184.2,M,-34.4,M,,*56
$GPRMC,222404.000,A,4308.2799,N,07726.2719,W,1.72,177.76,260821,,,A*76
$GPGGA,222404.250,4308.2797,N,07726.2719,W,1,03,5.63,184.2,M,-34.4,M,,*54
$GPRMC,222404.500,A,4308.2795,N,07726.2718,W,1.74,177.77,260821,,,A*79
$GPGGA,222404.750,4308.2793,N,07726.2718,W,1,03,5.63,184.2,M,-34.4,M,,*54
$GPRMC,222405.000,A,4308.2790,N,07726.2717,W,1.78,176.31,260821,,,A*78
$GPGGA,222405.250,4308.2788,N,07726.2715,W,1,03,5.62,184.2,M,-34.4,M,,*56
$GPRMC,222405.500,A,4308.2786,N,07726.2714,W,1.80,174.35,260821,,,A*78
$GPGGA,222405.750,4308.2784,N,07726.2713,W,1,03,5.63,184.2,M,-34.4,M,,*58
$GPRMC,222406.000,A,4308.2781,N,07726.2713,W,1.84,174.81,260821,,,A*75
$GPGGA,222406.250,4308.2778,N,07726.2713,W,1,03,5.63,184.2,M,-34.4,M,,*5D
$GPRMC,222406.500,A,4308.2776,N,07726.2713,W,1.89,175.42,260821,,,A*7B
$GPGGA,222406.750,4308.2772,N,07726.2713,W,1,03,5.63,184.2,M,-34.4,M,,*52
$GPRMC,222407.000,A,4308.2770,N,07726.2712,W,1.94,174.83,260821,,,A*78
$GPGGA,222407.250,4308.2767,N,07726.2711,W,1,03,5.63,184.2,M,-34.4,M,,*50
$GPRMC,222407.500,A,4308.2764,N,07726.2711,W,1.98,174.59,260821,,,A*70
$GPGGA,222407.750,4308.2761,N,07726.2713,W,1,03,5.63,184.2,M,-34.4,M,,*51
$GPRMC,222408.000,A,4308.2758,N,07726.2713,W,2.04,178.90,260821,,,A*78
$GPGGA,222408.094,4308.2757,N,07726.2713,W,1,03,5.63,184.2,M,-34,M,,*54
$GPRMC,222408.500,A,4308.2753,N,07726.2713,W,2.07,178.06,260821,,,A*7A
$GPGGA,222408.750,4308.2750,N,07726.2713,W,1,03,5.63,184.2,M,-34.4,M,,*5C
$GPRMC,222409.000,A,4308.2747,N,07726.2713,W,2.09,178.58,260821,,,A*7E
$GPGGA,222409.250,4308.2744,N,07726.2713,W,1,03,5.63,184.2,M,-34.4,M,,*5D
$GPRMC,222409.500,A,4308.2741,N,07726.2713,W,2.13,178.79,260821,,,A*75
$GPGGA,222409.750,4308.2738,N,07726.2715,W,1,03,5.64,184.2,M,-34.4,M,,*52
$GPRMC,222410.000,A,4308.2735,N,07726.2715,W,2.18,180.47,260821,,,A*7C
$GPGGA,222410.250,4308.2732,N,07726.2714,W,1,03,5.63,184.2,M,-34.4,M,,*53
$GPRMC,222410.500,A,4308.2730,N,07726.2714,W,2.17,178.30,260821,,,A*75
$GPGGA,222410.750,4308.2728,N,07726.2713,W,1,03,5.64,184.2,M,-34.4,M,,*5D
$GPRMC,222411.000,A,4308.2726,N,07726.2713,W,2.17,177.99,260821,,,A*7D
$GPGGA,222411.250,4308.2724,N,07726.2713,W,1,03,5.64,184.2,M,-34.4,M,,*55
$GPRMC,222411.500,A,4308.2722,N,07726.2713,W,2.18,178.96,260821,,,A*73
$GPGGA,222411.750,4308.2720,N,07726.2714,W,1,03,5.64,184.2,M,-34.4,M,,*53
$GPRMC,222412.000,A,4308.2718,N,07726.2715,W,2.18,180.80,260821,,,A*7A
$GPGGA,222412.250,4308.2717,N,07726.2715,W,1,03,5.64,184.1,M,-34.4,M,,*53
$GPRMC,222412.500,A,4308.2716,N,07726.2715,W,2.16,180.97,260821,,,A*79
$GPGGA,222412.750,4308.2716,N,07726.2715,W,1,03,5.64,184.1,M,-34.4,M,,*57
$GPRMC,222413.000,A,4308.2715,N,07726.2714,W,2.10,180.31,260821,,,A*75
$GPGGA,222413.250,4308.2714,N,07726.2714,W,1,03,5.64,184.1,M,-34.4,M,,*50
$GPRMC,222413.500,A,4308.2714,N,07726.2714,W,2.06,179.27,260821,,,A*77
$GPGGA,222413.750,4308.2714,N,07726.2714,W,1,03,5.64,184.1,M,-34.4,M,,*55
$GPRMC,222414.000,A,4308.2713,N,07726.2714,W,2.01,179.21,260821,,,A*73
$GPGGA,222414.092,4308.2713,N,07726.2713,W,1,03,5.65,184.1,M,-34,M,,*5A
$GPGGA,222414.500,4308.2712,N,07726.2713,W,1,03,5.64,184.1,M,-34.4,M,,*54
$GPRMC,222414.500,A,4308.2712,N,07726.2713,W,1.97,178.99,260821$GPGGA,222414.750,4308.2713,N,07726.2713,W,1,03,5.65,184.1,M,-34.4,M,,*53
$GPRMC,222415.000,A,4308.2714,N,07726.2712,W,1.87,176.03,260821,,,A*71
$GPGGA,222415.250,4308.2713,N,07726.2712,W,1,03,5.65,184.1,M,-34.4,M,,*56
$GPRMC,222415.500,A,4308.2712,N,07726.2712,W,1.85,175.93,260821,,,A*7A
$GPGGA,222415.750,4308.2712,N,07726.2712,W,1,03,5.65,184.1,M,-34.4,M,,*52
$GPRMC,222416.000,A,4308.2711,N,07726.2713,W,1.82,178.04,260821,,,A*7A
$GPGGA,222416.250,4308.2710,N,07726.2713,W,1,03,5.65,184.2,M,-34.4,M,,*54
$GPRMC,222416.500,A,4308.2710,N,07726.2712,W,1.79,176.98,260821,,,A*70
$GPGGA,222416.750,4308.2709,N,07726.2712,W,1,03,5.65,184.2,M,-34.4,M,,*58
$GPRMC,222417.000,A,4308.2708,N,07726.2713,W,1.81,177.39,260821,,,A*71
$GPGGA,222417.250,4308.2706,N,07726.2713,W,1,03,5.65,184.2,M,-34.4,M,,*52
$GPRMC,222417.500,A,4308.2705,N,07726.2713,W,1.81,176.92,260821,,,A*79
$GPGGA,222417.750,4308.2705,N,07726.2712,W,1,03,5.65,184.2,M,-34.4,M,,*55
$GPRMC,222418.000,A,4308.2705,N,07726.2711,W,1.76,173.60,260821,,,A*71
$GPGGA,222418.250,4308.2704,N,07726.2711,W,1,03,5.65,184.2,M,-34.4,M,,*5D
$GPRMC,222418.500,A,4308.2703,N,07726.2712,W,1.75,174.56,260821,,,A*70
$GPGGA,222418.750,4308.2702,N,07726.2712,W,1,03,5.65,184.2,M,-34.4,M,,*5D
$GPRMC,222419.000,A,4308.2701,N,07726.2713,W,1.75,176.59,260821,,,A*7A
$GPGGA,222419.250,4308.2699,N,07726.2714,W,1,03,5.66,184.2,M,-34.4,M,,*5F
$GPRMC,222419.500,A,4308.2698,N,07726.2715,W,1.76,178.52,260821,,,A*7E
$GPGGA,222419.750,4308.2696,N,07726.2715,W,1,03,5.66,184.2,M,-34.4,M,,*54
$GPRMC,222420.000,A,4308.2695,N,07726.2716,W,1.76,179.58,260821,,,A*74
$GPGGA,222420.084,4308.2695,N,07726.2716,W,1,03,5.66,184.2,M,-3.4,M,,*50
$GPGGA,222420.500,4308.2694,N,07726.2718,W,1,03,5.66,184.2,M,-34.4,M,,*56
$GPRMC,222420.500,A,4308.2694,N,07726.2718,W,1.74,180.45,260821,,A*76
$GPGGA,222420.750,4308.2694,N,07726.2719,W,1,03,5.66,184.2,M,-34.4,M,,*50
$GPRMC,222420.750,A,4308.2694,N,07726.2719,W,1.72,181.30,260821,,,A*75
$GPGGA,222421.000,4308.2690,N,07726.2720,W,1,03,5.65,184.2,M,-34.4,M,,*5E
$GPRMC,222421.000,A,4308.2690,N,07726.2720,W,1.76,181.95,260821$GPGGA,222421.250,4308.2686,N,07726.2720,W,1,03,5.66,184.2,M,-34.4,M,,*5D
$GPRMC,222421.500,A,4308.2682,N,07726.2720,W,1.82,183.04,260821,,,A*74
$GPGGA,222421.750,4308.2678,N,07726.2721,W,1,03,5.66,184.2,M,-34.4,M,,*58
$GPRMC,222422.000,A,4308.2674,N,07726.2722,W,1.88,184.06,260821,,,A*76
$GPGGA,222422.250,4308.2672,N,07726.2722,W,1,03,5.66,184.2,M,-34.4,M,,*57
$GPRMC,222422.500,A,4308.2669,N,07726.2723,W,1.89,184.03,260821,,,A*7A
$GPGGA,222422.750,4308.2667,N,07726.2723,W,1,03,5.66,184.2,M,-34.4,M,,*57
$GPRMC,222423.000,A,4308.2665,N,07726.2724,W,1.90,183.43,260821,,,A*7E
$GPGGA,222423.250,4308.2663,N,07726.2725,W,1,03,5.66,184.2,M,-34.4,M,,*51
$GPRMC,222423.500,A,4308.2662,N,07726.2726,W,1.89,183.22,260821,,,A*71
$GPGGA,222423.750,4308.2660,N,07726.2727,W,1,03,5.66,184.2,M,-34.4,M,,*55
$GPRMC,222424.000,A,4308.2660,N,07726.2727,W,1.84,183.38,260821,,,A*76
$GPGGA,222424.250,4308.2658,N,07726.2729,W,1,03,5.67,184.2,M,-34.4,M,,*53
$GPRMC,222424.500,A,4308.2657,N,07726.2729,W,1.81,183.91,260821,,,A*7F
$GPGGA,222424.750,4308.2656,N,07726.2730,W,1,03,5.67,184.2,M,-34.4,M,,*50
$GPRMC,222425.000,A,4308.2655,N,07726.2731,W,1.79,183.44,260821,,,A*7F
$GPGGA,222425.250,4308.2653,N,07726.2733,W,1,03,5.66,184.2,M,-34.4,M,,*53
$GPRMC,222425.500,A,4308.2652,N,07726.2735,W,1.80,186.56,260821,,,A*79
$GPGGA,222425.750,4308.2652,N,07726.2736,W,1,03,5.67,184.2,M,-34.4,M,,*53
$GPRMC,222426.000,A,4308.2651,N,07726.2738,W,1.78,187.75,260821,,,A*76
$GPGGA,222426.084,4308.2651,N,07726.2739,W,1,03,5.66,184.2,M,-3,A,4308.2651,N,07726.2739,W,1.77,187.87,260821,,,A*79
$GPRMC,222426.500,A,4308.2650,N,07726.2736,W,1.73,187.22,260821,,,A*75
$GPGGA,222426.750,4308.2651,N,07726.2735,W,1,04,5.52,182.7,M,-34.4,M,,*52
$GPRMC,222427.000,A,4308.2651,N,07726.2735,W,1.60,191.79,260821,,,A*78
$GPGGA,222427.250,4308.2650,N,07726.2736,W,1,04,5.53,182.1,M,-34.4,M,,*53
$GPRMC,222427.500,A,4308.2652,N,07726.2737,W,1.57,195.55,260821,,,A*72
$GPGGA,222427.750,4308.2657,N,07726.2738,W,1,04,5.52,181.2,M,-34.4,M,,*5E
$GPRMC,222428.000,A,4308.2660,N,07726.2738,W,1.49,198.20,260821,,,A*76
$GPGGA,222428.250,4308.2665,N,07726.2738,W,1,04,5.53,180.4,M,-34.4,M,,*53
$GPRMC,222428.500,A,4308.2669,N,07726.2738,W,1.35,202.24,260821,,,A*75
$GPGGA,222428.750,4308.2669,N,07726.2738,W,1,04,5.53,179.6,M,-34.4,M,,*5E
$GPRMC,222429.000,A,4308.2669,N,07726.2739,W,1.38,200.92,260821,,,A*72
$GPGGA,222429.250,4308.2669,N,07726.2739,W,1,04,5.53,179.1,M,-34.4,M,,*5C
$GPRMC,222429.500,A,4308.2668,N,07726.2739,W,1.38,200.84,260821,,,A*71
$GPGGA,222429.750,4308.2668,N,07726.2739,W,1,04,5.52,178.6,M,-34.4,M,,*5F
$GPRMC,222430.000,A,4308.2668,N,07726.2739,W,1.35,198.79,260821,,,A*71
$GPGGA,222430.250,4308.2667,N,07726.2740,W,1,04,5.53,178.2,M,-34.4,M,,*56
$GPRMC,222430.500,A,4308.2665,N,07726.2741,W,1.39,200.55,260821,,,A*76
$GPGGA,222430.750,4308.2667,N,07726.2742,W,1,04,5.53,177.8,M,-34.4,M,,*54
$GPRMC,222431.000,A,4308.2671,N,07726.2741,W,1.27,199.05,260821,,,A*7E
$GPGGA,222431.250,4308.2672,N,07726.2742,W,1,04,5.53,177.2,M,-34.4,M,,*5E
$GPRMC,222431.500,A,4308.2672,N,07726.2742,W,1.36,196.79,260821,,,A*7F
$GPGGA,222431.750,4308.2671,N,07726.2743,W,1,04,5.53,176.7,M,-34.4,M,,*5D
$GPRMC,222432.000,A,4308.2671,N,07726.2743,W,1.47,195.19,260821,,,A*78
$GPGGA,222432.250,4308.2671,N,07726.2743,W,1,04,5.54,176.4,M,-34.4,M,,*5F
$GPRMC,222432.500,A,4308.2671,N,07726.2743,W,1.45,194.29,260821,,,A*7D
$GPGGA,222432.750,4308.2672,N,07726.2743,W,1,04,5.53,176.0,M,-34.4,M,,*5A
$GPRMC,222433.000,A,4308.2675,N,07726.2743,W,1.32,197.14,260821,,,A*70
$GPGGA,222433.250,4308.2676,N,07726.2742,W,1,04,5.53,175.6,M,-34.4,M,,*5E
$GPRMC,222433.500,A,4308.2676,N,07726.2742,W,1.23,199.17,260821,,,A*7A
$GPGGA,222433.750,4308.2677,N,07726.2742,W,1,04,5.53,175.3,M,-34.4,M,,*5F
$GPRMC,222434.000,A,4308.2678,N,07726.2742,W,1.14,196.86,260821,,,A*75
$GPGGA,222434.250,4308.2678,N,07726.2741,W,1,04,5.53,175.1,M,-34.4,M,,*53
$GPRMC,222434.500,A,4308.2677,N,07726.2741,W,1.16,193.31,260821,,,A*77
$GPGGA,222434.750,4308.2677,N,07726.2741,W,1,04,5.54,174.9,M,-34.4,M,,*57
$GPRMC,222435.000,A,4308.2676,N,07726.2742,W,1.16,194.92,260821,,,A*7F
$GPGGA,222435.250,4308.2676,N,07726.2742,W,1,04,5.54,174.7,M,-34.4,M,,*5F
$GPRMC,222435.500,A,4308.2676,N,07726.2742,W,1.15,196.30,260821,,,A*73
$GPGGA,222435.750,4308.2676,N,07726.2742,W,1,04,5.53,174.5,M,-34.4,M,,*5F
$GPRMC,222436.000,A,4308.2676,N,07726.2742,W,1.12,195.53,260821,,,A*74
$GPGGA,222436.250,4308.2676,N,07726.2742,W,1,04,5.54,174.4,M,-34.4,M,,*5F
$GPRMC,222436.500,A,4308.2677,N,07726.2742,W,1.07,194.73,260821,,,A*77
$GPGGA,222436.750,4308.2677,N,07726.2742,W,1,04,5.54,174.2,M,-34.4,M,,*5D
$GPRMC,222437.000,A,4308.2678,N,07726.2742,W,0.99,193.99,260821,,,A*79
$GPGGA,222437.250,4308.2679,N,07726.2742,W,1,04,5.54,174.0,M,-34.4,M,,*55
$GPRMC,222437.500,A,4308.2678,N,07726.2742,W,0.96,189.98,260821,,,A*79
$GPGGA,222437.750,4308.2678,N,07726.2742,W,1,04,5.54,173.8,M,-34.4,M,,*5E
$GPRMC,222438.000,A,4308.2676,N,07726.2743,W,0.99,188.87,260821,,,A*7C
$GPGGA,222438.250,4308.2674,N,07726.2744,W,1,04,5.54,173.7,M,-34.4,M,,*51
$GPRMC,222438.500,A,4308.2673,N,07726.2745,W,1.07,192.04,260821,,,A*7C
$GPGGA,222438.750,4308.2673,N,07726.2745,W,1,04,5.54,173.6,M,-34.4,M,,*53
$GPRMC,222439.000,A,4308.2674,N,07726.2744,W,0.99,189.54,260821,,,A*77
$GPGGA,222439.250,4308.2676,N,07726.2744,W,1,04,5.54,173.4,M,-34.4,M,,*51
$GPRMC,222439.500,A,4308.2677,N,07726.2744,W,0.87,195.45,260821,,,A*73
$GPGGA,222439.750,4308.2676,N,07726.2744,W,1,04,5.54,173.3,M,-34.4,M,,*53
$GPRMC,222440.000,A,4308.2674,N,07726.2744,W,0.95,191.38,260821,,,A*76
$GPGGA,222440.250,4308.2672,N,07726.2744,W,1,04,5.54,173.2,M,-34.4,M,,*5D
$GPRMC,222440.500,A,4308.2671,N,07726.2744,W,1.02,189.09,260821,,,A*72
$GPGGA,222440.750,4308.2670,N,07726.2744,W,1,04,5.54,173.0,M,-34.4,M,,*58
$GPRMC,222441.000,A,4308.2671,N,07726.2744,W,1.03,191.92,260821,,,A*7C
$GPGGA,222441.250,4308.2670,N,07726.2745,W,1,04,5.55,172.8,M,-34.4,M,,*55
$GPRMC,222441.500,A,4308.2673,N,07726.2744,W,0.93,196.09,260821,,,A*76
$GPGGA,222441.750,4308.2673,N,07726.2744,W,1,04,5.55,172.6,M,-34.4,M,,*5C
$GPRMC,222442.000,A,4308.2673,N,07726.2743,W,0.93,192.77,260821,,,A*7A
$GPGGA,222442.250,4308.2674,N,07726.2742,W,1,04,5.54,172.5,M,-34.4,M,,*59
$GPRMC,222442.500,A,4308.2675,N,07726.2742,W,0.85,190.20,260821,,,A*7F
$GPGGA,222442.750,4308.2675,N,07726.2742,W,1,04,5.54,172.3,M,-34.4,M,,*5B
$GPRMC,222443.000,A,4308.2673,N,07726.2742,W,0.90,192.52,260821,,,A*7E
$GPGGA,222443.250,4308.2673,N,07726.2742,W,1,04,5.54,172.2,M,-34.4,M,,*58
$GPRMC,222443.500,A,4308.2671,N,07726.2741,W,0.94,190.57,260821,,,A*79
$GPGGA,222443.750,4308.2671,N,07726.2741,W,1,04,5.55,172.2,M,-34.4,M,,*5D
$GPRMC,222444.000,A,4308.2671,N,07726.2741,W,0.92,192.01,260821,,,A*7C
$GPGGA,222444.250,4308.2671,N,07726.2740,W,1,04,5.55,172.1,M,-34.4,M,,*5D
$GPRMC,222444.500,A,4308.2673,N,07726.2739,W,0.82,191.37,260821,,,A*73
$GPGGA,222444.750,4308.2673,N,07726.2738,W,1,04,5.55,172.0,M,-34.4,M,,*54
$GPRMC,222445.000,A,4308.2674,N,07726.2737,W,0.79,188.23,260821,,,A*77
$GPGGA,222445.250,4308.2674,N,07726.2736,W,1,04,5.55,171.9,M,-34.4,M,,*53
$GPRMC,222445.500,A,4308.2677,N,07726.2735,W,0.69,183.62,260821,,,A*7C
$GPGGA,222445.750,4308.2676,N,07726.2735,W,1,04,5.55,171.9,M,-34.4,M,,*57
$GPRMC,222446.000,A,4308.2678,N,07726.2734,W,0.65,188.15,260821,,,A*73
$GPGGA,222446.250,4308.2679,N,07726.2734,W,1,04,5.55,171.8,M,-34.4,M,,*5E
$GPRMC,222446.500,A,4308.2680,N,07726.2733,W,0.59,194.15,260821,,,A*74
$GPGGA,222446.750,4308.2682,N,07726.2733,W,1,04,5.55,171.7,M,-34.4,M,,*57
$GPRMC,222447.000,A,4308.2682,N,07726.2732,W,0.53,195.23,260821,,,A*7D
$GPGGA,222447.250,4308.2683,N,07726.2732,W,1,04,5.54,171.7,M,-34.4,M,,*52
$GPRMC,222447.500,A,4308.2683,N,07726.2731,W,0.53,192.59,260821,,,A*70
$GPGGA,222447.750,4308.2683,N,07726.2731,W,1,04,5.55,171.6,M,-34.4,M,,*54
$GPRMC,222448.000,A,4308.2683,N,07726.2731,W,0.58,196.83,260821,,,A*72
$GPGGA,222448.250,4308.2684,N,07726.2730,W,1,04,5.55,171.5,M,-34.4,M,,*5B
$GPRMC,222448.500,A,4308.2686,N,07726.2729,W,0.54,188.07,260821,,,A*74
$GPGGA,222448.750,4308.2688,N,07726.2728,W,1,04,5.55,171.4,M,-34.4,M,,*5A
$GPRMC,222449.000,A,4308.2689,N,07726.2727,W,0.47,186.16,260821,,,A*7D
$GPGGA,222449.250,4308.2690,N,07726.2726,W,1,04,5.55,171.4,M,-34.4,M,,*59
$GPRMC,222449.500,A,4308.2692,N,07726.2725,W,0.44,192.65,260821,,,A*72
$GPGGA,222449.750,4308.2695,N,07726.2725,W,1,04,5.55,171.3,M,-34.4,M,,*5D
$GPRMC,222450.000,A,4308.2696,N,07726.2724,W,0.39,200.85,260821,,,A*76
$GPGGA,222450.250,4308.2697,N,07726.2723,W,1,04,5.55,171.2,M,-34.4,M,,*55
$GPRMC,222450.500,A,4308.2698,N,07726.2722,W,0.38,199.92,260821,,,A*7F
$GPGGA,222450.750,4308.2700,N,07726.2722,W,1,04,5.55,171.2,M,-34.4,M,,*5E
$GPRMC,222451.000,A,4308.2702,N,07726.2720,W,0.33,193.03,260821,,,A*72
$GPGGA,222451.250,4308.2704,N,07726.2720,W,1,04,5.56,171.1,M,-34.4,M,,*5C
$GPRMC,222451.500,A,4308.2706,N,07726.2719,W,0.26,188.61,260821,,,A*73
$GPGGA,222451.750,4308.2706,N,07726.2719,W,1,04,5.56,171.0,M,-34.4,M,,*50
$GPRMC,222452.000,A,4308.2706,N,07726.2719,W,0.25,187.38,260821,,,A*75
$GPGGA,222452.250,4308.2706,N,07726.2719,W,1,04,5.56,171.0,M,-34.4,M,,*56
$GPRMC,222452.500,A,4308.2705,N,07726.2719,W,0.19,183.81,260821,,,A*7A
$GPGGA,222452.750,4308.2705,N,07726.2719,W,1,04,5.56,171.0,M,-34.4,M,,*50
$GPRMC,222453.000,A,4308.2705,N,07726.2719,W,0.13,190.18,260821,,,A*76
$GPGGA,222453.250,4308.2705,N,07726.2719,W,1,04,5.56,171.0,M,-34.4,M,,*54
$GPRMC,222453.500,A,4308.2705,N,07726.2719,W,0.03,132.28,260821,,,A*79
$GPGGA,222453.750,4308.2705,N,07726.2718,W,1,04,5.55,171.0,M,-34.4,M,,*53
$GPRMC,222454.000,A,4308.2705,N,07726.2718,W,0.20,44.45,260821,,,A*40
$GPGGA,222454.250,4308.2706,N,07726.2718,W,1,04,5.56,171.0,M,-34.4,M,,*51
$GPRMC,222454.500,A,4308.2706,N,07726.2718,W,0.23,39.10,260821,,,A*4F
$GPGGA,222454.750,4308.2706,N,07726.2718,W,1,04,5.56,171.0,M,-34.4,M,,*54
$GPRMC,222455.000,A,4308.2706,N,07726.2718,W,0.19,59.56,260821,,,A*46
$GPGGA,222455.250,4308.2706,N,07726.2718,W,1,04,5.56,171.0,M,-34.4,M,,*50
$GPRMC,222455.500,A,4308.2706,N,07726.2717,W,0.20,50.27,260821,,,A*49
$GPGGA,222455.750,4308.2706,N,07726.2717,W,1,04,5.56,171.0,M,-34.4,M,,*5A
$GPRMC,222456.000,A,4308.2707,N,07726.2717,W,0.22,29.40,260821,,,A*43
$GPGGA,222456.250,4308.2707,N,07726.2717,W,1,04,5.56,171.0,M,-34.4,M,,*5D
$GPRMC,222456.500,A,4308.2707,N,07726.2717,W,0.20,36.20,260821,,,A*4C
$GPGGA,222456.750,4308.2707,N,07726.2717,W,1,04,5.56,171.0,M,-34.4,M,,*58
$GPRMC,222457.000,A,4308.2707,N,07726.2717,W,0.21,15.37,260821,,,A*4E
$GPGGA,222457.250,4308.2707,N,07726.2717,W,1,04,5.56,171.0,M,-34.4,M,,*5C
$GPRMC,222457.500,A,4308.2708,N,07726.2717,W,0.20,16.12,260821,,,A*41
$GPGGA,222457.750,4308.2708,N,07726.2716,W,1,04,5.56,171.0,M,-34.4,M,,*57
$GPRMC,222458.000,A,4308.2708,N,07726.2716,W,0.27,18.89,260821,,,A*41
$GPGGA,222458.250,4308.2708,N,07726.2716,W,1,04,5.57,171.0,M,-34.4,M,,*5C
$GPRMC,222458.500,A,4308.2708,N,07726.2716,W,0.34,26.17,260821,,,A*4C
$GPGGA,222458.750,4308.2709,N,07726.2716,W,1,04,5.56,171.0,M,-34.4,M,,*59
$GPRMC,222459.000,A,4308.2709,N,07726.2716,W,0.33,16.21,260821,,,A*48
$GPGGA,222459.250,4308.2709,N,07726.2716,W,1,04,5.57,171.0,M,-34.4,M,,*5C
$GPRMC,222459.500,A,4308.2709,N,07726.2716,W,0.37,19.38,260821,,,A*4E
$GPGGA,222459.750,4308.2710,N,07726.2715,W,1,04,5.56,171.0,M,-34.4,M,,*53
$GPRMC,222500.000,A,4308.2710,N,07726.2715,W,0.45,19.32,260821,,,A*42
$GPGGA,222500.250,4308.2710,N,07726.2715,W,1,04,5.57,171.0,M,-34.4,M,,*5A
$GPRMC,222500.500,A,4308.2711,N,07726.2715,W,0.50,17.04,260821,,,A*49
$GPGGA,222500.750,4308.2711,N,07726.2715,W,1,04,5.57,171.0,M,-34.4,M,,*5E
$GPRMC,222501.000,A,4308.2711,N,07726.2715,W,0.48,13.91,260821,,,A*4C
$GPGGA,222501.250,4308.2712,N,07726.2715,W,1,04,5.73,171.0,M,-34.4,M,,*5F
$GPRMC,222501.500,A,4308.2712,N,07726.2715,W,0.49,10.04,260821,,,A*44
$GPGGA,222501.750,4308.2712,N,07726.2714,W,1,04,5.73,171.0,M,-34.4,M,,*5B
$GPRMC,222502.000,A,4308.2713,N,07726.2714,W,0.44,5.65,260821,,,A*7C
$GPGGA,222502.250,4308.2713,N,07726.2714,W,1,04,5.74,171.0,M,-34.4,M,,*5B
$GPRMC,222502.500,A,4308.2713,N,07726.2714,W,0.37,9.55,260821,,,A*72
$GPGGA,222502.750,4308.2714,N,07726.2714,W,1,04,5.74,171.0,M,-34.4,M,,*59
$GPRMC,222503.000,A,4308.2714,N,07726.2714,W,0.31,12.41,260821,,,A*48
$GPGGA,222503.250,4308.2714,N,07726.2714,W,1,04,5.73,171.0,M,-34.4,M,,*5A
$GPRMC,222503.500,A,4308.2714,N,07726.2714,W,0.32,17.29,260821,,,A*45
$GPGGA,222503.750,4308.2714,N,07726.2714,W,1,04,5.57,171.0,M,-34.4,M,,*59
$GPRMC,222504.000,A,4308.2715,N,07726.2714,W,0.38,12.88,260821,,,A*42
$GPGGA,222504.250,4308.2715,N,07726.2714,W,1,04,5.73,171.0,M,-34.4,M,,*5C
$GPRMC,222504.500,A,4308.2715,N,07726.2714,W,0.43,23.51,260821,,,A*4D
$GPGGA,222504.750,4308.2716,N,07726.2713,W,1,04,5.57,171.0,M,-34.4,M,,*5B
$GPRMC,222505.000,A,4308.2716,N,07726.2713,W,0.38,17.91,260821,,,A*4A
$GPGGA,222505.250,4308.2716,N,07726.2713,W,1,04,5.57,171.0,M,-34.4,M,,*5F
$GPRMC,222505.500,A,4308.2716,N,07726.2713,W,0.36,23.35,260821,,,A*48
$GPGGA,222505.750,4308.2717,N,07726.2713,W,1,04,5.57,171.0,M,-34.4,M,,*5B
$GPRMC,222506.000,A,4308.2717,N,07726.2713,W,0.36,11.08,260821,,,A*40
$GPGGA,222506.250,4308.2717,N,07726.2713,W,1,04,5.73,171.0,M,-34.4,M,,*5B
$GPRMC,222506.500,A,4308.2717,N,07726.2713,W,0.36,2.76,260821,,,A*7E
$GPGGA,222506.750,4308.2718,N,07726.2713,W,1,04,5.74,171.0,M,-34.4,M,,*56
$GPRMC,222507.000,A,4308.2718,N,07726.2713,W,0.23,0.88,260821,,,A*72
$GPGGA,222507.250,4308.2718,N,07726.2713,W,1,04,5.74,171.0,M,-34.4,M,,*52
$GPRMC,222507.500,A,4308.2718,N,07726.2713,W,0.09,9.88,260821,,,A*76
$GPGGA,222507.750,4308.2718,N,07726.2713,W,1,04,5.74,171.0,M,-34.4,M,,*57
$GPRMC,222508.000,A,4308.2718,N,07726.2713,W,0.11,11.48,260821,,,A*40
$GPGGA,222508.250,4308.2718,N,07726.2713,W,1,04,5.74,171.0,M,-34.4,M,,*5D
$GPRMC,222508.500,A,4308.2718,N,07726.2713,W,0.13,0.87,260821,,,A*74
$GPGGA,222508.750,4308.2718,N,07726.2713,W,1,04,5.74,171.0,M,-34.4,M,,*58
$GPRMC,222509.000,A,4308.2719,N,07726.2713,W,0.25,327.37,260821,,,A*79
$GPGGA,222509.250,4308.2719,N,07726.2713,W,1,04,5.57,171.0,M,-34.4,M,,*5C
$GPRMC,222509.500,A,4308.2719,N,07726.2713,W,0.21,335.49,260821,,,A*72
$GPGGA,222509.750,4308.2719,N,07726.2713,W,1,04,5.58,171.0,M,-34.4,M,,*56
$GPRMC,222510.000,A,4308.2719,N,07726.2713,W,0.15,335.54,260821,,,A*74
$GPGGA,222510.250,4308.2719,N,07726.2713,W,1,04,5.58,170.9,M,-34.4,M,,*53
$GPRMC,222510.500,A,4308.2719,N,07726.2713,W,0.14,310.24,260821,,,A*70
$GPGGA,222510.750,4308.2720,N,07726.2713,W,1,04,5.57,170.9,M,-34.4,M,,*53
$GPRMC,222511.000,A,4308.2720,N,07726.2713,W,0.18,297.28,260821,,,A*70
$GPGGA,222511.250,4308.2720,N,07726.2713,W,1,04,5.58,170.9,M,-34.4,M,,*58
$GPRMC,222511.500,A,4308.2720,N,07726.2714,W,0.16,310.84,260821,,,A*74
$GPGGA,222511.750,4308.2720,N,07726.2714,W,1,04,5.58,170.9,M,-34.4,M,,*5A
$GPRMC,222512.000,A,4308.2720,N,07726.2714,W,0.12,359.10,260821,,,A*76
$GPGGA,222512.250,4308.2720,N,07726.2714,W,1,04,5.73,170.9,M,-34.4,M,,*55
$GPRMC,222512.500,A,4308.2720,N,07726.2714,W,0.20,18.60,260821,,,A*43
$GPGGA,222512.750,4308.2721,N,07726.2714,W,1,04,5.58,170.9,M,-34.4,M,,*58
$GPRMC,222513.000,A,4308.2721,N,07726.2713,W,0.20,10.79,260821,,,A*41
$GPGGA,222513.250,4308.2721,N,07726.2713,W,1,04,5.74,170.9,M,-34.4,M,,*55
$GPRMC,222513.500,A,4308.2721,N,07726.2713,W,0.19,355.21,260821,,,A*71
$GPGGA,222513.750,4308.2721,N,07726.2713,W,1,04,5.74,170.9,M,-34.4,M,,*50
$GPRMC,222514.000,A,4308.2722,N,07726.2713,W,0.26,0.59,260821,,,A*70
$GPGGA,222514.250,4308.2722,N,07726.2713,W,1,04,5.74,170.9,M,-34.4,M,,*51
$GPRMC,222514.500,A,4308.2722,N,07726.2713,W,0.32,359.79,260821,,,A*7D
$GPGGA,222514.750,4308.2722,N,07726.2713,W,1,04,5.74,170.9,M,-34.4,M,,*54
$GPRMC,222515.000,A,4308.2723,N,07726.2713,W,0.47,14.08,260821,,,A*46
$GPGGA,222515.250,4308.2723,N,07726.2713,W,1,04,5.74,170.9,M,-34.4,M,,*51
$GPRMC,222515.500,A,4308.2724,N,07726.2713,W,0.51,9.16,260821,,,A*70
$GPGGA,222515.750,4308.2724,N,07726.2713,W,1,04,5.74,170.9,M,-34.4,M,,*53
$GPRMC,222516.000,A,4308.2724,N,07726.2713,W,0.40,3.91,260821,,,A*73
$GPGGA,222516.250,4308.2725,N,07726.2713,W,1,04,5.74,170.8,M,-34.4,M,,*55
$GPRMC,222516.500,A,4308.2725,N,07726.2713,W,0.36,349.25,260821,,,A*74
$GPGGA,222516.750,4308.2725,N,07726.2713,W,1,04,5.74,170.8,M,-34.4,M,,*50
$GPRMC,222517.000,A,4308.2726,N,07726.2713,W,0.38,4.59,260821,,,A*7C
$GPGGA,222517.250,4308.2726,N,07726.2713,W,1,04,5.74,170.8,M,-34.4,M,,*57
$GPRMC,222517.500,A,4308.2726,N,07726.2713,W,0.48,1.59,260821,,,A*7B
$GPGGA,222517.750,4308.2727,N,07726.2713,W,1,04,5.73,170.8,M,-34.4,M,,*54
$GPRMC,222518.000,A,4308.2727,N,07726.2713,W,0.50,9.50,260821,,,A*78
$GPGGA,222518.250,4308.2728,N,07726.2712,W,1,04,5.74,170.8,M,-34.4,M,,*57
$GPRMC,222518.500,A,4308.2728,N,07726.2712,W,0.49,3.59,260821,,,A*78
$GPGGA,222518.750,4308.2728,N,07726.2712,W,1,04,5.74,170.8,M,-34.4,M,,*52
$GPRMC,222519.000,A,4308.2729,N,07726.2712,W,0.67,7.70,260821,,,A*7E
$GPGGA,222519.250,4308.2734,N,07726.2711,W,1,04,5.74,170.6,M,-34.4,M,,*56
$GPRMC,222519.500,A,4308.2737,N,07726.2709,W,0.69,10.82,260821,,,A*4B
$GPGGA,222519.750,4308.2743,N,07726.2708,W,1,04,5.74,170.2,M,-34.4,M,,*5F
$GPRMC,222520.000,A,4308.2748,N,07726.2706,W,0.84,11.94,260821,,,A*46
$GPGGA,222520.250,4308.2751,N,07726.2704,W,1,04,5.74,169.8,M,-34.4,M,,*5D
$GPRMC,222520.500,A,4308.2753,N,07726.2703,W,0.78,14.23,260821,,,A*46
$GPGGA,222520.750,4308.2755,N,07726.2703,W,1,04,5.74,169.5,M,-34.4,M,,*56
$GPRMC,222521.000,A,4308.2759,N,07726.2702,W,0.73,9.28,260821,,,A*75
$GPGGA,222521.250,4308.2762,N,07726.2701,W,1,04,5.74,169.2,M,-34.4,M,,*53
$GPRMC,222521.500,A,4308.2764,N,07726.2700,W,0.71,7.64,260821,,,A*78
$GPGGA,222521.750,4308.2766,N,07726.2699,W,1,04,5.73,168.8,M,-34.4,M,,*5E
$GPRMC,222522.000,A,4308.2770,N,07726.2698,W,0.66,11.21,260821,,,A*4B
$GPGGA,222522.250,4308.2772,N,07726.2697,W,1,04,5.73,168.5,M,-34.4,M,,*5E
$GPRMC,222522.500,A,4308.2775,N,07726.2696,W,0.64,12.48,260821,,,A*4B
$GPGGA,222522.750,4308.2779,N,07726.2694,W,1,04,5.74,168.1,M,-34.4,M,,*50
$GPRMC,222523.000,A,4308.2782,N,07726.2693,W,0.65,15.50,260821,,,A*4D
$GPGGA,222523.250,4308.2785,N,07726.2692,W,1,04,5.59,167.8,M,-34.4,M,,*58
$GPRMC,222523.500,A,4308.2789,N,07726.2690,W,0.72,21.51,260821,,,A*40
$GPGGA,222523.750,4308.2794,N,07726.2687,W,1,04,5.59,167.5,M,-34.4,M,,*54
$GPRMC,222524.000,A,4308.2797,N,07726.2686,W,0.84,22.72,260821,,,A*41
$GPGGA,222524.250,4308.2801,N,07726.2685,W,1,04,5.59,167.2,M,-34.4,M,,*50
$GPRMC,222524.500,A,4308.2801,N,07726.2685,W,0.81,21.25,260821,,,A*43
$GPGGA,222524.750,4308.2803,N,07726.2684,W,1,04,5.59,167.0,M,-34.4,M,,*54
$GPRMC,222525.000,A,4308.2804,N,07726.2684,W,0.72,14.22,260821,,,A*4E
$GPGGA,222525.250,4308.2807,N,07726.2683,W,1,04,5.74,166.7,M,-34.4,M,,*5A
$GPRMC,222525.500,A,4308.2809,N,07726.2682,W,0.75,19.04,260821,,,A*4E
$GPGGA,222525.750,4308.2813,N,07726.2680,W,1,04,5.59,166.5,M,-34.4,M,,*54
$GPRMC,222526.000,A,4308.2814,N,07726.2679,W,0.78,19.31,260821,,,A*4B
$GPGGA,222526.250,4308.2818,N,07726.2678,W,1,04,5.59,166.2,M,-34.4,M,,*59
$GPRMC,222526.500,A,4308.2820,N,07726.2678,W,0.77,14.39,260821,,,A*42
$GPGGA,222526.750,4308.2823,N,07726.2677,W,1,04,5.73,165.9,M,-34.4,M,,*5B
$GPRMC,222527.000,A,4308.2824,N,07726.2676,W,0.70,20.75,260821,,,A*44
$GPGGA,222527.250,4308.2826,N,07726.2675,W,1,04,5.60,165.6,M,-34.4,M,,*55
$GPRMC,222527.500,A,4308.2829,N,07726.2674,W,0.69,20.50,260821,,,A*41
$GPGGA,222527.750,4308.2832,N,07726.2673,W,1,04,5.60,165.3,M,-34.4,M,,*56
$GPRMC,222528.000,A,4308.2834,N,07726.2672,W,0.68,26.76,260821,,,A*42
$GPGGA,222528.250,4308.2837,N,07726.2671,W,1,04,5.60,165.0,M,-34.4,M,,*58
$GPRMC,222528.500,A,4308.2839,N,07726.2670,W,0.70,21.96,260821,,,A*48
$GPGGA,222528.750,4308.2840,N,07726.2671,W,1,04,5.60,164.8,M,-34.4,M,,*54
$GPRMC,222529.000,A,4308.2842,N,07726.2670,W,0.59,15.59,260821,,,A*4F
$GPGGA,222529.250,4308.2844,N,07726.2670,W,1,04,5.60,164.5,M,-34.4,M,,*58
$GPRMC,222529.500,A,4308.2847,N,07726.2669,W,0.65,18.29,260821,,,A*42
$GPGGA,222529.750,4308.2849,N,07726.2668,W,1,04,5.60,164.3,M,-34.4,M,,*5F
$GPRMC,222530.000,A,4308.2851,N,07726.2667,W,0.67,17.26,260821,,,A*44
$GPGGA,222530.250,4308.2853,N,07726.2667,W,1,04,5.60,164.1,M,-34.4,M,,*54
$GPRMC,222530.500,A,4308.2854,N,07726.2666,W,0.66,22.77,260821,,,A*46
$GPGGA,222530.750,4308.2855,N,07726.2665,W,1,04,5.60,164.0,M,-34.4,M,,*54
$GPRMC,222531.000,A,4308.2856,N,07726.2665,W,0.66,20.08,260821,,,A*49
$GPGGA,222531.250,4308.2858,N,07726.2665,W,1,04,5.60,163.9,M,-34.4,M,,*53
$GPRMC,222531.500,A,4308.2859,N,07726.2665,W,0.66,15.98,260821,,,A*4C
$GPGGA,222531.750,4308.2860,N,07726.2665,W,1,04,5.60,163.8,M,-34.4,M,,*5C
$GPRMC,222532.000,A,4308.2861,N,07726.2664,W,0.66,13.43,260821,,,A*40
$GPGGA,222532.250,4308.2861,N,07726.2664,W,1,04,5.74,163.7,M,-34.4,M,,*50
$GPRMC,222532.500,A,4308.2861,N,07726.2664,W,0.62,14.61,260821,,,A*46
$GPGGA,222532.750,4308.2862,N,07726.2664,W,1,04,5.74,163.6,M,-34.4,M,,*57
$GPRMC,222533.000,A,4308.2863,N,07726.2664,W,0.62,10.22,260821,,,A*43
$GPGGA,222533.250,4308.2864,N,07726.2664,W,1,04,5.74,163.5,M,-34.4,M,,*56
$GPRMC,222533.500,A,4308.2865,N,07726.2664,W,0.62,5.35,260821,,,A*72
$GPGGA,222533.750,4308.2866,N,07726.2664,W,1,04,5.74,163.4,M,-34.4,M,,*50
$GPRMC,222534.000,A,4308.2866,N,07726.2664,W,0.61,4.75,260821,,,A*75
$GPGGA,222534.250,4308.2867,N,07726.2664,W,1,04,5.73,163.3,M,-34.4,M,,*53
$GPRMC,222534.500,A,4308.2868,N,07726.2663,W,0.61,7.78,260821,,,A*77
$GPGGA,222534.750,4308.2866,N,07726.2664,W,1,04,5.74,163.3,M,-34.4,M,,*50
$GPRMC,222535.000,A,4308.2866,N,07726.2664,W,0.49,7.88,260821,,,A*7F
$GPGGA,222535.250,4308.2867,N,07726.2663,W,1,04,5.74,163.2,M,-34.4,M,,*53
$GPRMC,222535.500,A,4308.2868,N,07726.2663,W,0.51,11.74,260821,,,A*4E
$GPGGA,222535.750,4308.2870,N,07726.2663,W,1,04,5.74,163.1,M,-34.4,M,,*53
$GPRMC,222536.000,A,4308.2871,N,07726.2662,W,0.58,14.69,260821,,,A*41
$GPGGA,222536.250,4308.2872,N,07726.2662,W,1,04,5.74,163.1,M,-34.4,M,,*56
$GPRMC,222536.500,A,4308.2872,N,07726.2661,W,0.61,15.18,260821,,,A*49
$GPGGA,222536.750,4308.2873,N,07726.2661,W,1,04,5.60,163.1,M,-34.4,M,,*54
$GPRMC,222537.000,A,4308.2873,N,07726.2661,W,0.64,10.44,260821,,,A*45
$GPGGA,222537.250,4308.2874,N,07726.2661,W,1,04,5.74,163.0,M,-34.4,M,,*53
$GPRMC,222537.500,A,4308.2874,N,07726.2661,W,0.62,13.53,260821,,,A*44
$GPGGA,222537.750,4308.2873,N,07726.2661,W,1,04,5.74,163.0,M,-34.4,M,,*51
$GPRMC,222538.000,A,4308.2872,N,07726.2662,W,0.52,11.35,260821,,,A*4A
$GPGGA,222538.250,4308.2873,N,07726.2662,W,1,04,5.74,162.9,M,-34.4,M,,*50
$GPRMC,222538.500,A,4308.2874,N,07726.2662,W,0.56,6.20,260821,,,A*7F
$GPGGA,222538.750,4308.2874,N,07726.2661,W,1,04,5.74,162.9,M,-34.4,M,,*51
$GPRMC,222539.000,A,4308.2874,N,07726.2662,W,0.58,5.43,260821,,,A*73
$GPGGA,222539.250,4308.2874,N,07726.2662,W,1,04,5.74,162.9,M,-34.4,M,,*56
$GPRMC,222539.500,A,4308.2873,N,07726.2662,W,0.57,359.08,260821,,,A*7B
$GPGGA,222539.750,4308.2873,N,07726.2663,W,1,04,5.74,162.9,M,-34.4,M,,*55
$GPRMC,222540.000,A,4308.2872,N,07726.2663,W,0.52,358.47,260821,,,A*7F
$GPGGA,222540.250,4308.2873,N,07726.2662,W,1,04,5.74,162.9,M,-34.4,M,,*5F
$GPRMC,222540.500,A,4308.2873,N,07726.2662,W,0.54,0.16,260821,,,A*76
$GPGGA,222540.750,4308.2872,N,07726.2663,W,1,04,5.74,162.9,M,-34.4,M,,*5A
$GPRMC,222541.000,A,4308.2870,N,07726.2663,W,0.36,359.92,260821,,,A*77
$GPGGA,222541.250,4308.2870,N,07726.2663,W,1,04,5.74,162.9,M,-34.4,M,,*5C
$GPRMC,222541.500,A,4308.2870,N,07726.2663,W,0.27,9.21,260821,,,A*7C
$GPGGA,222541.750,4308.2870,N,07726.2663,W,1,04,5.74,162.9,M,-34.4,M,,*59
$GPRMC,222542.000,A,4308.2870,N,07726.2663,W,0.28,354.12,260821,,,A*7E
$GPGGA,222542.250,4308.2871,N,07726.2663,W,1,04,5.74,162.9,M,-34.4,M,,*5E
$GPRMC,222542.500,A,4308.2871,N,07726.2663,W,0.37,352.33,260821,,,A*71
$GPGGA,222542.750,4308.2871,N,07726.2663,W,1,04,5.74,162.9,M,-34.4,M,,*5B
$GPRMC,222543.000,A,4308.2871,N,07726.2663,W,0.44,353.66,260821,,,A*70
$GPGGA,222543.250,4308.2872,N,07726.2663,W,1,04,5.74,162.8,M,-34.4,M,,*5D
$GPRMC,222543.500,A,4308.2872,N,07726.2663,W,0.47,358.65,260821,,,A*7D
$GPGGA,222543.750,4308.2872,N,07726.2663,W,1,04,5.74,162.8,M,-34.4,M,,*58
$GPRMC,222544.000,A,4308.2873,N,07726.2663,W,0.51,2.59,260821,,,A*7A
