Vers 81
USE_SERIAL_FEEDBACK=true
DEVELOPMENT_MODE=false
USE_RMC_ONLY=false

$GPRMC,205304.500,A,3749.5271,N,07823.3794,W,0.24,223.05,310721,,,A*70
$GPGGA,205304.750,3749.5272,N,07823.3795,W,1,04,8.40,194.1,M,-33.2,M,,*5B
$GPRMC,205305.000,A,3749.5273,N,07823.3795,W,0.51,198.70,310721,,,A*74
$GPGGA,205305.250,3749.5274,N,07823.3794,W,1,04,8.40,193.7,M,-33.2,M,,*59
$GPRMC,205305.500,A,3749.5276,N,07823.3794,W,0.46,141.33,310721,,,A*70
$GPGGA,205305.750,3749.5280,N,07823.3795,W,1,04,8.40,193.1,M,-33.2,M,,*50
$GPRMC,205306.000,A,3749.5286,N,07823.3795,W,0.24,187.31,310721,,,A*74
$GPGGA,205306.250,3749.5289,N,07823.3796,W,1,04,8.40,192.5,M,-33.2,M,,*59
$GPRMC,205306.500,A,3749.5293,N,07823.3796,W,0.25,192.93,310721,,,A*7B
$GPGGA,205306.750,3749.5301,N,07823.3797,W,1,04,8.39,191.7,M,-33.2,M,,*53
$GPRMC,205307.000,A,3749.5307,N,07823.3798,W,0.43,257.95,310721,,,A*71
$GPGGA,205307.250,3749.5313,N,07823.3799,W,1,04,8.39,191.0,M,-33.2,M,,*5D
$GPRMC,205307.500,A,3749.5320,N,07823.3799,W,0.42,354.36,310721,,,A*7A
$GPGGA,205307.750,3749.5324,N,07823.3800,W,1,04,48.15,190.3,M,-33.2,M,,*6B
$GPRMC,205308.000,A,3749.5325,N,07823.3799,W,0.71,32.36,310721,,,A*46
$GPGGA,205308.250,3749.5328,N,07823.3799,W,1,04,8.39,190.0,M,-33.2,M,,*5B
$GPRMC,205308.500,A,3749.5333,N,07823.3800,W,0.77,7.84,310721,,,A*72
$GPGGA,205308.750,3749.5336,N,07823.3800,W,1,04,47.90,189.8,M,-33.2,M,,*66
$GPRMC,205309.000,A,3749.5338,N,07823.3800,W,0.99,15.24,310721,,,A*44
$GPGGA,205309.250,3749.5340,N,07823.3799,W,1,04,8.38,189.5,M,-33.2,M,,*58
$GPRMC,205309.500,A,3749.5340,N,07823.3799,W,0.67,350.38,310721,,,A*7F
$GPGGA,205309.750,3749.5341,N,07823.3799,W,1,04,47.66,189.1,M,-33.2,M,,*68
$GPRMC,205310.000,A,3749.5340,N,07823.3799,W,0.62,333.01,310721,,,A*78
$GPGGA,205310.250,3749.5339,N,07823.3798,W,1,04,8.38,188.7,M,-33.2,M,,*5C
$GPRMC,205310.500,A,3749.5338,N,07823.3798,W,0.39,352.19,310721,,,A*73
$GPGGA,205310.750,3749.5336,N,07823.3797,W,1,04,47.40,188.7,M,-33.2,M,,*6D
$GPRMC,205311.000,A,3749.5337,N,07823.3797,W,0.51,8.59,310721,,,A*71
$GPGGA,205311.250,3749.5337,N,07823.3796,W,1,04,47.30,188.5,M,-33.2,M,,*6C
$GPRMC,205311.500,A,3749.5339,N,07823.3796,W,0.68,13.52,310721,,,A*40
$GPGGA,205311.750,3749.5341,N,07823.3797,W,1,04,47.16,188.5,M,-33.2,M,,*6D
$GPRMC,205312.000,A,3749.5344,N,07823.3797,W,0.99,351.04,310721,,,A*75
$GPGGA,205312.250,3749.5342,N,07823.3796,W,1,04,47.05,188.4,M,-33.2,M,,*6A
$GPRMC,205312.500,A,3749.5340,N,07823.3796,W,0.85,332.24,310721,,,A*7F
$GPGGA,205312.750,3749.5338,N,07823.3797,W,1,04,8.38,188.5,M,-33.2,M,,*57
$GPRMC,205313.000,A,3749.5335,N,07823.3796,W,0.72,331.53,310721,,,A*72
$GPGGA,205313.250,3749.5332,N,07823.3796,W,1,04,8.37,188.7,M,-33.2,M,,*55
$GPRMC,205313.500,V,,,,,0.41,318.19,310721,,,N*4F
$GPGGA,205313.750,,,,,0,04,,,M,,M,,*78
$GPRMC,205313.750,V,,,,,0.24,350.37,310721,,,N*4B
$GPGGA,205314.000,,,,,0,04,,,M,,M,,*7D
$GPRMC,205314.000,V,,,,,0.26,357.58,310721,,,N*42
$GPGGA,205314.250,,,,,0,04,,,M,,M,,*7A
$GPRMC,205314.250,V,,,,,0.33,25.11,310721,,,N*7A
$GPGGA,205314.500,,,,,0,04,,,M,,M,,*78
$GPRMC,205314.500,V,,,,,0.25,41.31,310721,,,N*7F
$GPGGA,205314.750,,,,,0,04,,,M,,M,,*7F
$GPRMC,205314.750,V,,,,,0.09,15.45,310721,,,N*74
$GPGGA,205315.000,,,,,0,04,,,M,,M,,*7C
$GPRMC,205315.000,V,,,,,0.28,16.50,310721,,,N*73
$GPGGA,205315.250,,,,,0,04,,,M,,M,,*7B
$GPRMC,205315.250,V,,,,,0.42,20.73,310721,,,N*7C
$GPGGA,205315.500,,,,,0,04,,,M,,M,,*79
$GPRMC,205315.500,V,,,,,0.41,16.10,310721,,,N*7D
$GPGGA,205315.750,,,,,0,04,,,M,,M,,*7E
$GPRMC,205315.750,V,,,,,0.40,355.18,310721,,,N*47
$GPGGA,205316.000,,,,,0,04,,,M,,M,,*7F
$GPRMC,205316.000,V,,,,,0.62,343.93,310721,,,N*42
$GPGGA,205316.250,,,,,0,04,,,M,,M,,*78
$GPRMC,205316.250,V,,,,,0.60,353.28,310721,,,N*46
$GPGGA,205316.500,,,,,0,04,,,M,,M,,*7A
$GPRMC,205316.500,V,,,,,0.79,16.38,310721,,,N*7F
$GPGGA,205316.750,,,,,0,04,,,M,,M,,*7D
$GPRMC,205316.750,V,,,,,0.83,4.39,310721,,,N*4F
$GPGGA,205317.000,,,,,0,04,,,M,,M,,*7E
$GPRMC,205317.000,V,,,,,0.65,0.12,310721,,,N*49
$GPGGA,205317.250,,,,,0,04,,,M,,M,,*79
$GPRMC,205317.250,V,,,,,0.62,5.94,310721,,,N*42
$GPGGA,205317.500,,,,,0,04,,,M,,M,,*7B
$GPRMC,205317.500,V,,,,,0.45,3.50,310721,,,N*4B
$GPGGA,205317.750,,,,,0,04,,,M,,M,,*7C
$GPRMC,205317.750,V,,,,,0.42,17.43,310721,,,N*7C
$GPGGA,205318.000,,,,,0,04,,,M,,M,,*71
$GPRMC,205318.000,V,,,,,0.41,359.61,310721,,,N*4B
$GPGGA,205318.250,,,,,0,04,,,M,,M,,*76
$GPRMC,205318.250,V,,,,,0.40,356.25,310721,,,N*42
$GPGGA,205318.500,,,,,0,04,,,M,,M,,*74
$GPRMC,205318.500,V,,,,,0.28,343.75,310721,,,N*4F
$GPGGA,205318.750,,,,,0,04,,,M,,M,,*73
$GPRMC,205318.750,V,,,,,0.32,353.52,310721,,,N*47
$GPGGA,205319.000,,,,,0,04,,,M,,M,,*70
$GPRMC,205319.000,V,,,,,0.47,344.66,310721,,,N*47
$GPGGA,205319.250,,,,,0,04,,,M,,M,,*77
$GPRMC,205319.250,V,,,,,0.54,1.77,310721,,,N*40
$GPGGA,205319.500,,,,,0,04,,,M,,M,,*75
$GPRMC,205319.500,V,,,,,0.59,351.17,310721,,,N*4F
$GPGGA,205319.750,,,,,0,04,,,M,,M,,*72
$GPRMC,205319.750,V,,,,,0.64,324.79,310721,,,N*4C
$GPGGA,205320.000,,,,,0,04,,,M,,M,,*7A
$GPRMC,205320.000,V,,,,,0.54,322.42,310721,,,N*49
$GPGGA,205320.250,,,,,0,04,,,M,,M,,*7D
$GPRMC,205320.250,V,,,,,0.33,338.56,310721,,,N*41
$GPGGA,205320.500,,,,,0,04,,,M,,M,,*7F
$GPRMC,205320.500,V,,,,,0.24,9.96,310721,,,N*48
$GPGGA,205320.750,,,,,0,04,,,M,,M,,*78
$GPRMC,205320.750,V,,,,,0.13,13.48,310721,,,N*73
$GPGGA,205321.000,,,,,0,04,,,M,,M,,*7B
$GPRMC,205321.000,V,,,,,0.15,76.95,310721,,,N*75
$GPGGA,205321.250,,,,,0,04,,,M,,M,,*7C
$GPRMC,205321.250,V,,,,,0.14,37.04,310721,,,N*7E
$GPGGA,205321.500,,,,,0,04,,,M,,M,,*7E
$GPRMC,205321.500,V,,,,,0.36,327.80,310721,,,N*42
$GPGGA,205321.750,,,,,0,04,,,M,,M,,*79
$GPRMC,205321.750,V,,,,,0.69,331.40,310721,,,N*44
$GPGGA,205322.000,,,,,0,04,,,M,,M,,*78
$GPRMC,205322.000,V,,,,,0.82,346.50,310721,,,N*41
$GPGGA,205322.250,,,,,0,04,,,M,,M,,*7F
$GPRMC,205322.250,V,,,,,0.87,345.49,310721,,,N*48
$GPGGA,205322.500,,,,,0,04,,,M,,M,,*7D
$GPRMC,205322.500,V,,,,,0.93,335.96,310721,,,N*4A
$GPGGA,205322.750,,,,,0,04,,,M,,M,,*7A
$GPRMC,205322.750,V,,,,,0.83,356.32,310721,,,N*47
$GPGGA,205323.000,,,,,0,04,,,M,,M,,*79
$GPRMC,205323.000,V,,,,,0.77,358.09,310721,,,N*49
$GPGGA,205323.250,,,,,0,04,,,M,,M,,*7E
$GPRMC,205323.250,V,,,,,0.71,1.57,310721,,,N*4C
$GPGGA,205323.500,,,,,0,04,,,M,,M,,*7C
$GPRMC,205323.500,V,,,,,0.98,350.78,310721,,,N*43
$GPGGA,205323.750,,,,,0,04,,,M,,M,,*7B
$GPRMC,205323.750,V,,,,,1.19,352.69,310721,,,N*4E
$GPGGA,205324.000,,,,,0,04,,,M,,M,,*7E
$GPRMC,205324.000,V,,,,,1.35,349.53,310721,,,N*46
$GPGGA,205324.250,,,,,0,04,,,M,,M,,*79
$GPRMC,205324.250,V,,,,,1.12,353.59,310721,,,N*45
$GPGGA,205324.500,,,,,0,04,,,M,,M,,*7B
$GPRMC,205324.500,V,,,,,0.73,5.70,310721,,,N*4A
$GPGGA,205324.750,,,,,0,04,,,M,,M,,*7C
$GPRMC,205324.750,V,,,,,0.24,22.87,310721,,,N*72
$GPGGA,205325.000,,,,,0,04,,,M,,M,,*7F
$GPRMC,205325.000,V,,,,,0.22,74.34,310721,,,N*7C
$GPGGA,205325.250,,,,,0,04,,,M,,M,,*78
$GPRMC,205325.250,V,,,,,0.36,123.31,310721,,,N*48
$GPGGA,205325.500,,,,,0,04,,,M,,M,,*7A
$GPRMC,205325.500,V,,,,,0.56,146.54,310721,,,N*4C
$GPGGA,205325.750,,,,,0,04,,,M,,M,,*7D
$GPRMC,205325.750,V,,,,,0.70,170.59,310721,,,N*47
$GPGGA,205326.000,,,,,0,04,,,M,,M,,*7C
$GPRMC,205326.000,V,,,,,0.59,172.44,310721,,,N*43
$GPGGA,205326.250,,,,,0,04,,,M,,M,,*7B
$GPRMC,205326.250,V,,,,,0.69,173.85,310721,,,N*4B
$GPGGA,205326.500,,,,,0,04,,,M,,M,,*79
$GPRMC,205326.500,V,,,,,0.91,186.18,310721,,,N*40
$GPGGA,205326.750,,,,,0,04,,,M,,M,,*7E
$GPRMC,205326.750,V,,,,,1.05,183.43,310721,,,N*40
$GPGGA,205327.000,,,,,0,04,,,M,,M,,*7D
$GPRMC,205327.000,V,,,,,1.05,179.93,310721,,,N*4B
$GPGGA,205327.250,,,,,0,04,,,M,,M,,*7A
$GPRMC,205327.250,V,,,,,1.03,175.23,310721,,,N*4D
$GPGGA,205327.500,,,,,0,04,,,M,,M,,*78
$GPRMC,205327.500,V,,,,,0.99,183.41,310721,,,N*40
$GPGGA,205327.750,,,,,0,04,,,M,,M,,*7F
$GPRMC,205327.750,V,,,,,0.92,184.71,310721,,,N*48
$GPGGA,205328.000,,,,,0,04,,,M,,M,,*72
$GPRMC,205328.000,V,,,,,0.86,196.07,310721,,,N*42
$GPGGA,205328.250,3749.5296,N,07823.3787,W,1,04,8.32,186.6,M,-33.2,M,,*58
$GPRMC,205328.500,A,3749.5296,N,07823.3787,W,0.66,195.01,310721,,,A*79
$GPGGA,205328.750,3749.5298,N,07823.3787,W,1,04,8.32,186.7,M,-33.2,M,,*52
$GPRMC,205329.000,A,3749.5297,N,07823.3787,W,0.55,181.10,310721,,,A*79
$GPGGA,205329.250,3749.5296,N,07823.3786,W,1,04,8.31,186.8,M,-33.2,M,,*55
$GPRMC,205329.500,A,3749.5296,N,07823.3786,W,0.41,145.90,310721,,,A*79
$GPGGA,205329.750,3749.5295,N,07823.3785,W,1,04,8.31,187.0,M,-33.2,M,,*59
$GPRMC,205330.000,A,3749.5295,N,07823.3785,W,0.17,175.68,310721,,,A*73
$GPGGA,205330.250,3749.5295,N,07823.3785,W,1,04,8.31,187.1,M,-33.2,M,,*55
$GPRMC,205330.500,A,3749.5292,N,07823.3784,W,0.52,161.20,310721,,,A*78
$GPGGA,205330.750,3749.5291,N,07823.3784,W,1,04,8.31,187.2,M,-33.2,M,,*56
$GPRMC,205331.000,A,3749.5289,N,07823.3784,W,0.64,192.70,310721,,,A*7A
$GPGGA,205331.250,3749.5287,N,07823.3784,W,1,04,8.31,187.4,M,-33.2,M,,*53
$GPRMC,205331.500,A,3749.5287,N,07823.3784,W,0.55,193.48,310721,,,A*79
$GPGGA,205331.750,3749.5286,N,07823.3784,W,1,04,8.30,187.5,M,-33.2,M,,*57
$GPRMC,205332.000,A,3749.5285,N,07823.3783,W,0.39,181.90,310721,,,A*76
$GPGGA,205332.250,3749.5284,N,07823.3783,W,1,04,8.30,187.7,M,-33.2,M,,*56
$GPRMC,205332.500,A,3749.5284,N,07823.3783,W,0.30,161.98,310721,,,A*7D
$GPGGA,205332.750,3749.5284,N,07823.3783,W,1,04,8.30,187.8,M,-33.2,M,,*5C
$GPRMC,205333.000,A,3749.5283,N,07823.3782,W,0.27,99.55,310721,,,A*4E
$GPGGA,205333.250,3749.5283,N,07823.3782,W,1,04,8.30,188.1,M,-33.2,M,,*58
$GPRMC,205333.500,A,3749.5282,N,07823.3782,W,0.14,197.60,310721,,,A*73
$GPGGA,205333.750,3749.5280,N,07823.3782,W,1,04,8.30,188.4,M,-33.2,M,,*5B
$GPRMC,205334.000,A,3749.5278,N,07823.3781,W,0.19,126.98,310721,,,A*77
$GPGGA,205334.250,3749.5276,N,07823.3780,W,1,04,8.30,188.5,M,-33.2,M,,*53
$GPRMC,205334.500,A,3749.5274,N,07823.3780,W,0.25,109.14,310721,,,A*79
$GPGGA,205334.750,3749.5274,N,07823.3779,W,1,04,8.30,188.8,M,-33.2,M,,*5F
$GPRMC,205335.000,A,3749.5270,N,07823.3778,W,0.38,86.39,310721,,,A*4B
$GPGGA,205335.250,3749.5265,N,07823.3778,W,1,04,8.30,189.4,M,-33.2,M,,*57
$GPRMC,205335.500,A,3749.5267,N,07823.3778,W,0.16,2.05,310721,,,A*77
$GPGGA,205335.750,3749.5268,N,07823.3778,W,1,04,42.05,189.5,M,-33.2,M,,*66
$GPRMC,205336.000,A,3749.5268,N,07823.3779,W,0.29,328.74,310721,,,A*7E
$GPGGA,205336.250,3749.5269,N,07823.3779,W,1,04,8.29,189.4,M,-33.2,M,,*51
$GPRMC,205336.500,A,3749.5272,N,07823.3779,W,0.49,352.59,310721,,,A*74
$GPGGA,205336.750,3749.5275,N,07823.3779,W,1,04,41.88,189.5,M,-33.2,M,,*6E
$GPRMC,205337.000,A,3749.5278,N,07823.3779,W,0.62,2.07,310721,,,A*7E
$GPGGA,205337.250,3749.5282,N,07823.3780,W,1,04,41.80,189.5,M,-33.2,M,,*6C
$GPRMC,205337.500,A,3749.5284,N,07823.3780,W,0.71,0.57,310721,,,A*7B
$GPGGA,205337.750,3749.5286,N,07823.3780,W,1,04,41.69,189.5,M,-33.2,M,,*6A
$GPRMC,205338.000,A,3749.5288,N,07823.3781,W,0.79,331.17,310721,,,A*71
$GPGGA,205338.250,3749.5291,N,07823.3781,W,1,04,8.29,189.3,M,-33.2,M,,*58
$GPRMC,205338.500,A,3749.5296,N,07823.3782,W,0.84,345.12,310721,,,A*7C
$GPGGA,205338.750,3749.5305,N,07823.3783,W,1,04,41.50,188.9,M,-33.2,M,,*6B
$GPRMC,205339.000,A,3749.5309,N,07823.3783,W,1.07,7.20,310721,,,A*70
$GPGGA,205339.250,3749.5314,N,07823.3782,W,1,04,41.41,188.4,M,-33.2,M,,*63
$GPRMC,205339.500,A,3749.5324,N,07823.3782,W,1.17,30.08,310721,,,A*44
$GPGGA,205339.750,3749.5348,N,07823.3786,W,1,04,8.27,187.8,M,-33.2,M,,*55
$GPRMC,205340.000,A,3749.5359,N,07823.3787,W,1.81,1.05,310721,,,A*70
$GPGGA,205340.250,3749.5368,N,07823.3787,W,1,04,41.22,186.8,M,-33.2,M,,*64
$GPRMC,205340.500,A,3749.5375,N,07823.3787,W,1.16,0.06,310721,,,A*77
$GPGGA,205340.750,3749.5378,N,07823.3786,W,1,04,41.12,185.8,M,-33.2,M,,*61
$GPRMC,205341.000,A,3749.5388,N,07823.3787,W,0.55,9.08,310721,,,A*70
$GPGGA,205341.250,3749.5398,N,07823.3788,W,1,04,41.03,185.1,M,-33.2,M,,*6C
$GPRMC,205341.500,A,3749.5403,N,07823.3788,W,0.62,354.92,310721,,,A*72
$GPGGA,205341.750,3749.5405,N,07823.3788,W,1,04,40.98,184.5,M,-33.2,M,,*6C
$GPRMC,205342.000,A,3749.5409,N,07823.3788,W,0.14,316.13,310721,,,A*70
$GPGGA,205342.250,3749.5413,N,07823.3789,W,1,04,8.26,184.0,M,-33.2,M,,*50
$GPRMC,205342.500,A,3749.5414,N,07823.3789,W,0.10,260.83,310721,,,A*75
$GPGGA,205342.750,3749.5417,N,07823.3789,W,1,04,8.27,183.7,M,-33.2,M,,*50
$GPRMC,205343.000,A,3749.5423,N,07823.3790,W,0.36,352.82,310721,,,A*78
$GPGGA,205343.250,3749.5432,N,07823.3791,W,1,04,40.68,183.2,M,-33.2,M,,*68
$GPRMC,205343.500,A,3749.5435,N,07823.3792,W,0.69,332.29,310721,,,A*75
$GPGGA,205343.750,3749.5438,N,07823.3792,W,1,04,8.26,182.9,M,-33.2,M,,*58
$GPRMC,205344.000,A,3749.5440,N,07823.3792,W,0.88,5.74,310721,,,A*75
$GPGGA,205344.250,3749.5443,N,07823.3792,W,1,04,40.50,182.6,M,-33.2,M,,*64
$GPRMC,205344.500,A,3749.5446,N,07823.3792,W,0.81,5.09,310721,,,A*75
$GPGGA,205344.750,3749.5448,N,07823.3792,W,1,04,40.44,182.2,M,-33.2,M,,*6B
$GPRMC,205345.000,A,3749.5452,N,07823.3792,W,0.58,353.96,310721,,,A*76
$GPGGA,205345.250,3749.5455,N,07823.3792,W,1,04,40.30,181.7,M,-33.2,M,,*66
$GPRMC,205345.500,A,3749.5459,N,07823.3793,W,0.72,347.15,310721,,,A*7F
$GPGGA,205345.750,3749.5463,N,07823.3793,W,1,04,40.24,181.3,M,-33.2,M,,*66
$GPRMC,205346.000,A,3749.5468,N,07823.3794,W,1.34,345.67,310721,,,A*78
$GPGGA,205346.250,3749.5471,N,07823.3795,W,1,04,40.15,181.3,M,-33.2,M,,*67
$GPRMC,205346.500,A,3749.5472,N,07823.3795,W,1.72,1.38,310721,,,A*7C
$GPGGA,205346.750,3749.5473,N,07823.3794,W,1,04,40.07,181.2,M,-33.2,M,,*63
$GPRMC,205347.000,A,3749.5474,N,07823.3794,W,1.62,13.94,310721,,,A*4B
$GPGGA,205347.250,3749.5477,N,07823.3794,W,1,04,39.96,181.1,M,-33.2,M,,*66
$GPRMC,205347.500,A,3749.5478,N,07823.3793,W,1.67,17.96,310721,,,A*46
$GPGGA,205347.750,3749.5477,N,07823.3792,W,1,04,8.25,181.0,M,-33.2,M,,*5E
$GPRMC,205348.000,A,3749.5477,N,07823.3792,W,1.39,13.70,310721,,,A*45
$GPGGA,205348.250,3749.5479,N,07823.3792,W,1,04,39.80,181.0,M,-33.2,M,,*67
$GPRMC,205348.500,A,3749.5482,N,07823.3792,W,1.92,8.93,310721,,,A*7C
$GPGGA,205348.750,3749.5484,N,07823.3792,W,1,04,39.72,180.9,M,-33.2,M,,*65
$GPRMC,205349.000,A,3749.5484,N,07823.3791,W,1.91,13.33,310721,,,A*4E
$GPGGA,205349.250,3749.5484,N,07823.3791,W,1,04,39.63,181.0,M,-33.2,M,,*6A
$GPRMC,205349.500,A,3749.5483,N,07823.3791,W,1.75,9.38,310721,,,A*76
$GPGGA,205349.750,3749.5484,N,07823.3791,W,1,04,39.56,181.1,M,-33.2,M,,*68
$GPRMC,205350.000,A,3749.5488,N,07823.3791,W,2.12,6.64,310721,,,A*74
$GPGGA,205350.250,3749.5489,N,07823.3791,W,1,04,39.47,181.3,M,-33.2,M,,*6A
$GPRMC,205350.500,A,3749.5491,N,07823.3791,W,2.31,3.71,310721,,,A*79
$GPGGA,205350.750,3749.5492,N,07823.3791,W,1,04,39.37,181.4,M,-33.2,M,,*65
$GPRMC,205351.000,A,3749.5494,N,07823.3791,W,2.55,359.75,310721,,,A*72
$GPGGA,205351.250,3749.5494,N,07823.3791,W,1,04,39.30,181.4,M,-33.2,M,,*60
$GPRMC,205351.500,A,3749.5497,N,07823.3791,W,2.48,357.95,310721,,,A*78
$GPGGA,205351.750,3749.5501,N,07823.3791,W,1,04,39.21,181.3,M,-33.2,M,,*6F
$GPRMC,205352.000,A,3749.5505,N,07823.3792,W,2.77,1.25,310721,,,A*70
$GPGGA,205352.250,3749.5508,N,07823.3792,W,1,04,39.12,181.2,M,-33.2,M,,*62
$GPRMC,205352.500,A,3749.5510,N,07823.3792,W,2.80,4.47,310721,,,A*78
$GPGGA,205352.750,3749.5513,N,07823.3791,W,1,04,39.04,181.0,M,-33.2,M,,*6B
$GPRMC,205353.000,A,3749.5517,N,07823.3791,W,3.05,9.27,310721,,,A*7F
$GPGGA,205353.250,3749.5520,N,07823.3791,W,1,04,38.98,180.9,M,-33.2,M,,*63
$GPRMC,205353.500,A,3749.5524,N,07823.3791,W,3.22,6.84,310721,,,A*79
$GPGGA,205353.750,3749.5529,N,07823.3791,W,1,04,38.84,180.8,M,-33.2,M,,*63
$GPRMC,205354.000,A,3749.5532,N,07823.3790,W,3.32,6.90,310721,,,A*79
$GPGGA,205354.250,3749.5534,N,07823.3790,W,1,04,38.77,180.7,M,-33.2,M,,*6F
$GPRMC,205354.500,A,3749.5536,N,07823.3790,W,3.28,4.91,310721,,,A*70
$GPGGA,205354.750,3749.5535,N,07823.3789,W,1,04,38.70,180.7,M,-33.2,M,,*64
$GPRMC,205355.000,A,3749.5537,N,07823.3789,W,3.19,7.14,310721,,,A*71
$GPGGA,205355.250,3749.5538,N,07823.3788,W,1,04,38.64,180.7,M,-33.2,M,,*69
$GPRMC,205355.500,A,3749.5539,N,07823.3788,W,2.91,3.86,310721,,,A*75
$GPGGA,205355.750,3749.5540,N,07823.3788,W,1,04,38.56,180.5,M,-33.2,M,,*60
$GPRMC,205356.000,A,3749.5541,N,07823.3787,W,2.50,4.91,310721,,,A*7F
$GPGGA,205356.250,3749.5787,N,07823.3807,W,1,05,1.68,162.8,M,-33.2,M,,*50
$GPRMC,205356.500,A,3749.5809,N,07823.3808,W,2.94,357.38,310721,,,A*7D
$GPGGA,205356.750,3749.5816,N,07823.3809,W,1,05,1.68,160.5,M,-33.2,M,,*53
$GPRMC,205357.000,A,3749.5822,N,07823.3809,W,2.51,359.69,310721,,,A*72
$GPGGA,205357.250,3749.5826,N,07823.3810,W,1,05,1.68,160.0,M,-33.2,M,,*59
$GPRMC,205357.500,A,3749.5829,N,07823.3810,W,2.54,0.38,310721,,,A*7A
$GPGGA,205357.750,3749.5831,N,07823.3810,W,1,05,1.68,159.7,M,-33.2,M,,*57
$GPRMC,205358.000,A,3749.5834,N,07823.3810,W,2.49,0.09,310721,,,A*72
$GPGGA,205358.250,3749.5836,N,07823.3811,W,1,05,1.68,159.5,M,-33.2,M,,*59
$GPRMC,205358.500,A,3749.5837,N,07823.3811,W,2.25,357.46,310721,,,A*75
$GPGGA,205358.750,3749.5839,N,07823.3812,W,1,05,1.68,159.3,M,-33.2,M,,*56
$GPRMC,205359.000,A,3749.5841,N,07823.3812,W,2.14,350.75,310721,,,A*76
$GPGGA,205359.250,3749.5842,N,07823.3812,W,1,05,1.68,159.0,M,-33.2,M,,*5D
$GPRMC,205359.500,A,3749.5844,N,07823.3813,W,2.26,350.40,310721,,,A*70
$GPGGA,205359.750,3749.5846,N,07823.3813,W,1,05,1.67,159.1,M,-33.2,M,,*53
$GPRMC,205400.000,A,3749.5847,N,07823.3814,W,1.93,0.91,310721,,,A*7D
$GPGGA,205400.250,3749.5848,N,07823.3814,W,1,05,1.68,159.0,M,-33.2,M,,*5A
$GPRMC,205400.500,A,3749.5849,N,07823.3814,W,1.66,355.71,310721,,,A*71
$GPGGA,205400.750,3749.5851,N,07823.3815,W,1,05,1.68,159.1,M,-33.2,M,,*57
$GPRMC,205401.000,A,3749.5851,N,07823.3815,W,1.63,346.32,310721,,,A*7D
$GPGGA,205401.250,3749.5853,N,07823.3816,W,1,05,1.67,159.2,M,-33.2,M,,*5E
$GPRMC,205401.500,A,3749.5855,N,07823.3816,W,2.29,355.24,310721,,,A*77
$GPGGA,205401.750,3749.5857,N,07823.3816,W,1,05,1.67,159.2,M,-33.2,M,,*5F
$GPRMC,205402.000,A,3749.5858,N,07823.3817,W,2.50,353.12,310721,,,A*70
$GPGGA,205402.250,3749.5859,N,07823.3817,W,1,06,1.43,159.3,M,-33.2,M,,*52
$GPRMC,205402.500,A,3749.5861,N,07823.3817,W,2.16,354.26,310721,,,A*7D
$GPGGA,205402.750,3749.5862,N,07823.3818,W,1,06,1.43,159.3,M,-33.2,M,,*50
$GPRMC,205403.000,A,3749.5864,N,07823.3818,W,2.34,342.76,310721,,,A*71
$GPGGA,205403.250,3749.5866,N,07823.3819,W,1,06,1.37,159.4,M,-33.2,M,,*55
$GPRMC,205403.500,A,3749.5867,N,07823.3820,W,2.44,342.25,310721,,,A*7D
$GPGGA,205403.750,3749.5868,N,07823.3820,W,1,06,1.37,159.3,M,-33.2,M,,*53
$GPRMC,205404.000,A,3749.5870,N,07823.3820,W,2.42,346.15,310721,,,A*78
$GPGGA,205404.250,3749.5871,N,07823.3821,W,1,06,1.43,159.3,M,-33.2,M,,*5B
$GPRMC,205404.500,A,3749.5872,N,07823.3822,W,2.57,331.31,310721,,,A*7F
$GPGGA,205404.750,3749.5873,N,07823.3823,W,1,06,1.37,159.2,M,-33.2,M,,*5C
$GPRMC,205405.000,A,3749.5872,N,07823.3824,W,1.80,314.78,310721,,,A*7E
$GPGGA,205405.250,3749.5873,N,07823.3825,W,1,06,1.37,159.0,M,-33.2,M,,*5C
$GPRMC,205405.500,A,3749.5873,N,07823.3826,W,1.55,306.12,310721,,,A*7F
$GPGGA,205405.750,3749.5873,N,07823.3827,W,1,06,1.37,158.9,M,-33.2,M,,*53
$GPRMC,205406.000,A,3749.5872,N,07823.3828,W,1.08,264.51,310721,,,A*7C
$GPGGA,205406.250,3749.5871,N,07823.3828,W,1,06,1.37,158.8,M,-33.2,M,,*59
$GPRMC,205406.500,A,3749.5870,N,07823.3828,W,0.82,246.15,310721,,,A*78
$GPGGA,205406.750,3749.5869,N,07823.3828,W,1,06,1.37,158.6,M,-33.2,M,,*5B
$GPRMC,205407.000,A,3749.5869,N,07823.3828,W,0.59,233.92,310721,,,A*7F
$GPGGA,205407.250,3749.5868,N,07823.3828,W,1,06,1.37,158.4,M,-33.2,M,,*5C
$GPRMC,205407.500,A,3749.5870,N,07823.3828,W,0.27,263.63,310721,,,A*70
$GPGGA,205407.750,3749.5869,N,07823.3827,W,1,06,1.37,158.3,M,-33.2,M,,*50
$GPRMC,205408.000,A,3749.5869,N,07823.3827,W,0.05,39.72,310721,,,A*40
$GPGGA,205408.250,3749.5870,N,07823.3827,W,1,06,1.37,158.1,M,-33.2,M,,*50
$GPRMC,205408.500,A,3749.5870,N,07823.3827,W,0.17,64.45,310721,,,A*42
$GPGGA,205408.750,3749.5870,N,07823.3826,W,1,06,1.37,158.1,M,-33.2,M,,*54
$GPRMC,205409.000,A,3749.5870,N,07823.3826,W,0.58,110.55,310721,,,A*7F
$GPGGA,205409.250,3749.5870,N,07823.3826,W,1,06,1.37,158.1,M,-33.2,M,,*50
$GPRMC,205409.500,A,3749.5869,N,07823.3825,W,1.03,92.37,310721,,,A*41
$GPGGA,205409.750,3749.5869,N,07823.3824,W,1,06,1.37,158.1,M,-33.2,M,,*5F
$GPRMC,205410.000,A,3749.5870,N,07823.3823,W,2.15,77.69,310721,,,A*46
$GPGGA,205410.250,3749.5870,N,07823.3820,W,1,06,1.37,158.1,M,-33.2,M,,*5E
$GPRMC,205410.500,A,3749.5871,N,07823.3817,W,3.26,71.90,310721,,,A*44
$GPGGA,205410.750,3749.5872,N,07823.3813,W,1,06,1.37,158.0,M,-33.2,M,,*58
$GPRMC,205411.000,A,3749.5873,N,07823.3810,W,4.05,70.00,310721,,,A*4B
$GPGGA,205411.250,3749.5874,N,07823.3806,W,1,06,1.43,158.0,M,-33.2,M,,*5D
$GPRMC,205411.500,A,3749.5875,N,07823.3802,W,4.76,69.20,310721,,,A*45
$GPGGA,205411.750,3749.5876,N,07823.3797,W,1,06,1.43,157.9,M,-33.2,M,,*5B
$GPRMC,205412.000,A,3749.5878,N,07823.3792,W,5.47,72.14,310721,,,A*46
$GPGGA,205412.250,3749.5879,N,07823.3787,W,1,06,1.43,157.8,M,-33.2,M,,*52
$GPRMC,205412.500,A,3749.5880,N,07823.3782,W,6.14,72.75,310721,,,A*47
$GPGGA,205412.750,3749.5881,N,07823.3776,W,1,06,1.43,157.8,M,-33.2,M,,*5E
$GPRMC,205413.000,A,3749.5882,N,07823.3770,W,6.60,72.61,310721,,,A*4A
$GPGGA,205413.250,3749.5884,N,07823.3764,W,1,06,1.43,157.7,M,-33.2,M,,*53
$GPRMC,205413.500,A,3749.5886,N,07823.3759,W,6.79,68.73,310721,,,A*40
$GPGGA,205413.750,3749.5888,N,07823.3753,W,1,06,1.43,157.6,M,-33.2,M,,*5F
$GPRMC,205414.000,A,3749.5890,N,07823.3746,W,7.33,69.13,310721,,,A*43
$GPGGA,205414.250,3749.5892,N,07823.3740,W,1,06,1.43,157.5,M,-33.2,M,,*57
$GPRMC,205414.500,A,3749.5895,N,07823.3734,W,7.52,66.95,310721,,,A*40
$GPGGA,205414.750,3749.5897,N,07823.3727,W,1,06,1.43,157.5,M,-33.2,M,,*56
$GPRMC,205415.000,A,3749.5900,N,07823.3721,W,8.22,65.14,310721,,,A*4F
$GPGGA,205415.250,3749.5903,N,07823.3714,W,1,05,30.36,157.5,M,-33.2,M,,*6D
$GPRMC,205415.500,A,3749.5906,N,07823.3707,W,8.52,64.09,310721,,,A*42
$GPGGA,205415.750,3749.5908,N,07823.3700,W,1,05,30.33,157.5,M,-33.2,M,,*63
$GPRMC,205416.000,A,3749.5911,N,07823.3693,W,8.79,65.13,310721,,,A*4D
$GPGGA,205416.250,3749.5913,N,07823.3686,W,1,05,30.34,157.5,M,-33.2,M,,*67
$GPRMC,205416.500,A,3749.5916,N,07823.3679,W,8.88,65.77,310721,,,A*47
$GPGGA,205416.750,3749.5919,N,07823.3672,W,1,05,30.28,157.6,M,-33.2,M,,*6D
$GPRMC,205417.000,A,3749.5922,N,07823.3665,W,9.09,64.23,310721,,,A*41
$GPGGA,205417.250,3749.5925,N,07823.3657,W,1,06,1.43,157.6,M,-33.2,M,,*5D
$GPRMC,205417.500,A,3749.5927,N,07823.3649,W,9.38,64.00,310721,,,A*4C
$GPGGA,205417.750,3749.5931,N,07823.3642,W,1,05,30.27,157.6,M,-33.2,M,,*6A
$GPRMC,205418.000,A,3749.5935,N,07823.3634,W,9.50,62.09,310721,,,A*4E
$GPGGA,205418.250,3749.5940,N,07823.3627,W,1,05,30.31,157.7,M,-33.2,M,,*63
$GPRMC,205418.500,A,3749.5945,N,07823.3620,W,9.73,59.09,310721,,,A*40
$GPGGA,205418.750,3749.5949,N,07823.3613,W,1,05,30.27,157.8,M,-33.2,M,,*60
$GPRMC,205419.000,A,3749.5952,N,07823.3606,W,9.66,58.37,310721,,,A*4E
$GPGGA,205419.250,3749.5955,N,07823.3599,W,1,05,5.43,157.9,M,-33.2,M,,*5D
$GPRMC,205419.500,A,3749.5959,N,07823.3592,W,9.42,58.61,310721,,,A*4B
$GPGGA,205419.750,3749.5962,N,07823.3585,W,1,05,30.25,158.1,M,-33.2,M,,*60
$GPRMC,205420.000,A,3749.5966,N,07823.3578,W,9.38,58.94,310721,,,A*4B
$GPGGA,205420.250,3749.5969,N,07823.3571,W,1,06,1.37,158.2,M,-33.2,M,,*5E
$GPRMC,205420.500,A,3749.5972,N,07823.3563,W,9.37,59.88,310721,,,A*42
$GPGGA,205420.750,3749.5976,N,07823.3556,W,1,06,1.43,158.3,M,-33.2,M,,*52
$GPRMC,205421.000,A,3749.5979,N,07823.3549,W,9.34,59.82,310721,,,A*4C
$GPGGA,205421.250,3749.5982,N,07823.3542,W,1,06,1.43,158.4,M,-33.2,M,,*5F
$GPRMC,205421.500,A,3749.5986,N,07823.3535,W,9.32,60.81,310721,,,A*4D
$GPGGA,205421.750,3749.5990,N,07823.3529,W,1,06,1.43,158.5,M,-33.2,M,,*55
$GPRMC,205422.000,A,3749.5994,N,07823.3522,W,9.34,61.46,310721,,,A*42
$GPGGA,205422.250,3749.5997,N,07823.3515,W,1,06,1.43,158.5,M,-33.2,M,,*5B
$GPRMC,205422.500,A,3749.6000,N,07823.3508,W,9.31,63.11,310721,,,A*4D
$GPGGA,205422.750,3749.6004,N,07823.3501,W,1,06,1.43,158.7,M,-33.2,M,,*59
$GPRMC,205423.000,A,3749.6007,N,07823.3495,W,9.11,64.65,310721,,,A*4D
$GPGGA,205423.250,3749.6011,N,07823.3488,W,1,06,1.43,158.9,M,-33.2,M,,*57
$GPRMC,205423.500,A,3749.6014,N,07823.3481,W,9.02,64.50,310721,,,A*4B
$GPGGA,205423.750,3749.6017,N,07823.3474,W,1,06,1.43,159.0,M,-33.2,M,,*5F
$GPRMC,205424.000,A,3749.6021,N,07823.3467,W,8.92,63.42,310721,,,A*4B
$GPGGA,205424.250,3749.6024,N,07823.3461,W,1,06,1.43,159.1,M,-33.2,M,,*58
$GPRMC,205424.500,A,3749.6027,N,07823.3454,W,8.84,62.72,310721,,,A*4D
$GPGGA,205424.750,3749.6030,N,07823.3448,W,1,06,1.43,159.2,M,-33.2,M,,*50
$GPRMC,205425.000,A,3749.6034,N,07823.3442,W,8.60,61.28,310721,,,A*4A
$GPGGA,205425.250,3749.6037,N,07823.3435,W,1,06,1.43,159.3,M,-33.2,M,,*58
$GPRMC,205425.500,A,3749.6040,N,07823.3429,W,8.46,59.92,310721,,,A*4F
$GPGGA,205425.750,3749.6044,N,07823.3423,W,1,06,1.43,159.4,M,-33.2,M,,*59
$GPRMC,205426.000,A,3749.6047,N,07823.3417,W,8.43,58.46,310721,,,A*4E
$GPGGA,205426.250,3749.6050,N,07823.3410,W,1,06,1.37,159.5,M,-33.2,M,,*58
$GPRMC,205426.500,A,3749.6053,N,07823.3404,W,8.57,57.88,310721,,,A*44
$GPGGA,205426.750,3749.6056,N,07823.3398,W,1,06,1.43,159.6,M,-33.2,M,,*5C
$GPRMC,205427.000,A,3749.6060,N,07823.3392,W,8.63,57.43,310721,,,A*48
$GPGGA,205427.250,3749.6063,N,07823.3385,W,1,06,1.37,159.8,M,-33.2,M,,*5F
$GPRMC,205427.500,A,3749.6065,N,07823.3379,W,8.64,56.68,310721,,,A*42
$GPGGA,205427.750,3749.6068,N,07823.3373,W,1,06,1.43,159.9,M,-33.2,M,,*5A
$GPRMC,205428.000,A,3749.6070,N,07823.3367,W,8.40,55.70,310721,,,A*4F
$GPGGA,205428.250,3749.6073,N,07823.3361,W,1,06,1.37,160.1,M,-33.2,M,,*58
$GPRMC,205428.500,A,3749.6076,N,07823.3355,W,8.38,55.34,310721,,,A*42
$GPGGA,205428.750,3749.6080,N,07823.3348,W,1,06,1.43,160.4,M,-33.2,M,,*5C
$GPRMC,205429.000,A,3749.6083,N,07823.3342,W,8.49,55.61,310721,,,A*4C
$GPGGA,205429.250,3749.6086,N,07823.3336,W,1,06,1.37,160.7,M,-33.2,M,,*57
$GPRMC,205429.500,A,3749.6090,N,07823.3330,W,8.58,54.99,310721,,,A*48
$GPGGA,205429.750,3749.6094,N,07823.3323,W,1,06,1.43,161.0,M,-33.2,M,,*50
$GPRMC,205430.000,A,3749.6098,N,07823.3317,W,8.68,55.00,310721,,,A*4A
$GPGGA,205430.250,3749.6102,N,07823.3310,W,1,06,1.43,161.3,M,-33.2,M,,*50
$GPRMC,205430.500,A,3749.6105,N,07823.3304,W,8.75,55.04,310721,,,A*40
$GPGGA,205430.750,3749.6108,N,07823.3297,W,1,06,1.43,161.5,M,-33.2,M,,*57
$GPRMC,205431.000,A,3749.6112,N,07823.3291,W,8.78,54.53,310721,,,A*41
$GPGGA,205431.250,3749.6115,N,07823.3284,W,1,06,1.43,161.7,M,-33.2,M,,*5F
$GPRMC,205431.500,A,3749.6119,N,07823.3278,W,8.86,55.00,310721,,,A*4E
$GPGGA,205431.750,3749.6122,N,07823.3271,W,1,06,1.43,161.9,M,-33.2,M,,*5A
$GPRMC,205432.000,A,3749.6126,N,07823.3264,W,8.93,55.63,310721,,,A*48
$GPGGA,205432.250,3749.6130,N,07823.3258,W,1,06,1.43,162.1,M,-33.2,M,,*5F
$GPRMC,205432.500,A,3749.6133,N,07823.3252,W,8.92,55.76,310721,,,A*49
$GPGGA,205432.750,3749.6137,N,07823.3245,W,1,06,1.43,162.3,M,-33.2,M,,*53
$GPRMC,205433.000,A,3749.6140,N,07823.3239,W,8.84,55.37,310721,,,A*46
$GPGGA,205433.250,3749.6144,N,07823.3233,W,1,06,1.43,162.5,M,-33.2,M,,*54
$GPRMC,205433.500,A,3749.6147,N,07823.3227,W,8.74,55.60,310721,,,A*46
$GPGGA,205433.750,3749.6150,N,07823.3220,W,1,06,1.43,162.5,M,-33.2,M,,*56
$GPRMC,205434.000,A,3749.6153,N,07823.3214,W,8.63,56.33,310721,,,A*42
$GPGGA,205434.250,3749.6156,N,07823.3208,W,1,06,1.43,162.6,M,-33.2,M,,*5B
$GPRMC,205434.500,A,3749.6160,N,07823.3202,W,8.58,55.25,310721,,,A*4C
$GPGGA,205434.750,3749.6164,N,07823.3196,W,1,06,1.43,162.8,M,-33.2,M,,*55
$GPRMC,205435.000,A,3749.6168,N,07823.3189,W,8.82,54.94,310721,,,A*4C
$GPGGA,205435.250,3749.6172,N,07823.3183,W,1,06,1.37,163.0,M,-33.2,M,,*58
$GPRMC,205435.500,A,3749.6176,N,07823.3176,W,9.07,55.39,310721,,,A*4C
$GPGGA,205435.750,3749.6180,N,07823.3170,W,1,06,1.43,163.2,M,-33.2,M,,*5D
$GPRMC,205436.000,A,3749.6184,N,07823.3163,W,9.32,54.77,310721,,,A*4E
$GPGGA,205436.250,3749.6188,N,07823.3156,W,1,06,1.37,163.5,M,-33.2,M,,*53
$GPRMC,205436.500,A,3749.6191,N,07823.3149,W,9.43,55.53,310721,,,A*46
$GPGGA,205436.750,3749.6195,N,07823.3142,W,1,06,1.43,163.8,M,-33.2,M,,*51
$GPRMC,205437.000,A,3749.6198,N,07823.3136,W,9.41,55.69,310721,,,A*48
$GPGGA,205437.250,3749.6202,N,07823.3129,W,1,06,1.37,164.0,M,-33.2,M,,*59
$GPRMC,205437.500,A,3749.6205,N,07823.3122,W,9.39,56.50,310721,,,D*4C
$GPGGA,205437.750,3749.6208,N,07823.3115,W,2,06,1.43,164.2,M,-33.2,M,0000,0000*5B
$GPRMC,205438.000,A,3749.6211,N,07823.3107,W,9.33,57.67,310721,,,D*4B
$GPGGA,205438.250,3749.6214,N,07823.3100,W,2,06,1.43,164.3,M,-33.2,M,0000,0000*59
$GPRMC,205438.500,A,3749.6217,N,07823.3093,W,9.30,58.35,310721,,,D*4F
$GPGGA,205438.750,3749.6220,N,07823.3086,W,2,06,1.43,164.4,M,-33.2,M,0000,0000*53
$GPRMC,205439.000,A,3749.6223,N,07823.3079,W,9.21,59.29,310721,,,D*44
$GPGGA,205439.250,3749.6226,N,07823.3071,W,2,05,29.55,164.5,M,-33.2,M,0000,0000*66
$GPRMC,205439.500,A,3749.6229,N,07823.3064,W,8.99,59.73,310721,,,D*4A
$GPGGA,205439.750,3749.6232,N,07823.3057,W,2,05,29.57,164.5,M,-33.2,M,0000,0000*60
$GPRMC,205440.000,A,3749.6234,N,07823.3051,W,8.49,60.34,310721,,,D*4F
$GPGGA,205440.250,3749.6237,N,07823.3044,W,2,06,1.43,164.6,M,-33.2,M,0000,0000*53
$GPRMC,205440.500,A,3749.6239,N,07823.3038,W,8.04,61.17,310721,,,D*41
$GPGGA,205440.750,3749.6241,N,07823.3032,W,2,06,1.43,164.7,M,-33.2,M,0000,0000*57
$GPRMC,205441.000,A,3749.6244,N,07823.3026,W,7.84,63.37,310721,,,D*47
$GPGGA,205441.250,3749.6247,N,07823.3020,W,2,06,1.43,164.8,M,-33.2,M,0000,0000*59
$GPRMC,205441.500,A,3749.6250,N,07823.3015,W,7.49,64.76,310721,,,D*44
$GPGGA,205441.750,3749.6252,N,07823.3009,W,2,06,1.43,164.8,M,-33.2,M,0000,0000*53
$GPRMC,205442.000,A,3749.6255,N,07823.3004,W,7.07,65.84,310721,,,D*41
$GPGGA,205442.250,3749.6259,N,07823.2998,W,2,06,1.37,164.8,M,-33.2,M,0000,0000*5D
$GPRMC,205442.500,A,3749.6265,N,07823.2993,W,6.74,66.66,310721,,,D*4B
$GPGGA,205442.750,3749.6271,N,07823.2989,W,2,06,1.43,164.4,M,-33.2,M,0000,0000*5D
$GPRMC,205443.000,A,3749.6276,N,07823.2984,W,6.40,65.38,310721,,,D*44
$GPGGA,205443.250,3749.6281,N,07823.2979,W,2,06,1.43,164.2,M,-33.2,M,0000,0000*5F
$GPRMC,205443.500,A,3749.6284,N,07823.2974,W,5.97,61.81,310721,,,D*4C
$GPGGA,205443.750,3749.6288,N,07823.2970,W,2,06,1.43,164.1,M,-33.2,M,0000,0000*59
$GPRMC,205444.000,A,3749.6291,N,07823.2966,W,5.48,59.10,310721,,,D*48
$GPGGA,205444.250,3749.6293,N,07823.2962,W,2,06,1.43,164.2,M,-33.2,M,0000,0000*51
$GPRMC,205444.500,A,3749.6295,N,07823.2958,W,5.10,58.04,310721,,,D*4D
$GPGGA,205444.750,3749.6297,N,07823.2955,W,2,06,1.43,164.2,M,-33.2,M,0000,0000*54
$GPRMC,205445.000,A,3749.6299,N,07823.2952,W,4.36,57.65,310721,,,D*42
$GPGGA,205445.250,3749.6300,N,07823.2949,W,2,06,1.43,164.3,M,-33.2,M,0000,0000*53
$GPRMC,205445.500,A,3749.6301,N,07823.2947,W,3.58,57.61,310721,,,D*48
$GPGGA,205445.750,3749.6302,N,07823.2945,W,2,06,1.36,164.5,M,-33.2,M,0000,0000*5C
$GPRMC,205446.000,A,3749.6303,N,07823.2943,W,2.63,56.28,310721,,,D*4D
$GPGGA,205446.250,3749.6304,N,07823.2942,W,2,06,1.37,164.6,M,-33.2,M,0000,0000*59
$GPRMC,205446.500,A,3749.6305,N,07823.2940,W,2.16,56.28,310721,,,D*4F
$GPGGA,205446.750,3749.6306,N,07823.2939,W,2,06,1.37,164.7,M,-33.2,M,0000,0000*53
$GPRMC,205447.000,A,3749.6307,N,07823.2938,W,2.04,56.28,310721,,,D*45
$GPGGA,205447.250,3749.6308,N,07823.2937,W,2,06,1.37,164.8,M,-33.2,M,0000,0000*58
$GPRMC,205447.500,A,3749.6309,N,07823.2935,W,1.89,56.28,310721,,,D*45
$GPGGA,205447.750,3749.6311,N,07823.2934,W,2,06,1.36,164.9,M,-33.2,M,0000,0000*56
$GPRMC,205448.000,A,3749.6312,N,07823.2933,W,1.79,56.28,310721,,,D*4C
$GPGGA,205448.250,3749.6313,N,07823.2932,W,2,06,1.36,164.9,M,-33.2,M,0000,0000*58
$GPRMC,205448.500,A,3749.6313,N,07823.2931,W,1.70,56.28,310721,,,D*43
$GPGGA,205448.750,3749.6314,N,07823.2930,W,2,06,1.36,165.0,M,-33.2,M,0000,0000*50
$GPRMC,205449.000,A,3749.6315,N,07823.2930,W,1.60,56.28,310721,,,D*41
$GPGGA,205449.250,3749.6317,N,07823.2930,W,2,06,1.36,165.1,M,-33.2,M,0000,0000*56
$GPRMC,205449.500,A,3749.6318,N,07823.2929,W,1.51,56.28,310721,,,D*43
$GPGGA,205449.750,3749.6320,N,07823.2928,W,2,06,1.36,165.1,M,-33.2,M,0000,0000*5E
$GPRMC,205450.000,A,3749.6323,N,07823.2927,W,1.85,56.28,310721,,,D*41
$GPGGA,205450.250,3749.6324,N,07823.2925,W,2,06,1.36,165.0,M,-33.2,M,0000,0000*5B
$GPRMC,205450.500,A,3749.6326,N,07823.2923,W,2.55,56.28,310721,,,D*4B
$GPGGA,205450.750,3749.6327,N,07823.2920,W,2,06,1.36,164.9,M,-33.2,M,0000,0000*50
$GPRMC,205451.000,A,3749.6327,N,07823.2917,W,3.45,83.31,310721,,,D*49
$GPGGA,205451.250,3749.6328,N,07823.2914,W,2,06,1.36,164.9,M,-33.2,M,0000,0000*5C
$GPRMC,205451.500,A,3749.6328,N,07823.2910,W,4.13,90.85,310721,,,D*4D
$GPGGA,205451.750,3749.6328,N,07823.2905,W,2,06,1.43,164.8,M,-33.2,M,0000,0000*5A
$GPRMC,205452.000,A,3749.6328,N,07823.2900,W,4.98,99.82,310721,,,D*47
$GPGGA,205452.250,3749.6328,N,07823.2896,W,2,06,1.43,164.7,M,-33.2,M,0000,0000*58
$GPRMC,205452.500,A,3749.6327,N,07823.2890,W,6.01,106.79,310721,,,D*74
$GPGGA,205452.750,3749.6325,N,07823.2884,W,2,06,1.43,164.6,M,-33.2,M,0000,0000*52
$GPRMC,205453.000,A,3749.6324,N,07823.2879,W,6.64,112.33,310721,,,D*7C
$GPGGA,205453.250,3749.6322,N,07823.2874,W,2,06,1.36,164.5,M,-33.2,M,0000,0000*5F
$GPRMC,205453.500,A,3749.6320,N,07823.2869,W,6.65,117.25,310721,,,D*7F
$GPGGA,205453.750,3749.6316,N,07823.2863,W,2,06,1.43,164.4,M,-33.2,M,0000,0000*58
$GPRMC,205454.000,A,3749.6311,N,07823.2856,W,8.39,124.55,310721,,,D*73
$GPGGA,205454.250,3749.6306,N,07823.2848,W,2,06,1.43,164.3,M,-33.2,M,0000,0000*55
$GPRMC,205454.500,A,3749.6300,N,07823.2840,W,10.16,128.15,310721,,,D*4D
$GPGGA,205454.750,3749.6293,N,07823.2832,W,2,06,1.43,164.2,M,-33.2,M,0000,0000*51
$GPRMC,205455.000,A,3749.6286,N,07823.2823,W,11.97,132.33,310721,,,D*44
$GPGGA,205455.250,3749.6278,N,07823.2814,W,2,06,1.43,164.0,M,-33.2,M,0000,0000*56
$GPRMC,205455.500,A,3749.6271,N,07823.2805,W,13.31,134.28,310721,,,D*4F
$GPGGA,205455.750,3749.6262,N,07823.2795,W,2,06,1.43,163.9,M,-33.2,M,0000,0000*50
$GPRMC,205456.000,A,3749.6253,N,07823.2784,W,15.03,134.79,310721,,,D*4C
$GPGGA,205456.250,3749.6244,N,07823.2774,W,2,06,1.43,163.8,M,-33.2,M,0000,0000*5C
$GPRMC,205456.500,A,3749.6234,N,07823.2763,W,16.23,135.24,310721,,,D*49
$GPGGA,205456.750,3749.6225,N,07823.2751,W,2,06,1.43,163.6,M,-33.2,M,0000,0000*57
$GPRMC,205457.000,A,3749.6215,N,07823.2740,W,17.13,135.84,310721,,,D*47
$GPGGA,205457.250,3749.6205,N,07823.2728,W,2,06,1.36,163.5,M,-33.2,M,0000,0000*5E
$GPRMC,205457.500,A,3749.6194,N,07823.2715,W,18.37,136.31,310721,,,D*4C
$GPGGA,205457.750,3749.6184,N,07823.2703,W,2,06,1.43,163.3,M,-33.2,M,0000,0000*5C
$GPRMC,205458.000,A,3749.6172,N,07823.2691,W,19.36,137.10,310721,,,D*41
$GPGGA,205458.250,3749.6161,N,07823.2678,W,2,06,1.43,163.2,M,-33.2,M,0000,0000*51
$GPRMC,205458.500,A,3749.6150,N,07823.2665,W,20.27,137.03,310721,,,D*47
$GPGGA,205458.750,3749.6138,N,07823.2652,W,2,06,1.42,163.2,M,-33.2,M,0000,0000*51
$GPRMC,205459.000,A,3749.6125,N,07823.2639,W,21.34,137.55,310721,,,D*48
$GPGGA,205459.250,3749.6112,N,07823.2625,W,2,06,1.43,163.0,M,-33.2,M,0000,0000*5E
$GPRMC,205459.500,A,3749.6098,N,07823.2611,W,22.35,138.51,310721,,,D*49
$GPGGA,205459.750,3749.6084,N,07823.2597,W,2,06,1.42,162.9,M,-33.2,M,0000,0000*56
$GPRMC,205500.000,A,3749.6070,N,07823.2582,W,23.61,139.35,310721,,,D*4D
$GPGGA,205500.250,3749.6055,N,07823.2568,W,2,06,1.42,162.9,M,-33.2,M,0000,0000*52
$GPRMC,205500.500,A,3749.6041,N,07823.2553,W,24.54,139.44,310721,,,D*41
$GPGGA,205500.750,3749.6027,N,07823.2538,W,2,06,1.42,162.7,M,-33.2,M,0000,0000*59
$GPRMC,205501.000,A,3749.6013,N,07823.2524,W,24.79,139.98,310721,,,D*4C
$GPGGA,205501.250,3749.5998,N,07823.2509,W,2,06,1.43,162.6,M,-33.2,M,0000,0000*51
$GPRMC,205501.500,A,3749.5984,N,07823.2495,W,25.23,140.71,310721,,,D*41
$GPGGA,205501.750,3749.5969,N,07823.2481,W,2,06,1.42,162.5,M,-33.2,M,0000,0000*59
$GPRMC,205502.000,A,3749.5953,N,07823.2466,W,25.72,141.88,310721,,,D*42
$GPGGA,205502.250,3749.5938,N,07823.2452,W,2,06,1.36,162.3,M,-33.2,M,0000,0000*50
$GPRMC,205502.500,A,3749.5922,N,07823.2438,W,26.20,142.85,310721,,,D*40
$GPGGA,205502.750,3749.5905,N,07823.2424,W,2,06,1.42,162.1,M,-33.2,M,0000,0000*5B
$GPRMC,205503.000,A,3749.5889,N,07823.2410,W,26.45,144.06,310721,,,D*40
$GPGGA,205503.250,3749.5873,N,07823.2396,W,2,06,1.42,161.8,M,-33.2,M,0000,0000*5B
$GPRMC,205503.500,A,3749.5852,N,07823.2382,W,27.10,146.01,310721,,,D*4B
$GPGGA,205503.750,3749.5834,N,07823.2368,W,2,06,1.42,161.7,M,-33.2,M,0000,0000*53
$GPRMC,205504.000,A,3749.5816,N,07823.2355,W,27.48,147.28,310721,,,D*44
$GPGGA,205504.250,3749.5799,N,07823.2342,W,2,06,1.36,161.6,M,-33.2,M,0000,0000*53
$GPRMC,205504.500,A,3749.5781,N,07823.2330,W,27.58,148.67,310721,,,D*46
$GPGGA,205504.750,3749.5764,N,07823.2318,W,2,06,1.36,161.6,M,-33.2,M,0000,0000*5B
$GPRMC,205505.000,A,3749.5746,N,07823.2306,W,27.70,150.17,310721,,,D*48
$GPGGA,205505.250,3749.5729,N,07823.2295,W,2,06,1.36,161.6,M,-33.2,M,0000,0000*52
$GPRMC,205505.500,A,3749.5712,N,07823.2283,W,27.81,150.78,310721,,,D*47
$GPGGA,205505.750,3749.5694,N,07823.2271,W,2,06,1.36,161.5,M,-33.2,M,0000,0000*59
$GPRMC,205506.000,A,3749.5676,N,07823.2260,W,28.11,152.13,310721,,,D*46
$GPGGA,205506.250,3749.5659,N,07823.2250,W,2,06,1.36,161.5,M,-33.2,M,0000,0000*5D
$GPRMC,205506.500,A,3749.5641,N,07823.2241,W,27.47,154.29,310721,,,D*47
$GPGGA,205506.750,3749.5622,N,07823.2231,W,2,06,1.36,161.2,M,-33.2,M,0000,0000*54
$GPRMC,205507.000,A,3749.5603,N,07823.2220,W,27.46,155.21,310721,,,D*4A
$GPGGA,205507.250,3749.5585,N,07823.2209,W,2,06,1.36,161.0,M,-33.2,M,0000,0000*57
$GPRMC,205507.500,A,3749.5566,N,07823.2198,W,27.43,155.71,310721,,,D*4F
$GPGGA,205507.750,3749.5547,N,07823.2187,W,2,06,1.42,160.8,M,-33.2,M,0000,0000*53
$GPRMC,205508.000,A,3749.5528,N,07823.2177,W,27.33,156.39,310721,,,D*46
$GPGGA,205508.250,3749.5510,N,07823.2167,W,2,06,1.36,160.6,M,-33.2,M,0000,0000*58
$GPRMC,205508.500,A,3749.5491,N,07823.2157,W,27.22,156.97,310721,,,D*46
$GPGGA,205508.750,3749.5471,N,07823.2147,W,2,06,1.42,160.3,M,-33.2,M,0000,0000*5F
$GPRMC,205509.000,A,3749.5452,N,07823.2137,W,27.44,157.67,310721,,,D*45
$GPGGA,205509.250,3749.5432,N,07823.2128,W,2,06,1.36,160.2,M,-33.2,M,0000,0000*57
$GPRMC,205509.500,A,3749.5413,N,07823.2119,W,27.61,158.12,310721,,,D*43
$GPGGA,205509.750,3749.5390,N,07823.2109,W,2,06,1.42,160.1,M,-33.2,M,0000,0000*5E
$GPRMC,205510.000,A,3749.5366,N,07823.2099,W,28.58,159.97,310721,,,D*4B
$GPGGA,205510.250,3749.5344,N,07823.2090,W,2,06,1.42,160.2,M,-33.2,M,0000,0000*58
$GPRMC,205510.500,A,3749.5322,N,07823.2080,W,29.35,160.91,310721,,,D*40
$GPGGA,205510.750,3749.5299,N,07823.2071,W,2,06,1.42,160.3,M,-33.2,M,0000,0000*52
$GPRMC,205511.000,A,3749.5277,N,07823.2062,W,29.74,161.79,310721,,,D*4B
$GPGGA,205511.250,3749.5257,N,07823.2054,W,2,06,1.36,160.4,M,-33.2,M,0000,0000*57
$GPRMC,205511.500,A,3749.5237,N,07823.2045,W,29.87,161.39,310721,,,D*47
$GPGGA,205511.750,3749.5217,N,07823.2036,W,2,06,1.42,160.5,M,-33.2,M,0000,0000*50
$GPRMC,205512.000,A,3749.5197,N,07823.2027,W,29.78,161.09,310721,,,D*4F
$GPGGA,205512.250,3749.5177,N,07823.2019,W,2,06,1.36,160.6,M,-33.2,M,0000,0000*5E
$GPRMC,205512.500,A,3749.5158,N,07823.2010,W,29.73,160.45,310721,,,D*4F
$GPGGA,205512.750,3749.5138,N,07823.2001,W,2,06,1.42,160.7,M,-33.2,M,0000,0000*5B
$GPRMC,205513.000,A,3749.5119,N,07823.1991,W,29.33,159.60,310721,,,D*44
$GPGGA,205513.250,3749.5100,N,07823.1982,W,2,06,1.36,160.8,M,-33.2,M,0000,0000*59
$GPRMC,205513.500,A,3749.5080,N,07823.1973,W,29.27,159.14,310721,,,D*4A
$GPGGA,205513.750,3749.5059,N,07823.1963,W,2,06,1.42,160.8,M,-33.2,M,0000,0000*5D
$GPRMC,205514.000,A,3749.5038,N,07823.1953,W,29.76,158.74,310721,,,D*4A
$GPGGA,205514.250,3749.5018,N,07823.1943,W,2,06,1.42,160.9,M,-33.2,M,0000,0000*59
$GPRMC,205514.500,A,3749.4997,N,07823.1933,W,30.20,157.67,310721,,,D*42
$GPGGA,205514.750,3749.4976,N,07823.1923,W,2,06,1.42,161.0,M,-33.2,M,0000,0000*52
$GPRMC,205515.000,A,3749.4955,N,07823.1913,W,30.53,156.64,310721,,,D*4C
$GPGGA,205515.250,3749.4933,N,07823.1902,W,2,06,1.42,161.1,M,-33.2,M,0000,0000*55
$GPRMC,205515.500,A,3749.4912,N,07823.1891,W,30.94,156.30,310721,,,D*4B
$GPGGA,205515.750,3749.4891,N,07823.1881,W,2,06,1.42,161.2,M,-33.2,M,0000,0000*50
$GPRMC,205516.000,A,3749.4869,N,07823.1871,W,31.51,155.92,310721,,,D*4D
$GPGGA,205516.250,3749.4847,N,07823.1859,W,2,06,1.36,161.4,M,-33.2,M,0000,0000*5D
$GPRMC,205516.500,A,3749.4826,N,07823.1848,W,31.87,155.75,310721,,,D*4B
$GPGGA,205516.750,3749.4803,N,07823.1837,W,2,06,1.42,161.4,M,-33.2,M,0000,0000*53
$GPRMC,205517.000,A,3749.4781,N,07823.1825,W,32.53,155.52,310721,,,D*49
$GPGGA,205517.250,3749.4760,N,07823.1813,W,2,06,1.42,161.5,M,-33.2,M,0000,0000*5A
$GPRMC,205517.500,A,3749.4738,N,07823.1802,W,32.83,155.72,310721,,,D*44
$GPGGA,205517.750,3749.4716,N,07823.1791,W,2,06,1.42,161.4,M,-33.2,M,0000,0000*5A
$GPRMC,205518.000,A,3749.4694,N,07823.1780,W,33.42,155.79,310721,,,D*4B
$GPGGA,205518.250,3749.4672,N,07823.1768,W,2,06,1.42,161.2,M,-33.2,M,0000,0000*53
$GPRMC,205518.500,A,3749.4649,N,07823.1756,W,34.09,156.30,310721,,,D*43
$GPGGA,205518.750,3749.4627,N,07823.1744,W,2,06,1.42,161.0,M,-33.2,M,0000,0000*5A
$GPRMC,205519.000,A,3749.4605,N,07823.1733,W,34.11,156.78,310721,,,D*49
$GPGGA,205519.250,3749.4583,N,07823.1722,W,2,06,1.36,160.8,M,-33.2,M,0000,0000*59
$GPRMC,205519.500,A,3749.4560,N,07823.1710,W,34.40,156.96,310721,,,D*49
$GPGGA,205519.750,3749.4537,N,07823.1697,W,2,06,1.42,160.8,M,-33.2,M,0000,0000*5F
$GPRMC,205520.000,A,3749.4514,N,07823.1685,W,34.88,157.05,310721,,,D*47
$GPGGA,205520.250,3749.4492,N,07823.1673,W,2,06,1.36,160.7,M,-33.2,M,0000,0000*58
$GPRMC,205520.500,A,3749.4468,N,07823.1662,W,34.96,157.38,310721,,,D*40
$GPGGA,205520.750,3749.4445,N,07823.1650,W,2,06,1.42,160.6,M,-33.2,M,0000,0000*54
$GPRMC,205521.000,A,3749.4423,N,07823.1638,W,34.91,157.33,310721,,,D*48
$GPGGA,205521.250,3749.4400,N,07823.1625,W,2,06,1.42,160.4,M,-33.2,M,0000,0000*51
$GPRMC,205521.500,A,3749.4377,N,07823.1613,W,34.63,157.35,310721,,,D*49
$GPGGA,205521.750,3749.4355,N,07823.1601,W,2,06,1.42,160.2,M,-33.2,M,0000,0000*53
$GPRMC,205522.000,A,3749.4332,N,07823.1589,W,34.58,157.30,310721,,,D*43
$GPGGA,205522.250,3749.4309,N,07823.1577,W,2,06,1.42,160.1,M,-33.2,M,0000,0000*5D
$GPRMC,205522.500,A,3749.4287,N,07823.1565,W,34.22,157.14,310721,,,D*40
$GPGGA,205522.750,3749.4264,N,07823.1554,W,2,06,1.42,160.0,M,-33.2,M,0000,0000*52
$GPRMC,205523.000,A,3749.4242,N,07823.1542,W,33.92,157.16,310721,,,D*46
$GPGGA,205523.250,3749.4220,N,07823.1530,W,2,06,1.42,159.8,M,-33.2,M,0000,0000*56
$GPRMC,205523.500,A,3749.4198,N,07823.1519,W,33.66,157.09,310721,,,D*4C
$GPGGA,205523.750,3749.4176,N,07823.1507,W,2,06,1.42,159.6,M,-33.2,M,0000,0000*59
$GPRMC,205524.000,A,3749.4155,N,07823.1495,W,33.55,156.43,310721,,,D*45
$GPGGA,205524.250,3749.4133,N,07823.1484,W,2,06,1.42,159.4,M,-33.2,M,0000,0000*52
$GPRMC,205524.500,A,3749.4111,N,07823.1472,W,33.56,157.09,310721,,,D*45
$GPGGA,205524.750,3749.4089,N,07823.1460,W,2,06,1.42,159.3,M,-33.2,M,0000,0000*5A
$GPRMC,205525.000,A,3749.4067,N,07823.1449,W,33.85,157.64,310721,,,D*4C
$GPGGA,205525.250,3749.4045,N,07823.1437,W,2,06,1.36,159.1,M,-33.2,M,0000,0000*5D
$GPRMC,205525.500,A,3749.4023,N,07823.1426,W,33.78,157.60,310721,,,D*46
$GPGGA,205525.750,3749.4002,N,07823.1415,W,2,06,1.36,159.0,M,-33.2,M,0000,0000*5A
$GPRMC,205526.000,A,3749.3980,N,07823.1403,W,33.70,157.44,310721,,,D*4E
$GPGGA,205526.250,3749.3958,N,07823.1392,W,2,06,1.36,158.8,M,-33.2,M,0000,0000*5C
$GPRMC,205526.500,A,3749.3937,N,07823.1381,W,33.43,157.84,310721,,,D*46
$GPGGA,205526.750,3749.3915,N,07823.1370,W,2,06,1.42,158.6,M,-33.2,M,0000,0000*51
$GPRMC,205527.000,A,3749.3894,N,07823.1358,W,33.35,157.57,310721,,,D*41
$GPGGA,205527.250,3749.3872,N,07823.1347,W,2,06,1.36,158.4,M,-33.2,M,0000,0000*50
$GPRMC,205527.500,A,3749.3851,N,07823.1336,W,33.12,157.69,310721,,,D*4D
$GPGGA,205527.750,3749.3829,N,07823.1325,W,2,06,1.42,158.3,M,-33.2,M,0000,0000*5B
$GPRMC,205528.000,A,3749.3808,N,07823.1315,W,32.82,157.98,310721,,,D*4C
$GPGGA,205528.250,3749.3787,N,07823.1304,W,2,06,1.36,158.2,M,-33.2,M,0000,0000*5B
$GPRMC,205528.500,A,3749.3765,N,07823.1293,W,32.55,158.22,310721,,,D*46
$GPGGA,205528.750,3749.3744,N,07823.1282,W,2,06,1.42,158.0,M,-33.2,M,0000,0000*5F
$GPRMC,205529.000,A,3749.3723,N,07823.1271,W,32.11,158.23,310721,,,D*4D
$GPGGA,205529.250,3749.3702,N,07823.1261,W,2,06,1.42,157.9,M,-33.2,M,0000,0000*52
$GPRMC,205529.500,A,3749.3681,N,07823.1250,W,31.66,157.90,310721,,,D*46
$GPGGA,205529.750,3749.3661,N,07823.1238,W,2,06,1.42,157.8,M,-33.2,M,0000,0000*5E
$GPRMC,205530.000,A,3749.3641,N,07823.1227,W,30.96,157.17,310721,,,D*46
$GPGGA,205530.250,3749.3621,N,07823.1217,W,2,06,1.36,157.6,M,-33.2,M,0000,0000*57
$GPRMC,205530.500,A,3749.3601,N,07823.1206,W,30.54,157.56,310721,,,D*4F
$GPGGA,205530.750,3749.3581,N,07823.1196,W,2,06,1.42,157.5,M,-33.2,M,0000,0000*51
$GPRMC,205531.000,A,3749.3561,N,07823.1185,W,30.53,157.28,310721,,,D*48
$GPGGA,205531.250,3749.3542,N,07823.1174,W,2,06,1.36,157.5,M,-33.2,M,0000,0000*55
$GPRMC,205531.500,A,3749.3522,N,07823.1164,W,30.93,156.98,310721,,,D*43
$GPGGA,205531.750,3749.3502,N,07823.1152,W,2,06,1.42,157.4,M,-33.2,M,0000,0000*52
$GPRMC,205532.000,A,3749.3481,N,07823.1141,W,31.21,156.36,310721,,,D*46
$GPGGA,205532.250,3749.3461,N,07823.1130,W,2,06,1.36,157.4,M,-33.2,M,0000,0000*57
$GPRMC,205532.500,A,3749.3441,N,07823.1119,W,31.61,156.47,310721,,,D*40
$GPGGA,205532.750,3749.3420,N,07823.1107,W,2,06,1.36,157.3,M,-33.2,M,0000,0000*54
$GPRMC,205533.000,A,3749.3400,N,07823.1096,W,31.77,156.03,310721,,,D*40
$GPGGA,205533.250,3749.3380,N,07823.1085,W,2,06,1.36,157.2,M,-33.2,M,0000,0000*57
$GPRMC,205533.500,A,3749.3360,N,07823.1073,W,31.69,156.10,310721,,,D*42
$GPGGA,205533.750,3749.3340,N,07823.1061,W,2,06,1.36,157.2,M,-33.2,M,0000,0000*54
$GPRMC,205534.000,A,3749.3320,N,07823.1050,W,31.66,156.10,310721,,,D*4A
$GPGGA,205534.250,3749.3300,N,07823.1039,W,2,06,1.36,157.1,M,-33.2,M,0000,0000*5C
$GPRMC,205534.500,A,3749.3279,N,07823.1027,W,31.62,156.26,310721,,,D*43
$GPGGA,205534.750,3749.3259,N,07823.1016,W,2,06,1.42,157.0,M,-33.2,M,0000,0000*5B
$GPRMC,205535.000,A,3749.3239,N,07823.1004,W,31.60,156.16,310721,,,D*43
$GPGGA,205535.250,3749.3220,N,07823.0993,W,2,06,1.42,156.8,M,-33.2,M,0000,0000*5D
$GPRMC,205535.500,A,3749.3200,N,07823.0982,W,31.24,156.27,310721,,,D*48
$GPGGA,205535.750,3749.3181,N,07823.0970,W,2,06,1.42,156.7,M,-33.2,M,0000,0000*52
$GPRMC,205536.000,A,3749.3162,N,07823.0959,W,30.84,155.79,310721,,,D*4C
$GPGGA,205536.250,3749.3142,N,07823.0948,W,2,06,1.36,156.6,M,-33.2,M,0000,0000*52
$GPRMC,205536.500,A,3749.3123,N,07823.0936,W,30.57,155.79,310721,,,D*4B
$GPGGA,205536.750,3749.3104,N,07823.0925,W,2,06,1.42,156.4,M,-33.2,M,0000,0000*5F
$GPRMC,205537.000,A,3749.3085,N,07823.0914,W,30.02,155.33,310721,,,D*4C
$GPGGA,205537.250,3749.3067,N,07823.0903,W,2,06,1.42,156.3,M,-33.2,M,0000,0000*5C
$GPRMC,205537.500,A,3749.3049,N,07823.0892,W,29.41,154.81,310721,,,D*41
$GPGGA,205537.750,3749.3030,N,07823.0881,W,2,06,1.42,156.1,M,-33.2,M,0000,0000*52
$GPRMC,205538.000,A,3749.3012,N,07823.0870,W,29.23,154.63,310721,,,D*41
$GPGGA,205538.250,3749.2994,N,07823.0859,W,2,06,1.36,156.0,M,-33.2,M,0000,0000*59
$GPRMC,205538.500,A,3749.2975,N,07823.0847,W,29.49,154.81,310721,,,D*49
$GPGGA,205538.750,3749.2956,N,07823.0836,W,2,06,1.42,155.8,M,-33.2,M,0000,0000*53
$GPRMC,205539.000,A,3749.2938,N,07823.0825,W,29.50,154.34,310721,,,D*46
$GPGGA,205539.250,3749.2919,N,07823.0814,W,2,06,1.42,155.7,M,-33.2,M,0000,0000*53
$GPRMC,205539.500,A,3749.2900,N,07823.0803,W,29.46,154.57,310721,,,D*4E
$GPGGA,205539.750,3749.2882,N,07823.0791,W,2,06,1.42,155.5,M,-33.2,M,0000,0000*55
$GPRMC,205540.000,A,3749.2864,N,07823.0781,W,28.88,154.77,310721,,,D*42
$GPGGA,205540.250,3749.2846,N,07823.0770,W,2,06,1.42,155.5,M,-33.2,M,0000,0000*59
$GPRMC,205540.500,A,3749.2828,N,07823.0759,W,28.69,154.99,310721,,,D*45
$GPGGA,205540.750,3749.2811,N,07823.0748,W,2,06,1.42,155.4,M,-33.2,M,0000,0000*54
$GPRMC,205541.000,A,3749.2793,N,07823.0737,W,28.60,154.13,310721,,,D*4D
$GPGGA,205541.250,3749.2775,N,07823.0726,W,2,06,1.42,155.5,M,-33.2,M,0000,0000*54
$GPRMC,205541.500,A,3749.2757,N,07823.0714,W,28.60,152.98,310721,,,D*44
$GPGGA,205541.750,3749.2739,N,07823.0702,W,2,06,1.36,155.4,M,-33.2,M,0000,0000*5D
$GPRMC,205542.000,A,3749.2722,N,07823.0690,W,28.67,152.19,310721,,,D*43
$GPGGA,205542.250,3749.2704,N,07823.0678,W,2,06,1.36,155.4,M,-33.2,M,0000,0000*59
$GPRMC,205542.500,A,3749.2686,N,07823.0666,W,28.87,151.42,310721,,,D*43
$GPGGA,205542.750,3749.2668,N,07823.0653,W,2,06,1.36,155.4,M,-33.2,M,0000,0000*5E
$GPRMC,205543.000,A,3749.2651,N,07823.0641,W,29.13,150.78,310721,,,D*4C
$GPGGA,205543.250,3749.2633,N,07823.0628,W,2,06,1.36,155.3,M,-33.2,M,0000,0000*5F
$GPRMC,205543.500,A,3749.2614,N,07823.0615,W,29.45,150.79,310721,,,D*4B
$GPGGA,205543.750,3749.2596,N,07823.0603,W,2,06,1.42,155.3,M,-33.2,M,0000,0000*5C
$GPRMC,205544.000,A,3749.2577,N,07823.0589,W,30.11,150.48,310721,,,D*42
$GPGGA,205544.250,3749.2558,N,07823.0576,W,2,06,1.42,155.3,M,-33.2,M,0000,0000*5D
$GPRMC,205544.500,A,3749.2540,N,07823.0563,W,30.06,150.74,310721,,,D*4E
$GPGGA,205544.750,3749.2522,N,07823.0549,W,2,06,1.42,155.2,M,-33.2,M,0000,0000*58
$GPRMC,205545.000,A,3749.2503,N,07823.0536,W,30.10,150.45,310721,,,D*48
$GPGGA,205545.250,3749.2485,N,07823.0522,W,2,06,1.36,155.1,M,-33.2,M,0000,0000*5D
$GPRMC,205545.500,A,3749.2467,N,07823.0508,W,30.09,149.87,310721,,,D*4D
$GPGGA,205545.750,3749.2449,N,07823.0494,W,2,06,1.42,155.0,M,-33.2,M,0000,0000*56
$GPRMC,205546.000,A,3749.2431,N,07823.0480,W,30.14,149.03,310721,,,D*49
$GPGGA,205546.250,3749.2413,N,07823.0467,W,2,06,1.42,154.9,M,-33.2,M,0000,0000*5B
$GPRMC,205546.500,A,3749.2396,N,07823.0453,W,29.94,148.04,310721,,,D*4E
$GPGGA,205546.750,3749.2379,N,07823.0439,W,2,06,1.42,154.9,M,-33.2,M,0000,0000*5E
$GPRMC,205547.000,A,3749.2362,N,07823.0425,W,29.58,146.94,310721,,,D*47
$GPGGA,205547.250,3749.2344,N,07823.0410,W,2,06,1.36,155.0,M,-33.2,M,0000,0000*54
$GPRMC,205547.500,A,3749.2327,N,07823.0395,W,29.54,146.34,310721,,,D*49
$GPGGA,205547.750,3749.2310,N,07823.0380,W,2,06,1.42,154.9,M,-33.2,M,0000,0000*55
$GPRMC,205548.000,A,3749.2293,N,07823.0365,W,29.31,145.25,310721,,,D*42
$GPGGA,205548.250,3749.2275,N,07823.0350,W,2,06,1.36,154.9,M,-33.2,M,0000,0000*53
$GPRMC,205548.500,A,3749.2258,N,07823.0334,W,29.55,144.93,310721,,,D*4A
$GPGGA,205548.750,3749.2241,N,07823.0319,W,2,06,1.42,154.9,M,-33.2,M,0000,0000*5F
$GPRMC,205549.000,A,3749.2224,N,07823.0303,W,29.51,144.43,310721,,,D*48
$GPGGA,205549.250,3749.2207,N,07823.0288,W,2,06,1.42,154.9,M,-33.2,M,0000,0000*50
$GPRMC,205549.500,A,3749.2190,N,07823.0272,W,29.49,144.10,310721,,,D*49
$GPGGA,205549.750,3749.2173,N,07823.0256,W,2,06,1.42,154.9,M,-33.2,M,0000,0000*56
$GPRMC,205550.000,A,3749.2156,N,07823.0240,W,29.54,143.67,310721,,,D*44
$GPGGA,205550.250,3749.2139,N,07823.0224,W,2,07,1.34,154.9,M,-33.2,M,0000,0000*50
$GPRMC,205550.500,A,3749.2123,N,07823.0208,W,29.59,143.00,310721,,,D*43
$GPGGA,205550.750,3749.2107,N,07823.0192,W,2,07,1.40,154.9,M,-33.2,M,0000,0000*55
$GPRMC,205551.000,A,3749.2090,N,07823.0176,W,29.59,142.90,310721,,,D*4C
$GPGGA,205551.250,3749.2074,N,07823.0160,W,2,07,1.40,154.9,M,-33.2,M,0000,0000*59
$GPRMC,205551.500,A,3749.2057,N,07823.0144,W,29.59,142.80,310721,,,D*42
$GPGGA,205551.750,3749.2041,N,07823.0128,W,2,07,1.40,154.9,M,-33.2,M,0000,0000*56
$GPRMC,205552.000,A,3749.2024,N,07823.0113,W,29.31,143.16,310721,,,D*42
$GPGGA,205552.250,3749.2008,N,07823.0097,W,2,07,1.40,154.9,M,-33.2,M,0000,0000*58
$GPRMC,205552.500,A,3749.1992,N,07823.0081,W,29.35,142.77,310721,,,D*48
$GPGGA,205552.750,3749.1976,N,07823.0064,W,2,07,1.40,154.8,M,-33.2,M,0000,0000*53
$GPRMC,205553.000,A,3749.1961,N,07823.0048,W,29.26,141.77,310721,,,D*44
$GPGGA,205553.250,3749.1947,N,07823.0031,W,2,07,1.40,154.7,M,-33.2,M,0000,0000*5A
$GPRMC,205553.500,A,3749.1932,N,07823.0015,W,29.22,140.81,310721,,,D*43
$GPGGA,205553.750,3749.1917,N,07822.9998,W,2,07,1.40,154.6,M,-33.2,M,0000,0000*59
$GPRMC,205554.000,A,3749.1901,N,07822.9981,W,29.40,140.17,310721,,,D*46
$GPGGA,205554.250,3749.1887,N,07822.9964,W,2,07,1.40,154.5,M,-33.2,M,0000,0000*53
$GPRMC,205554.500,A,3749.1873,N,07822.9947,W,29.46,139.31,310721,,,D*41
$GPGGA,205554.750,3749.1855,N,07822.9930,W,2,07,1.40,154.5,M,-33.2,M,0000,0000*58
$GPRMC,205555.000,A,3749.1837,N,07822.9912,W,29.82,138.74,310721,,,D*4D
$GPGGA,205555.250,3749.1821,N,07822.9894,W,2,07,1.40,154.5,M,-33.2,M,0000,0000*50
$GPRMC,205555.500,A,3749.1806,N,07822.9877,W,29.61,137.03,310721,,,D*4A
$GPGGA,205555.750,3749.1791,N,07822.9859,W,2,07,1.40,154.4,M,-33.2,M,0000,0000*51
$GPRMC,205556.000,A,3749.1776,N,07822.9841,W,29.38,135.68,310721,,,D*42
$GPGGA,205556.250,3749.1762,N,07822.9822,W,2,07,1.40,154.6,M,-33.2,M,0000,0000*55
$GPRMC,205556.500,A,3749.1749,N,07822.9804,W,29.41,134.86,310721,,,D*45
$GPGGA,205556.750,3749.1736,N,07822.9784,W,2,07,1.40,155.0,M,-33.2,M,0000,0000*55
$GPRMC,205557.000,A,3749.1723,N,07822.9764,W,29.85,134.11,310721,,,D*42
$GPGGA,205557.250,3749.1710,N,07822.9745,W,2,07,1.39,155.5,M,-33.2,M,0000,0000*53
$GPRMC,205557.500,A,3749.1696,N,07822.9725,W,29.77,134.15,310721,,,D*44
$GPGGA,205557.750,3749.1683,N,07822.9706,W,2,07,1.40,156.0,M,-33.2,M,0000,0000*52
$GPRMC,205558.000,A,3749.1669,N,07822.9687,W,29.69,134.14,310721,,,D*49
$GPGGA,205558.250,3749.1655,N,07822.9668,W,2,07,1.39,156.1,M,-33.2,M,0000,0000*55
$GPRMC,205558.500,A,3749.1641,N,07822.9649,W,29.66,134.15,310721,,,D*4A
$GPGGA,205558.750,3749.1628,N,07822.9630,W,2,07,1.40,156.0,M,-33.2,M,0000,0000*58
$GPRMC,205559.000,A,3749.1614,N,07822.9610,W,29.66,133.57,310721,,,D*43
$GPGGA,205559.250,3749.1600,N,07822.9591,W,2,07,1.40,156.2,M,-33.2,M,0000,0000*5C
$GPRMC,205559.500,A,3749.1586,N,07822.9572,W,29.59,133.50,310721,,,D*42
$GPGGA,205559.750,3749.1573,N,07822.9553,W,2,07,1.40,156.1,M,-33.2,M,0000,0000*53
$GPRMC,205600.000,A,3749.1560,N,07822.9534,W,29.52,132.96,310721,,,D*42
$GPGGA,205600.250,3749.1546,N,07822.9514,W,2,07,1.40,156.1,M,-33.2,M,0000,0000*5C
$GPRMC,205600.500,A,3749.1533,N,07822.9495,W,29.90,133.21,310721,,,D*48
$GPGGA,205600.750,3749.1519,N,07822.9475,W,2,07,1.40,156.1,M,-33.2,M,0000,0000*55
$GPRMC,205601.000,A,3749.1506,N,07822.9456,W,30.02,133.16,310721,,,D*42
$GPGGA,205601.250,3749.1492,N,07822.9436,W,2,07,1.39,156.3,M,-33.2,M,0000,0000*58
$GPRMC,205601.500,A,3749.1479,N,07822.9416,W,30.06,132.84,310721,,,D*44
$GPGGA,205601.750,3749.1466,N,07822.9397,W,2,07,1.39,156.6,M,-33.2,M,0000,0000*5F
$GPRMC,205602.000,A,3749.1452,N,07822.9377,W,30.09,132.71,310721,,,D*4E
$GPGGA,205602.250,3749.1440,N,07822.9358,W,2,09,0.97,157.0,M,-33.2,M,0000,0000*52
$GPRMC,205602.500,A,3749.1427,N,07822.9339,W,30.26,132.79,310721,,,D*46
$GPGGA,205602.750,3749.1414,N,07822.9319,W,2,09,0.97,157.3,M,-33.2,M,0000,0000*50
$GPRMC,205603.000,A,3749.1402,N,07822.9300,W,30.05,132.67,310721,,,D*41
$GPGGA,205603.250,3749.1389,N,07822.9282,W,2,09,0.97,157.6,M,-33.2,M,0000,0000*51
$GPRMC,205603.500,A,3749.1376,N,07822.9263,W,30.01,132.88,310721,,,D*41
$GPGGA,205603.750,3749.1363,N,07822.9244,W,2,09,0.97,157.9,M,-33.2,M,0000,0000*55
$GPRMC,205604.000,A,3749.1350,N,07822.9225,W,29.73,132.71,310721,,,D*4E
$GPGGA,205604.250,3749.1337,N,07822.9206,W,2,09,0.97,158.2,M,-33.2,M,0000,0000*54
$GPRMC,205604.500,A,3749.1324,N,07822.9187,W,29.60,132.38,310721,,,D*4C
$GPGGA,205604.750,3749.1311,N,07822.9168,W,2,09,0.97,158.4,M,-33.2,M,0000,0000*58
$GPRMC,205605.000,A,3749.1298,N,07822.9149,W,29.59,132.07,310721,,,D*4A
$GPGGA,205605.250,3749.1285,N,07822.9130,W,2,09,0.97,158.7,M,-33.2,M,0000,0000*5E
$GPRMC,205605.500,A,3749.1272,N,07822.9111,W,29.61,131.85,310721,,,D*44
$GPGGA,205605.750,3749.1260,N,07822.9093,W,2,09,0.97,159.0,M,-33.2,M,0000,0000*5E
$GPRMC,205606.000,A,3749.1246,N,07822.9074,W,29.58,132.04,310721,,,D*47
$GPGGA,205606.250,3749.1233,N,07822.9055,W,2,09,0.97,159.3,M,-33.2,M,0000,0000*57
$GPRMC,205606.500,A,3749.1220,N,07822.9036,W,29.62,131.90,310721,,,D*43
$GPGGA,205606.750,3749.1207,N,07822.9017,W,2,09,0.97,159.6,M,-33.2,M,0000,0000*56
$GPRMC,205607.000,A,3749.1194,N,07822.8998,W,29.61,131.33,310721,,,D*4D
$GPGGA,205607.250,3749.1180,N,07822.8978,W,2,09,0.97,159.7,M,-33.2,M,0000,0000*5E
$GPRMC,205607.500,A,3749.1167,N,07822.8958,W,29.59,130.30,310721,,,D*41
$GPGGA,205607.750,3749.1154,N,07822.8938,W,2,09,0.97,159.4,M,-33.2,M,0000,0000*55
$GPRMC,205608.000,A,3749.1141,N,07822.8917,W,30.06,128.55,310721,,,D*4C
$GPGGA,205606.250,3749.1129,N,07822.8897,W,2,09,0.97,159.2,M,-33.2,M,0000,0000*59
$GPRMC,205606.500,A,3749.1117,N,07822.8876,W,30.37,127.01,310721,,,D*4E
$GPGGA,205606.750,3749.1105,N,07822.8855,W,2,09,0.97,158.8,M,-33.2,M,0000,0000*57
$GPRMC,205607.000,A,3749.1094,N,07822.8834,W,30.47,125.11,310721,,,D*42
$GPGGA,205607.250,3749.1082,N,07822.8812,W,2,09,0.97,158.4,M,-33.2,M,0000,0000*52
$GPRMC,205607.500,A,3749.1070,N,07822.8790,W,30.62,124.51,310721,,,D*4E
$GPGGA,205607.750,3749.1058,N,07822.8767,W,2,09,0.97,158.2,M,-33.2,M,0000,0000*5B
$GPRMC,205608.000,A,3749.1046,N,07822.8744,W,30.79,124.58,310721,,,D*4B
$GPGGA,205608.250,3749.1034,N,07822.8721,W,2,09,0.97,158.1,M,-33.2,M,0000,0000*5A
$GPRMC,205608.500,A,3749.1021,N,07822.8698,W,30.96,124.25,310721,,,D*44
$GPGGA,205608.750,3749.1009,N,07822.8674,W,2,09,0.97,157.9,M,-33.2,M,0000,0000*57
$GPRMC,205609.000,A,3749.0997,N,07822.8651,W,32.07,124.58,310721,,,D*40
$GPGGA,205609.250,3749.0984,N,07822.8628,W,2,09,0.97,157.6,M,-33.2,M,0000,0000*58
$GPRMC,205609.500,A,3749.0972,N,07822.8605,W,32.02,124.66,310721,,,D*47
$GPGGA,205609.750,3749.0959,N,07822.8582,W,2,09,0.97,157.4,M,-33.2,M,0000,0000*5C
$GPRMC,205610.000,A,3749.0946,N,07822.8558,W,32.35,124.79,310721,,,D*4C
$GPGGA,205610.250,3749.0933,N,07822.8534,W,2,09,0.97,157.1,M,-33.2,M,0000,0000*55
$GPRMC,205610.500,A,3749.0921,N,07822.8511,W,32.71,124.79,310721,,,D*45
$GPGGA,205610.750,3749.0908,N,07822.8487,W,2,09,0.97,156.7,M,-33.2,M,0000,0000*56
$GPRMC,205611.000,A,3749.0895,N,07822.8464,W,32.92,125.12,310721,,,D*4D
$GPGGA,205611.250,3749.0882,N,07822.8440,W,2,09,0.97,156.4,M,-33.2,M,0000,0000*59
$GPRMC,205611.500,A,3749.0868,N,07822.8416,W,33.11,126.04,310721,,,D*41
$GPGGA,205611.750,3749.0854,N,07822.8393,W,2,09,0.97,156.0,M,-33.2,M,0000,0000*5A
$GPRMC,205612.000,A,3749.0840,N,07822.8370,W,33.25,126.81,310721,,,D*40
$GPGGA,205612.250,3749.0826,N,07822.8346,W,2,09,0.97,155.7,M,-33.2,M,0000,0000*55
$GPRMC,205612.500,A,3749.0811,N,07822.8322,W,34.16,126.91,310721,,,D*40
$GPGGA,205612.750,3749.0796,N,07822.8297,W,2,09,0.97,155.5,M,-33.2,M,0000,0000*5B
$GPRMC,205613.000,A,3749.0781,N,07822.8273,W,34.24,127.02,310721,,,D*4D
$GPGGA,205613.250,3749.0766,N,07822.8249,W,2,09,0.97,155.2,M,-33.2,M,0000,0000*54
$GPRMC,205613.500,A,3749.0751,N,07822.8224,W,34.44,127.56,310721,,,D*40
$GPGGA,205613.750,3749.0736,N,07822.8200,W,2,09,0.97,154.9,M,-33.2,M,0000,0000*53
$GPRMC,205614.000,A,3749.0721,N,07822.8176,W,34.54,127.83,310721,,,D*48
$GPGGA,205614.250,3749.0706,N,07822.8152,W,2,09,0.97,154.5,M,-33.2,M,0000,0000*5A
$GPRMC,205614.500,A,3749.0691,N,07822.8127,W,34.79,128.11,310721,,,D*48
$GPGGA,205614.750,3749.0676,N,07822.8103,W,2,09,0.97,154.3,M,-33.2,M,0000,0000*5B
$GPRMC,205615.000,A,3749.0661,N,07822.8079,W,35.03,128.62,310721,,,D*41
$GPGGA,205615.250,3749.0645,N,07822.8055,W,2,09,0.97,154.0,M,-33.2,M,0000,0000*5E
$GPRMC,205615.500,A,3749.0629,N,07822.8031,W,35.40,129.40,310721,,,D*42
$GPGGA,205615.750,3749.0613,N,07822.8007,W,2,09,0.97,153.8,M,-33.2,M,0000,0000*50
$GPRMC,205616.000,A,3749.0596,N,07822.7983,W,35.65,130.27,310721,,,D*42
$GPGGA,205616.250,3749.0580,N,07822.7959,W,2,09,0.97,153.7,M,-33.2,M,0000,0000*5D
$GPRMC,205616.500,A,3749.0563,N,07822.7936,W,35.67,130.67,310721,,,D*45
$GPGGA,205616.750,3749.0546,N,07822.7912,W,2,09,0.97,153.6,M,-33.2,M,0000,0000*5C
$GPRMC,205617.000,A,3749.0530,N,07822.7888,W,35.93,131.30,310721,,,D*4B
$GPGGA,205617.250,3749.0513,N,07822.7865,W,2,09,0.97,153.5,M,-33.2,M,0000,0000*5A
$GPRMC,205617.500,A,3749.0496,N,07822.7841,W,36.17,131.92,310721,,,D*41
$GPGGA,205617.750,3749.0478,N,07822.7817,W,2,09,0.97,153.3,M,-33.2,M,0000,0000*50
$GPRMC,205618.000,A,3749.0461,N,07822.7794,W,36.21,132.49,310721,,,D*44
$GPGGA,205618.250,3749.0444,N,07822.7770,W,2,09,0.97,153.1,M,-33.2,M,0000,0000*59
$GPRMC,205618.500,A,3749.0426,N,07822.7747,W,36.30,132.98,310721,,,D*40
$GPGGA,205618.750,3749.0409,N,07822.7723,W,2,09,0.97,152.8,M,-33.2,M,0000,0000*5B
$GPRMC,205619.000,A,3749.0392,N,07822.7700,W,36.09,132.91,310721,,,D*4C
$GPGGA,205619.250,3749.0375,N,07822.7677,W,2,09,0.97,152.4,M,-33.2,M,0000,0000*5F
$GPRMC,205619.500,A,3749.0357,N,07822.7653,W,36.12,133.70,310721,,,D*43
