Vers 81
USE_SERIAL_FEEDBACK=true
DEVELOPMENT_MODE=false
USE_RMC_ONLY=false

$GPRMC,230620.500,A,4305.1632,N,07740.8909,W,0.04,273.32,120821,,,A*7F
$GPGGA,230620.750,4305.1631,N,07740.8915,W,1,04,2.50,178.0,M,-34.4,M,,*5C
$GPRMC,230621.000,A,4305.1630,N,07740.8918,W,0.17,260.91,120821,,,A*70
$GPGGA,230621.250,4305.1630,N,07740.8922,W,1,04,2.50,177.7,M,-34.4,M,,*55
$GPRMC,230621.500,A,4305.1629,N,07740.8924,W,0.19,266.68,120821,,,A*7C
$GPGGA,230621.750,4305.1629,N,07740.8928,W,1,04,2.50,177.5,M,-34.4,M,,*50
$GPRMC,230622.000,A,4305.1628,N,07740.8931,W,0.23,264.11,120821,,,A*7A
$GPGGA,230622.250,4305.1628,N,07740.8932,W,1,04,2.50,177.3,M,-34.4,M,,*5A
$GPRMC,230622.500,A,4305.1628,N,07740.8935,W,0.22,271.96,120821,,,A*71
$GPGGA,230622.750,4305.1628,N,07740.8936,W,1,04,2.50,177.1,M,-34.4,M,,*59
$GPRMC,230623.000,A,4305.1629,N,07740.8937,W,0.16,293.72,120821,,,A*77
$GPGGA,230623.250,4305.1629,N,07740.8938,W,1,04,2.50,177.1,M,-34.4,M,,*52
$GPRMC,230623.500,A,4305.1630,N,07740.8940,W,0.18,312.02,120821,,,A*7B
$GPGGA,230623.750,4305.1630,N,07740.8942,W,1,04,2.50,177.1,M,-34.4,M,,*52
$GPRMC,230624.000,A,4305.1630,N,07740.8943,W,0.23,299.82,120821,,,A*78
$GPGGA,230624.250,4305.1630,N,07740.8945,W,1,04,2.50,177.1,M,-34.4,M,,*57
$GPRMC,230624.500,A,4305.1631,N,07740.8945,W,0.22,302.43,120821,,,A*75
$GPGGA,230624.750,4305.1632,N,07740.8945,W,1,04,2.50,177.1,M,-34.4,M,,*50
$GPRMC,230625.000,A,4305.1632,N,07740.8947,W,0.27,299.29,120821,,,A*7A
$GPGGA,230625.250,4305.1632,N,07740.8949,W,1,04,2.50,177.2,M,-34.4,M,,*5B
$GPRMC,230625.500,A,4305.1633,N,07740.8949,W,0.28,296.61,120821,,,A*7C
$GPGGA,230625.750,4305.1633,N,07740.8950,W,1,04,2.50,177.2,M,-34.4,M,,*57
$GPRMC,230626.000,A,4305.1634,N,07740.8952,W,0.29,296.31,120821,,,A*73
$GPGGA,230626.250,4305.1634,N,07740.8954,W,1,04,2.50,177.2,M,-34.4,M,,*52
$GPRMC,230626.500,A,4305.1635,N,07740.8955,W,0.34,294.76,120821,,,A*7D
$GPGGA,230626.750,4305.1636,N,07740.8957,W,1,04,2.50,177.2,M,-34.4,M,,*56
$GPRMC,230627.000,A,4305.1636,N,07740.8958,W,0.32,304.74,120821,,,A*7B
$GPGGA,230627.250,4305.1637,N,07740.8959,W,1,04,2.50,177.2,M,-34.4,M,,*5D
$GPRMC,230627.500,A,4305.1637,N,07740.8960,W,0.29,311.32,120821,,,A*78
$GPGGA,230627.750,4305.1637,N,07740.8961,W,1,04,2.50,177.2,M,-34.4,M,,*53
$GPRMC,230628.000,A,4305.1638,N,07740.8962,W,0.27,313.34,120821,,,A*75
$GPGGA,230628.250,4305.1638,N,07740.8964,W,1,04,2.50,177.2,M,-34.4,M,,*53
$GPRMC,230628.500,A,4305.1639,N,07740.8965,W,0.29,327.99,120821,,,A*78
$GPGGA,230628.750,4305.1640,N,07740.8966,W,1,04,2.50,177.1,M,-34.4,M,,*58
$GPRMC,230629.000,A,4305.1639,N,07740.8968,W,0.31,312.69,120821,,,A*71
$GPGGA,230629.250,4305.1640,N,07740.8970,W,1,04,2.50,177.1,M,-34.4,M,,*5B
$GPRMC,230629.500,A,4305.1640,N,07740.8972,W,0.37,300.33,120821,,,A*7B
$GPGGA,230629.750,4305.1641,N,07740.8975,W,1,04,2.50,177.0,M,-34.4,M,,*5B
$GPRMC,230630.000,A,4305.1641,N,07740.8977,W,0.46,289.86,120821,,,A*7A
$GPGGA,230630.250,4305.1693,N,07740.8985,W,1,06,1.04,164.4,M,-34.4,M,,*50
$GPRMC,230630.500,A,4305.1693,N,07740.8982,W,0.17,175.61,120821,,,A*77
$GPGGA,230630.750,4305.1691,N,07740.8980,W,1,06,1.04,164.3,M,-34.4,M,,*55
$GPRMC,230631.000,A,4305.1691,N,07740.8980,W,0.32,197.25,120821,,,A*78
$GPGGA,230631.250,4305.1692,N,07740.8979,W,1,06,1.04,164.1,M,-34.4,M,,*56
$GPRMC,230631.500,A,4305.1694,N,07740.8978,W,0.23,236.16,120821,,,A*77
$GPGGA,230631.750,4305.1695,N,07740.8977,W,1,06,1.04,164.0,M,-34.4,M,,*5B
$GPRMC,230632.000,A,4305.1695,N,07740.8976,W,0.15,263.54,120821,,,A*7D
$GPGGA,230632.250,4305.1695,N,07740.8976,W,1,06,1.04,163.9,M,-34.4,M,,*52
$GPRMC,230632.500,A,4305.1695,N,07740.8976,W,0.28,260.69,120821,,,A*7B
$GPGGA,230632.750,4305.1695,N,07740.8976,W,1,06,1.04,163.8,M,-34.4,M,,*56
$GPRMC,230633.000,A,4305.1695,N,07740.8976,W,0.24,262.93,120821,,,A*74
$GPGGA,230633.250,4305.1695,N,07740.8976,W,1,06,1.04,163.6,M,-34.4,M,,*5C
$GPRMC,230633.500,A,4305.1695,N,07740.8976,W,0.18,263.63,120821,,,A*70
$GPGGA,230633.750,4305.1695,N,07740.8976,W,1,06,1.04,163.5,M,-34.4,M,,*5A
$GPRMC,230634.000,A,4305.1695,N,07740.8976,W,0.19,264.50,120821,,,A*74
$GPGGA,230634.250,4305.1695,N,07740.8976,W,1,06,1.04,163.4,M,-34.4,M,,*59
$GPRMC,230634.500,A,4305.1695,N,07740.8977,W,0.16,264.81,120821,,,A*73
$GPGGA,230634.750,4305.1695,N,07740.8977,W,1,06,1.04,163.3,M,-34.4,M,,*5A
$GPRMC,230635.000,A,4305.1695,N,07740.8977,W,0.15,264.30,120821,,,A*7E
$GPGGA,230635.250,4305.1695,N,07740.8977,W,1,06,1.04,163.2,M,-34.4,M,,*5F
$GPRMC,230635.500,A,4305.1695,N,07740.8977,W,0.17,264.43,120821,,,A*7D
$GPGGA,230635.750,4305.1695,N,07740.8977,W,1,06,1.04,163.1,M,-34.4,M,,*59
$GPRMC,230636.000,A,4305.1695,N,07740.8977,W,0.18,265.23,120821,,,A*73
$GPGGA,230636.250,4305.1695,N,07740.8978,W,1,06,1.04,163.0,M,-34.4,M,,*51
$GPRMC,230636.500,A,4305.1695,N,07740.8978,W,0.14,266.90,120821,,,A*7E
$GPGGA,230636.750,4305.1695,N,07740.8978,W,1,06,1.04,162.9,M,-34.4,M,,*5C
$GPRMC,230637.000,A,4305.1695,N,07740.8978,W,0.06,267.87,120821,,,A*7E
$GPGGA,230637.250,4305.1695,N,07740.8978,W,1,06,1.04,162.9,M,-34.4,M,,*58
$GPRMC,230637.500,A,4305.1695,N,07740.8978,W,0.12,296.61,120821,,,A*78
$GPGGA,230637.750,4305.1695,N,07740.8978,W,1,06,1.04,162.8,M,-34.4,M,,*5C
$GPRMC,230638.000,A,4305.1695,N,07740.8978,W,0.14,300.55,120821,,,A*7D
$GPGGA,230638.250,4305.1695,N,07740.8978,W,1,06,1.04,162.7,M,-34.4,M,,*59
$GPRMC,230638.500,A,4305.1695,N,07740.8979,W,0.12,329.89,120821,,,A*75
$GPGGA,230638.750,4305.1695,N,07740.8979,W,1,06,1.04,162.7,M,-34.4,M,,*5D
$GPRMC,230639.000,A,4305.1695,N,07740.8979,W,0.13,341.10,120821,,,A*7E
$GPGGA,230639.250,4305.1695,N,07740.8979,W,1,06,1.04,162.6,M,-34.4,M,,*58
$GPRMC,230639.500,A,4305.1695,N,07740.8979,W,0.13,3.59,120821,,,A*73
$GPGGA,230639.750,4305.1695,N,07740.8979,W,1,06,1.05,162.6,M,-34.4,M,,*5C
$GPRMC,230640.000,A,4305.1696,N,07740.8979,W,0.12,309.71,120821,,,A*79
$GPGGA,230640.250,4305.1696,N,07740.8979,W,1,06,1.04,162.6,M,-34.4,M,,*55
$GPRMC,230640.500,A,4305.1696,N,07740.8979,W,0.11,298.11,120821,,,A*70
$GPGGA,230640.750,4305.1696,N,07740.8979,W,1,06,1.04,162.5,M,-34.4,M,,*53
$GPRMC,230641.000,A,4305.1696,N,07740.8979,W,0.11,286.23,120821,,,A*7A
$GPGGA,230641.250,4305.1696,N,07740.8979,W,1,06,1.04,162.5,M,-34.4,M,,*57
$GPRMC,230641.500,A,4305.1696,N,07740.8979,W,0.06,344.33,120821,,,A*77
$GPGGA,230641.750,4305.1696,N,07740.8979,W,1,06,1.04,162.5,M,-34.4,M,,*52
$GPRMC,230642.000,A,4305.1696,N,07740.8979,W,0.03,347.08,120821,,,A*7F
$GPGGA,230642.250,4305.1696,N,07740.8979,W,1,06,1.05,162.4,M,-34.4,M,,*54
$GPRMC,230642.500,A,4305.1696,N,07740.8979,W,0.05,236.06,120821,,,A*75
$GPGGA,230642.750,4305.1696,N,07740.8980,W,1,06,1.04,162.4,M,-34.4,M,,*56
$GPRMC,230643.000,A,4305.1696,N,07740.8980,W,0.04,319.38,120821,,,A*77
$GPGGA,230643.250,4305.1696,N,07740.8980,W,1,06,1.04,162.4,M,-34.4,M,,*52
$GPRMC,230643.500,A,4305.1696,N,07740.8980,W,0.08,227.31,120821,,,A*7B
$GPGGA,230643.750,4305.1696,N,07740.8980,W,1,06,1.04,162.4,M,-34.4,M,,*57
$GPRMC,230644.000,A,4305.1696,N,07740.8980,W,0.12,225.89,120821,,,A*73
$GPGGA,230644.250,4305.1696,N,07740.8980,W,1,06,1.04,162.4,M,-34.4,M,,*55
$GPRMC,230644.500,A,4305.1696,N,07740.8980,W,0.07,190.45,120821,,,A*7F
$GPGGA,230644.750,4305.1696,N,07740.8980,W,1,06,1.04,162.3,M,-34.4,M,,*57
$GPRMC,230645.000,A,4305.1696,N,07740.8980,W,0.05,192.07,120821,,,A*7D
$GPGGA,230645.250,4305.1696,N,07740.8980,W,1,06,1.04,162.3,M,-34.4,M,,*53
$GPRMC,230645.500,A,4305.1696,N,07740.8980,W,0.08,160.02,120821,,,A*7D
$GPGGA,230645.750,4305.1696,N,07740.8980,W,1,06,1.04,162.3,M,-34.4,M,,*56
$GPRMC,230646.000,A,4305.1695,N,07740.8980,W,0.08,121.59,120821,,,A*73
$GPGGA,230646.250,4305.1695,N,07740.8980,W,1,06,1.04,162.3,M,-34.4,M,,*53
$GPRMC,230646.500,A,4305.1695,N,07740.8980,W,0.05,78.60,120821,,,A*4C
$GPGGA,230646.750,4305.1695,N,07740.8980,W,1,06,1.04,162.3,M,-34.4,M,,*56
$GPRMC,230647.000,A,4305.1696,N,07740.8980,W,0.12,37.18,120821,,,A*49
$GPGGA,230647.250,4305.1696,N,07740.8980,W,1,06,1.04,162.3,M,-34.4,M,,*51
$GPRMC,230647.500,A,4305.1696,N,07740.8980,W,0.11,334.03,120821,,,A*75
$GPGGA,230647.750,4305.1696,N,07740.8980,W,1,06,1.04,162.3,M,-34.4,M,,*54
$GPRMC,230648.000,A,4305.1696,N,07740.8980,W,0.11,307.21,120821,,,A*7F
$GPGGA,230648.250,4305.1696,N,07740.8980,W,1,06,1.04,162.3,M,-34.4,M,,*5E
$GPRMC,230648.500,A,4305.1696,N,07740.8980,W,0.08,336.05,120821,,,A*76
$GPGGA,230648.750,4305.1696,N,07740.8980,W,1,06,1.05,162.3,M,-34.4,M,,*5A
$GPRMC,230649.000,A,4305.1696,N,07740.8980,W,0.03,165.23,120821,,,A*79
$GPGGA,230649.250,4305.1696,N,07740.8980,W,1,06,1.04,162.3,M,-34.4,M,,*5F
$GPRMC,230649.500,A,4305.1696,N,07740.8980,W,0.01,151.73,120821,,,A*7C
$GPGGA,230649.750,4305.1696,N,07740.8980,W,1,06,1.05,162.2,M,-34.4,M,,*5A
$GPRMC,230650.000,A,4305.1696,N,07740.8980,W,0.00,135.28,120821,,,A*7C
$GPGGA,230650.250,4305.1696,N,07740.8980,W,1,06,1.05,162.3,M,-34.4,M,,*56
$GPRMC,230650.500,A,4305.1696,N,07740.8980,W,0.03,97.20,120821,,,A*4B
$GPGGA,230650.750,4305.1696,N,07740.8980,W,1,06,1.05,162.3,M,-34.4,M,,*53
$GPRMC,230651.000,A,4305.1696,N,07740.8980,W,0.02,183.68,120821,,,A*76
$GPGGA,230651.250,4305.1696,N,07740.8980,W,1,06,1.05,162.3,M,-34.4,M,,*57
$GPRMC,230651.500,A,4305.1696,N,07740.8980,W,0.03,62.44,120821,,,A*42
$GPGGA,230651.750,4305.1696,N,07740.8980,W,1,06,1.05,162.2,M,-34.4,M,,*53
$GPRMC,230652.000,A,4305.1696,N,07740.8980,W,0.03,337.80,120821,,,A*7F
$GPGGA,230652.250,4305.1696,N,07740.8980,W,1,06,1.05,162.2,M,-34.4,M,,*55
$GPRMC,230652.500,A,4305.1696,N,07740.8980,W,0.07,339.09,120821,,,A*71
$GPGGA,230652.750,4305.1696,N,07740.8980,W,1,06,1.05,162.2,M,-34.4,M,,*50
$GPRMC,230653.000,A,4305.1696,N,07740.8980,W,0.01,234.94,120821,,,A*7B
$GPGGA,230653.250,4305.1696,N,07740.8980,W,1,06,1.05,162.2,M,-34.4,M,,*54
$GPRMC,230653.500,A,4305.1696,N,07740.8980,W,0.04,339.89,120821,,,A*7B
$GPGGA,230653.750,4305.1696,N,07740.8980,W,1,06,1.05,162.2,M,-34.4,M,,*51
$GPRMC,230654.000,A,4305.1696,N,07740.8980,W,0.01,257.71,120821,,,A*72
$GPGGA,230654.250,4305.1696,N,07740.8980,W,1,06,1.05,162.2,M,-34.4,M,,*53
$GPRMC,230654.500,A,4305.1696,N,07740.8980,W,0.01,241.50,120821,,,A*73
$GPGGA,230654.750,4305.1696,N,07740.8980,W,1,06,1.05,162.2,M,-34.4,M,,*56
$GPRMC,230655.000,A,4305.1696,N,07740.8980,W,0.02,188.75,120821,,,A*75
$GPGGA,230655.250,4305.1696,N,07740.8980,W,1,06,1.05,162.2,M,-34.4,M,,*52
$GPRMC,230655.500,A,4305.1696,N,07740.8980,W,0.04,158.49,120821,,,A*74
$GPGGA,230655.750,4305.1696,N,07740.8980,W,1,06,1.05,162.2,M,-34.4,M,,*57
$GPRMC,230656.000,A,4305.1696,N,07740.8980,W,0.01,90.55,120821,,,A*4F
$GPGGA,230656.250,4305.1696,N,07740.8980,W,1,06,1.05,162.2,M,-34.4,M,,*51
$GPRMC,230656.500,A,4305.1696,N,07740.8980,W,0.03,340.66,120821,,,A*76
$GPGGA,230656.750,4305.1696,N,07740.8980,W,1,06,1.05,162.2,M,-34.4,M,,*54
$GPRMC,230657.000,A,4305.1696,N,07740.8980,W,0.01,315.56,120821,,,A*73
$GPGGA,230657.250,4305.1696,N,07740.8980,W,1,06,1.05,162.2,M,-34.4,M,,*50
$GPRMC,230657.500,A,4305.1696,N,07740.8980,W,0.02,55.87,120821,,,A*4E
$GPGGA,230657.750,4305.1696,N,07740.8980,W,1,06,1.05,162.2,M,-34.4,M,,*55
$GPRMC,230658.000,A,4305.1696,N,07740.8980,W,0.01,27.72,120821,,,A*48
$GPGGA,230658.250,4305.1696,N,07740.8980,W,1,06,1.05,162.2,M,-34.4,M,,*5F
$GPRMC,230658.500,A,4305.1696,N,07740.8980,W,0.11,15.01,120821,,,A*49
$GPGGA,230658.750,4305.1696,N,07740.8980,W,1,06,1.05,162.2,M,-34.4,M,,*5A
$GPRMC,230659.000,A,4305.1696,N,07740.8980,W,0.10,14.91,120821,,,A*44
$GPGGA,230659.250,4305.1696,N,07740.8980,W,1,06,1.05,162.2,M,-34.4,M,,*5E
$GPRMC,230659.500,A,4305.1697,N,07740.8980,W,0.22,353.87,120821,,,A*76
$GPGGA,230659.750,4305.1697,N,07740.8980,W,1,06,1.05,162.2,M,-34.4,M,,*5A
$GPRMC,230700.000,A,4305.1697,N,07740.8980,W,0.17,344.80,120821,,,A*79
$GPGGA,230700.250,4305.1697,N,07740.8980,W,1,06,1.05,162.2,M,-34.4,M,,*52
$GPRMC,230700.500,A,4305.1697,N,07740.8980,W,1.33,325.66,120821,,,A*74
$GPGGA,230700.750,4305.1701,N,07740.8982,W,1,06,1.04,162.2,M,-34.4,M,,*5A
$GPRMC,230701.000,A,4305.1705,N,07740.8984,W,2.69,334.66,120821,,,A*72
$GPGGA,230701.250,4305.1709,N,07740.8986,W,1,06,1.04,162.3,M,-34.4,M,,*53
$GPRMC,230701.500,A,4305.1712,N,07740.8988,W,4.19,330.85,120821,,,A*75
$GPGGA,230701.750,4305.1716,N,07740.8991,W,1,06,1.05,162.3,M,-34.4,M,,*5F
$GPRMC,230702.000,A,4305.1719,N,07740.8993,W,4.81,330.64,120821,,,A*7C
$GPGGA,230702.250,4305.1723,N,07740.8997,W,1,06,1.05,162.3,M,-34.4,M,,*59
$GPRMC,230702.500,A,4305.1728,N,07740.9000,W,6.41,331.12,120821,,,A*77
$GPGGA,230702.750,4305.1733,N,07740.9005,W,1,06,1.05,162.2,M,-34.4,M,,*5F
$GPRMC,230703.000,A,4305.1739,N,07740.9009,W,7.69,329.76,120821,,,A*7A
$GPGGA,230703.250,4305.1745,N,07740.9014,W,1,06,1.05,162.2,M,-34.4,M,,*5A
$GPRMC,230703.500,A,4305.1751,N,07740.9018,W,8.15,331.22,120821,,,A*7D
$GPGGA,230703.750,4305.1757,N,07740.9022,W,1,06,1.05,162.3,M,-34.4,M,,*58
$GPRMC,230704.000,A,4305.1763,N,07740.9026,W,8.66,334.78,120821,,,A*7D
$GPGGA,230704.250,4305.1769,N,07740.9030,W,1,06,1.05,162.3,M,-34.4,M,,*54
$GPRMC,230704.500,A,4305.1775,N,07740.9034,W,9.21,333.53,120821,,,A*70
$GPGGA,230704.750,4305.1782,N,07740.9038,W,1,06,1.05,162.3,M,-34.4,M,,*5C
$GPRMC,230705.000,A,4305.1787,N,07740.9043,W,9.42,330.89,120821,,,A*78
$GPGGA,230705.250,4305.1793,N,07740.9050,W,1,06,1.04,162.3,M,-34.4,M,,*57
$GPRMC,230705.500,A,4305.1798,N,07740.9057,W,9.94,321.73,120821,,,A*78
$GPGGA,230705.750,4305.1803,N,07740.9065,W,1,06,1.05,162.3,M,-34.4,M,,*53
$GPRMC,230706.000,A,4305.1807,N,07740.9075,W,9.96,316.24,120821,,,A*73
$GPGGA,230706.250,4305.1811,N,07740.9085,W,1,06,1.05,162.4,M,-34.4,M,,*5F
$GPRMC,230706.500,A,4305.1816,N,07740.9093,W,10.02,308.67,120821,,,A*43
$GPGGA,230706.750,4305.1823,N,07740.9103,W,1,06,1.05,162.2,M,-34.4,M,,*52
$GPRMC,230707.000,A,4305.1827,N,07740.9112,W,10.03,302.00,120821,,,A*47
$GPGGA,230707.250,4305.1829,N,07740.9121,W,1,06,1.05,162.3,M,-34.4,M,,*5D
$GPRMC,230707.500,A,4305.1832,N,07740.9130,W,9.47,292.86,120821,,,A*78
$GPGGA,230707.750,4305.1833,N,07740.9139,W,1,06,1.05,162.3,M,-34.4,M,,*5A
$GPRMC,230708.000,A,4305.1835,N,07740.9149,W,9.56,283.80,120821,,,A*7D
$GPGGA,230708.250,4305.1836,N,07740.9159,W,1,06,1.05,162.3,M,-34.4,M,,*53
$GPRMC,230708.500,A,4305.1835,N,07740.9168,W,9.36,278.76,120821,,,A*70
$GPGGA,230708.750,4305.1834,N,07740.9176,W,1,06,1.05,162.3,M,-34.4,M,,*59
$GPRMC,230709.000,A,4305.1832,N,07740.9186,W,8.95,259.39,120821,,,A*73
$GPGGA,230709.250,4305.1830,N,07740.9195,W,1,06,1.05,162.0,M,-34.4,M,,*57
$GPRMC,230709.500,A,4305.1828,N,07740.9204,W,9.10,246.18,120821,,,A*75
$GPGGA,230709.750,4305.1825,N,07740.9210,W,1,06,1.05,161.8,M,-34.4,M,,*53
$GPRMC,230710.000,A,4305.1821,N,07740.9217,W,8.71,237.25,120821,,,A*7D
$GPGGA,230710.250,4305.1818,N,07740.9224,W,1,06,1.05,161.7,M,-34.4,M,,*58
$GPRMC,230710.500,A,4305.1815,N,07740.9230,W,8.62,229.29,120821,,,A*7B
$GPGGA,230710.750,4305.1810,N,07740.9236,W,1,06,1.05,161.5,M,-34.4,M,,*54
$GPRMC,230711.000,A,4305.1804,N,07740.9241,W,8.85,222.63,120821,,,A*75
$GPGGA,230711.250,4305.1799,N,07740.9246,W,1,06,1.05,161.3,M,-34.4,M,,*5F
$GPRMC,230711.500,A,4305.1794,N,07740.9251,W,8.89,218.08,120821,,,A*7F
$GPGGA,230711.750,4305.1790,N,07740.9256,W,1,06,1.05,161.2,M,-34.4,M,,*53
$GPRMC,230712.000,A,4305.1785,N,07740.9261,W,8.82,216.77,120821,,,A*77
$GPGGA,230712.250,4305.1780,N,07740.9267,W,1,06,1.05,161.1,M,-34.4,M,,*55
$GPRMC,230712.500,A,4305.1775,N,07740.9272,W,8.84,217.76,120821,,,A*79
$GPGGA,230712.750,4305.1770,N,07740.9278,W,1,06,1.05,160.9,M,-34.4,M,,*58
$GPRMC,230713.000,A,4305.1765,N,07740.9284,W,8.84,220.12,120821,,,A*73
$GPGGA,230713.250,4305.1761,N,07740.9290,W,1,06,1.05,160.9,M,-34.4,M,,*5A
$GPRMC,230713.500,A,4305.1755,N,07740.9298,W,8.75,222.15,120821,,,A*73
$GPGGA,230713.750,4305.1750,N,07740.9305,W,1,06,1.05,160.9,M,-34.4,M,,*50
$GPRMC,230714.000,A,4305.1743,N,07740.9311,W,8.07,227.70,120821,,,A*75
$GPGGA,230714.250,4305.1738,N,07740.9317,W,1,06,1.05,160.8,M,-34.4,M,,*5E
$GPRMC,230714.500,A,4305.1733,N,07740.9324,W,8.14,234.00,120821,,,A*76
$GPGGA,230714.750,4305.1730,N,07740.9331,W,1,06,1.05,160.5,M,-34.4,M,,*5A
$GPRMC,230715.000,A,4305.1726,N,07740.9339,W,8.56,238.86,120821,,,A*7E
$GPGGA,230715.250,4305.1723,N,07740.9346,W,1,06,1.05,160.3,M,-34.4,M,,*5A
$GPRMC,230715.500,A,4305.1720,N,07740.9353,W,8.31,245.68,120821,,,A*7A
$GPGGA,230715.750,4305.1717,N,07740.9361,W,1,06,1.05,160.3,M,-34.4,M,,*5D
$GPRMC,230716.000,A,4305.1715,N,07740.9370,W,8.54,248.68,120821,,,A*75
$GPGGA,230716.250,4305.1713,N,07740.9378,W,1,06,1.05,160.3,M,-34.4,M,,*57
$GPRMC,230716.500,A,4305.1712,N,07740.9386,W,8.53,257.36,120821,,,A*7C
$GPGGA,230716.750,4305.1711,N,07740.9394,W,1,06,1.05,160.2,M,-34.4,M,,*53
$GPRMC,230717.000,A,4305.1710,N,07740.9402,W,8.50,261.80,120821,,,A*7A
$GPGGA,230717.250,4305.1710,N,07740.9409,W,1,06,1.05,160.2,M,-34.4,M,,*55
$GPRMC,230717.500,A,4305.1710,N,07740.9417,W,8.19,266.29,120821,,,A*72
$GPGGA,230717.750,4305.1710,N,07740.9422,W,1,06,1.05,160.3,M,-34.4,M,,*58
$GPRMC,230718.000,A,4305.1711,N,07740.9428,W,7.43,271.81,120821,,,A*71
$GPGGA,230718.250,4305.1713,N,07740.9434,W,1,06,1.04,160.4,M,-34.4,M,,*50
$GPRMC,230718.500,A,4305.1715,N,07740.9440,W,6.77,282.05,120821,,,A*78
$GPGGA,230718.750,4305.1717,N,07740.9446,W,1,06,1.05,160.4,M,-34.4,M,,*55
$GPRMC,230719.000,A,4305.1721,N,07740.9451,W,6.42,294.39,120821,,,A*75
$GPGGA,230719.250,4305.1727,N,07740.9456,W,1,06,1.05,160.5,M,-34.4,M,,*52
$GPRMC,230719.500,A,4305.1738,N,07740.9462,W,8.09,325.29,120821,,,A*73
$GPGGA,230719.750,4305.1745,N,07740.9465,W,1,06,1.05,160.5,M,-34.4,M,,*53
$GPRMC,230720.000,A,4305.1752,N,07740.9468,W,8.54,336.78,120821,,,A*74
$GPGGA,230720.250,4305.1759,N,07740.9469,W,1,06,1.05,160.5,M,-34.4,M,,*5D
$GPRMC,230720.500,A,4305.1765,N,07740.9469,W,9.21,350.64,120821,,,A*7A
$GPGGA,230720.750,4305.1772,N,07740.9469,W,1,06,1.05,160.6,M,-34.4,M,,*52
$GPRMC,230721.000,A,4305.1779,N,07740.9469,W,9.51,357.60,120821,,,A*77
$GPGGA,230721.250,4305.1788,N,07740.9463,W,1,06,1.05,160.9,M,-34.4,M,,*56
$GPRMC,230721.500,A,4305.1795,N,07740.9460,W,9.82,9.42,120821,,,A*7F
$GPGGA,230721.750,4305.1803,N,07740.9457,W,1,06,1.05,161.0,M,-34.4,M,,*50
$GPRMC,230722.000,A,4305.1810,N,07740.9454,W,9.57,16.02,120821,,,A*4E
$GPGGA,230722.250,4305.1817,N,07740.9447,W,1,06,1.04,161.0,M,-34.4,M,,*53
$GPRMC,230722.500,A,4305.1823,N,07740.9441,W,10.36,25.54,120821,,,A*73
$GPGGA,230722.750,4305.1831,N,07740.9432,W,1,06,1.04,161.1,M,-34.4,M,,*51
$GPRMC,230723.000,A,4305.1838,N,07740.9424,W,11.29,33.67,120821,,,A*76
$GPGGA,230723.250,4305.1844,N,07740.9415,W,1,06,1.05,161.2,M,-34.4,M,,*50
$GPRMC,230723.500,A,4305.1849,N,07740.9405,W,11.46,42.45,120821,,,A*79
$GPGGA,230723.750,4305.1854,N,07740.9394,W,1,06,1.05,161.4,M,-34.4,M,,*5C
$GPRMC,230724.000,A,4305.1859,N,07740.9381,W,11.98,50.28,120821,,,A*7A
$GPGGA,230724.250,4305.1863,N,07740.9369,W,1,06,1.05,161.4,M,-34.4,M,,*58
$GPRMC,230724.500,A,4305.1869,N,07740.9357,W,12.37,54.89,120821,,,A*7E
$GPGGA,230724.750,4305.1873,N,07740.9345,W,1,06,1.05,161.4,M,-34.4,M,,*52
$GPRMC,230725.000,A,4305.1878,N,07740.9332,W,12.77,57.41,120821,,,A*7A
$GPGGA,230725.250,4305.1882,N,07740.9318,W,1,06,1.05,161.4,M,-34.4,M,,*50
$GPRMC,230725.500,A,4305.1887,N,07740.9304,W,13.67,60.56,120821,,,A*78
$GPGGA,230725.750,4305.1891,N,07740.9287,W,1,06,1.05,161.4,M,-34.4,M,,*50
$GPRMC,230726.000,A,4305.1895,N,07740.9272,W,14.41,64.32,120821,,,A*78
$GPGGA,230726.250,4305.1899,N,07740.9257,W,1,06,1.05,161.4,M,-34.4,M,,*53
$GPRMC,230726.500,A,4305.1902,N,07740.9243,W,14.70,66.12,120821,,,A*72
$GPGGA,230726.750,4305.1904,N,07740.9228,W,1,06,1.05,161.3,M,-34.4,M,,*5C
$GPRMC,230727.000,A,4305.1904,N,07740.9213,W,14.62,71.41,120821,,,A*76
$GPGGA,230727.250,4305.1906,N,07740.9199,W,1,06,1.05,161.2,M,-34.4,M,,*52
$GPRMC,230727.500,A,4305.1908,N,07740.9185,W,14.43,73.38,120821,,,A*7C
$GPGGA,230727.750,4305.1911,N,07740.9172,W,1,06,1.05,161.1,M,-34.4,M,,*57
$GPRMC,230728.000,A,4305.1913,N,07740.9159,W,14.21,74.42,120821,,,A*73
$GPGGA,230728.250,4305.1915,N,07740.9146,W,1,06,1.05,161.0,M,-34.4,M,,*5F
$GPRMC,230728.500,A,4305.1916,N,07740.9133,W,13.56,75.04,120821,,,A*7B
$GPGGA,230728.750,4305.1918,N,07740.9118,W,1,06,1.05,160.9,M,-34.4,M,,*54
$GPRMC,230729.000,A,4305.1919,N,07740.9095,W,12.87,76.58,120821,,,A*7A
$GPGGA,230729.250,4305.1921,N,07740.9075,W,1,06,1.05,160.8,M,-34.4,M,,*51
$GPRMC,230729.500,A,4305.1923,N,07740.9060,W,12.55,77.87,120821,,,A*70
$GPGGA,230729.750,4305.1926,N,07740.9046,W,1,06,1.04,160.8,M,-34.4,M,,*52
$GPRMC,230730.000,A,4305.1928,N,07740.9033,W,12.30,80.09,120821,,,A*7D
$GPGGA,230730.250,4305.1931,N,07740.9020,W,1,06,1.05,160.9,M,-34.4,M,,*59
$GPRMC,230730.500,A,4305.1932,N,07740.9008,W,11.93,80.79,120821,,,A*76
$GPGGA,230730.750,4305.1934,N,07740.8997,W,1,06,1.05,160.9,M,-34.4,M,,*5D
$GPRMC,230731.000,A,4305.1935,N,07740.8986,W,11.41,80.83,120821,,,A*71
$GPGGA,230731.250,4305.1937,N,07740.8976,W,1,06,1.05,160.8,M,-34.4,M,,*54
$GPRMC,230731.500,A,4305.1939,N,07740.8966,W,11.13,81.59,120821,,,A*77
$GPGGA,230731.750,4305.1941,N,07740.8957,W,1,06,1.05,160.7,M,-34.4,M,,*5C
$GPRMC,230732.000,A,4305.1942,N,07740.8946,W,11.01,82.38,120821,,,A*78
$GPGGA,230732.250,4305.1943,N,07740.8936,W,1,06,1.05,160.7,M,-34.4,M,,*5F
$GPRMC,230732.500,A,4305.1944,N,07740.8926,W,10.69,82.57,120821,,,A*7B
$GPGGA,230732.750,4305.1947,N,07740.8918,W,1,06,1.05,160.7,M,-34.4,M,,*52
$GPRMC,230733.000,A,4305.1949,N,07740.8910,W,10.38,79.86,120821,,,A*7B
$GPGGA,230733.250,4305.1951,N,07740.8900,W,1,06,1.05,160.7,M,-34.4,M,,*58
$GPRMC,230733.500,A,4305.1953,N,07740.8891,W,10.28,76.10,120821,,,A*7C
$GPGGA,230733.750,4305.1957,N,07740.8883,W,1,06,1.05,160.5,M,-34.4,M,,*53
$GPRMC,230734.000,A,4305.1961,N,07740.8876,W,10.15,66.61,120821,,,A*7F
$GPGGA,230734.250,4305.1965,N,07740.8867,W,1,06,1.04,160.4,M,-34.4,M,,*5A
$GPRMC,230734.500,A,4305.1970,N,07740.8861,W,10.07,60.77,120821,,,A*7E
$GPGGA,230734.750,4305.1976,N,07740.8855,W,1,06,1.05,160.4,M,-34.4,M,,*5D
$GPRMC,230735.000,A,4305.1982,N,07740.8849,W,10.11,49.32,120821,,,A*70
$GPGGA,230735.250,4305.1987,N,07740.8843,W,1,06,1.05,160.3,M,-34.4,M,,*57
$GPRMC,230735.500,A,4305.1993,N,07740.8837,W,10.11,44.75,120821,,,A*72
$GPGGA,230735.750,4305.2002,N,07740.8836,W,1,06,1.05,160.0,M,-34.4,M,,*54
$GPRMC,230736.000,A,4305.2009,N,07740.8831,W,10.08,35.58,120821,,,A*7A
$GPGGA,230736.250,4305.2015,N,07740.8829,W,1,06,1.04,160.1,M,-34.4,M,,*5A
$GPRMC,230736.500,A,4305.2023,N,07740.8828,W,10.45,21.85,120821,,,A*73
$GPGGA,230736.750,4305.2038,N,07740.8833,W,1,06,1.05,159.8,M,-34.4,M,,*59
$GPRMC,230737.000,A,4305.2045,N,07740.8833,W,11.52,11.02,120821,,,A*76
$GPGGA,230737.250,4305.2054,N,07740.8834,W,1,06,1.05,159.7,M,-34.4,M,,*5F
$GPRMC,230737.500,A,4305.2063,N,07740.8834,W,12.08,4.65,120821,,,A*49
$GPGGA,230737.750,4305.2074,N,07740.8835,W,1,06,1.05,159.4,M,-34.4,M,,*5A
$GPRMC,230738.000,A,4305.2083,N,07740.8836,W,12.64,1.39,120821,,,A*49
$GPGGA,230738.250,4305.2094,N,07740.8837,W,1,06,1.05,159.2,M,-34.4,M,,*5A
$GPRMC,230738.500,A,4305.2105,N,07740.8838,W,12.96,359.00,120821,,,A*44
$GPGGA,230738.750,4305.2115,N,07740.8840,W,1,06,1.05,158.9,M,-34.4,M,,*5D
$GPRMC,230739.000,A,4305.2126,N,07740.8842,W,13.07,358.05,120821,,,A*41
$GPGGA,230739.250,4305.2136,N,07740.8844,W,1,06,1.05,158.6,M,-34.4,M,,*53
$GPRMC,230739.500,A,4305.2146,N,07740.8845,W,13.26,356.73,120821,,,A*49
$GPGGA,230739.750,4305.2156,N,07740.8847,W,1,06,1.05,158.3,M,-34.4,M,,*56
$GPRMC,230740.000,A,4305.2165,N,07740.8849,W,13.32,356.22,120821,,,A*4E
$GPGGA,230740.250,4305.2174,N,07740.8850,W,1,06,1.05,158.2,M,-34.4,M,,*5A
$GPRMC,230740.500,A,4305.2183,N,07740.8851,W,13.13,355.77,120821,,,A*4A
$GPGGA,230740.750,4305.2192,N,07740.8853,W,1,06,1.05,158.2,M,-34.4,M,,*54
$GPRMC,230741.000,A,4305.2201,N,07740.8855,W,12.92,354.64,120821,,,A*48
$GPGGA,230741.250,4305.2210,N,07740.8857,W,1,06,1.05,158.2,M,-34.4,M,,*5D
$GPRMC,230741.500,A,4305.2219,N,07740.8859,W,12.83,353.44,120821,,,A*4D
$GPGGA,230741.750,4305.2228,N,07740.8862,W,1,06,1.05,158.0,M,-34.4,M,,*57
$GPRMC,230742.000,A,4305.2237,N,07740.8864,W,12.85,351.73,120821,,,A*49
$GPGGA,230742.250,4305.2247,N,07740.8867,W,1,06,1.05,157.9,M,-34.4,M,,*5B
$GPRMC,230742.500,A,4305.2256,N,07740.8870,W,13.12,350.15,120821,,,A*40
$GPGGA,230742.750,4305.2265,N,07740.8873,W,1,06,1.05,157.7,M,-34.4,M,,*55
$GPRMC,230743.000,A,4305.2275,N,07740.8876,W,13.21,349.22,120821,,,A*4F
$GPGGA,230743.250,4305.2284,N,07740.8879,W,1,06,1.05,157.6,M,-34.4,M,,*55
$GPRMC,230743.500,A,4305.2293,N,07740.8882,W,13.17,348.29,120821,,,A*46
$GPGGA,230743.750,4305.2301,N,07740.8886,W,1,06,1.05,157.4,M,-34.4,M,,*5E
$GPRMC,230744.000,A,4305.2310,N,07740.8889,W,13.12,348.46,120821,,,A*49
$GPGGA,230744.250,4305.2319,N,07740.8892,W,1,06,1.05,157.3,M,-34.4,M,,*57
$GPRMC,230744.500,A,4305.2327,N,07740.8897,W,12.31,348.11,120821,,,A*45
$GPGGA,230744.750,4305.2336,N,07740.8902,W,1,06,1.05,157.1,M,-34.4,M,,*55
$GPRMC,230745.000,A,4305.2344,N,07740.8906,W,11.16,347.86,120821,,,A*4A
$GPGGA,230745.250,4305.2350,N,07740.8909,W,1,06,1.05,157.0,M,-34.4,M,,*5B
$GPRMC,230745.500,A,4305.2357,N,07740.8912,W,10.08,349.21,120821,,,A*45
$GPGGA,230745.750,4305.2362,N,07740.8914,W,1,06,1.05,156.8,M,-34.4,M,,*5A
$GPRMC,230746.000,A,4305.2367,N,07740.8917,W,8.16,351.00,120821,,,A*79
$GPGGA,230746.250,4305.2371,N,07740.8918,W,1,06,1.05,156.6,M,-34.4,M,,*5C
$GPRMC,230746.500,A,4305.2375,N,07740.8918,W,6.42,356.83,120821,,,A*73
$GPGGA,230746.750,4305.2378,N,07740.8919,W,1,06,1.05,156.4,M,-34.4,M,,*53
$GPRMC,230747.000,A,4305.2382,N,07740.8919,W,6.11,0.07,120821,,,A*74
$GPGGA,230747.250,4305.2386,N,07740.8918,W,1,06,1.05,156.4,M,-34.4,M,,*57
$GPRMC,230747.500,A,4305.2390,N,07740.8918,W,6.11,2.42,120821,,,A*70
$GPGGA,230747.750,4305.2393,N,07740.8918,W,1,06,1.05,156.4,M,-34.4,M,,*56
$GPRMC,230748.000,A,4305.2397,N,07740.8918,W,6.33,3.76,120821,,,A*7B
$GPGGA,230748.250,4305.2402,N,07740.8917,W,1,06,1.05,156.2,M,-34.4,M,,*5A
$GPRMC,230748.500,A,4305.2407,N,07740.8916,W,7.21,7.80,120821,,,A*71
$GPGGA,230748.750,4305.2413,N,07740.8913,W,1,06,1.05,156.1,M,-34.4,M,,*58
$GPRMC,230749.000,A,4305.2419,N,07740.8910,W,7.89,16.33,120821,,,A*46
$GPGGA,230749.250,4305.2424,N,07740.8907,W,1,06,1.05,156.1,M,-34.4,M,,*5D
$GPRMC,230749.500,A,4305.2431,N,07740.8901,W,8.75,28.55,120821,,,A*48
$GPGGA,230749.750,4305.2437,N,07740.8895,W,1,06,1.04,155.9,M,-34.4,M,,*5A
$GPRMC,230750.000,A,4305.2442,N,07740.8889,W,9.61,34.84,120821,,,A*45
$GPGGA,230750.250,4305.2449,N,07740.8879,W,1,06,1.05,155.9,M,-34.4,M,,*5D
$GPRMC,230750.500,A,4305.2455,N,07740.8872,W,11.49,41.78,120821,,,A*70
$GPGGA,230750.750,4305.2461,N,07740.8863,W,1,06,1.05,155.7,M,-34.4,M,,*57
$GPRMC,230751.000,A,4305.2467,N,07740.8853,W,12.51,47.62,120821,,,A*71
$GPGGA,230751.250,4305.2472,N,07740.8841,W,1,06,1.05,155.5,M,-34.4,M,,*53
$GPRMC,230751.500,A,4305.2477,N,07740.8828,W,14.30,55.94,120821,,,A*72
$GPGGA,230751.750,4305.2482,N,07740.8815,W,1,06,1.05,155.3,M,-34.4,M,,*5E
$GPRMC,230752.000,A,4305.2486,N,07740.8802,W,15.07,60.83,120821,,,A*77
$GPGGA,230752.250,4305.2489,N,07740.8787,W,1,06,1.04,155.0,M,-34.4,M,,*55
$GPRMC,230752.500,A,4305.2491,N,07740.8772,W,16.03,68.19,120821,,,A*70
$GPGGA,230752.750,4305.2493,N,07740.8756,W,1,06,1.04,154.9,M,-34.4,M,,*5F
$GPRMC,230753.000,A,4305.2496,N,07740.8739,W,16.63,71.93,120821,,,A*70
$GPGGA,230753.250,4305.2500,N,07740.8722,W,1,06,1.05,154.8,M,-34.4,M,,*53
$GPRMC,230753.500,A,4305.2503,N,07740.8705,W,17.33,72.77,120821,,,A*7A
$GPGGA,230753.750,4305.2506,N,07740.8687,W,1,06,1.05,154.7,M,-34.4,M,,*51
$GPRMC,230754.000,A,4305.2509,N,07740.8669,W,18.19,72.93,120821,,,A*74
$GPGGA,230754.250,4305.2511,N,07740.8650,W,1,06,1.05,154.6,M,-34.4,M,,*5E
$GPRMC,230754.500,A,4305.2514,N,07740.8631,W,18.84,73.88,120821,,,A*7F
$GPGGA,230754.750,4305.2517,N,07740.8612,W,1,06,1.05,154.6,M,-34.4,M,,*5B
$GPRMC,230755.000,A,4305.2520,N,07740.8593,W,19.08,74.72,120821,,,A*70
$GPGGA,230755.250,4305.2523,N,07740.8573,W,1,06,1.05,154.5,M,-34.4,M,,*5F
$GPRMC,230755.500,A,4305.2526,N,07740.8554,W,19.10,75.83,120821,,,A*7E
$GPGGA,230755.750,4305.2528,N,07740.8533,W,1,06,1.05,154.4,M,-34.4,M,,*54
$GPRMC,230756.000,A,4305.2530,N,07740.8514,W,19.33,76.77,120821,,,A*72
$GPGGA,230756.250,4305.2533,N,07740.8494,W,1,06,1.05,154.3,M,-34.4,M,,*53
$GPRMC,230756.500,A,4305.2535,N,07740.8475,W,19.28,77.62,120821,,,A*7B
$GPGGA,230756.750,4305.2538,N,07740.8455,W,1,06,1.05,154.3,M,-34.4,M,,*50
$GPRMC,230757.000,A,4305.2540,N,07740.8436,W,19.28,78.03,120821,,,A*72
$GPGGA,230757.250,4305.2542,N,07740.8416,W,1,06,1.05,154.1,M,-34.4,M,,*5C
$GPRMC,230757.500,A,4305.2545,N,07740.8397,W,19.48,79.17,120821,,,A*7C
$GPGGA,230757.750,4305.2546,N,07740.8378,W,1,06,1.05,153.9,M,-34.4,M,,*5D
$GPRMC,230758.000,A,4305.2549,N,07740.8360,W,19.41,79.64,120821,,,A*7F
$GPGGA,230758.250,4305.2551,N,07740.8342,W,1,06,1.05,153.8,M,-34.4,M,,*59
$GPRMC,230758.500,A,4305.2553,N,07740.8324,W,18.74,80.55,120821,,,A*72
$GPGGA,230758.750,4305.2555,N,07740.8307,W,1,06,1.05,153.8,M,-34.4,M,,*59
$GPRMC,230759.000,A,4305.2557,N,07740.8289,W,18.57,80.47,120821,,,A*76
$GPGGA,230759.250,4305.2559,N,07740.8272,W,1,06,1.05,153.8,M,-34.4,M,,*52
$GPRMC,230759.500,A,4305.2561,N,07740.8255,W,18.59,80.03,120821,,,A*79
$GPGGA,230759.750,4305.2564,N,07740.8238,W,1,06,1.05,153.8,M,-34.4,M,,*57
$GPRMC,230800.000,A,4305.2566,N,07740.8221,W,18.28,79.67,120821,,,A*79
$GPGGA,230800.250,4305.2569,N,07740.8205,W,1,06,1.05,153.8,M,-34.4,M,,*52
$GPRMC,230800.500,A,4305.2571,N,07740.8188,W,18.06,79.53,120821,,,A*71
$GPGGA,230800.750,4305.2573,N,07740.8172,W,1,06,1.05,153.8,M,-34.4,M,,*5F
$GPRMC,230801.000,A,4305.2575,N,07740.8155,W,17.82,80.08,120821,,,A*7A
$GPGGA,230801.250,4305.2577,N,07740.8138,W,1,06,1.05,153.7,M,-34.4,M,,*5E
$GPRMC,230801.500,A,4305.2578,N,07740.8121,W,17.77,81.57,120821,,,A*70
$GPGGA,230801.750,4305.2579,N,07740.8104,W,1,06,1.05,153.7,M,-34.4,M,,*5A
$GPRMC,230802.000,A,4305.2580,N,07740.8087,W,17.75,83.67,120821,,,A*7F
$GPGGA,230802.250,4305.2580,N,07740.8069,W,1,06,1.04,153.7,M,-34.4,M,,*51
$GPRMC,230802.500,A,4305.2581,N,07740.8052,W,17.75,84.93,120821,,,A*7F
$GPGGA,230802.750,4305.2583,N,07740.8036,W,1,06,1.05,153.7,M,-34.4,M,,*5C
$GPRMC,230803.000,A,4305.2584,N,07740.8019,W,17.69,85.58,120821,,,A*7A
$GPGGA,230803.250,4305.2584,N,07740.8002,W,1,06,1.05,153.6,M,-34.4,M,,*59
$GPRMC,230803.500,A,4305.2584,N,07740.7985,W,17.42,87.06,120821,,,A*7C
$GPGGA,230803.750,4305.2583,N,07740.7966,W,1,06,1.04,153.5,M,-34.4,M,,*5D
$GPRMC,230804.000,A,4305.2581,N,07740.7949,W,17.05,87.59,120821,,,A*72
$GPGGA,230804.250,4305.2578,N,07740.7931,W,1,06,1.05,153.4,M,-34.4,M,,*59
$GPRMC,230804.500,A,4305.2576,N,07740.7913,W,16.65,88.03,120821,,,A*77
$GPGGA,230804.750,4305.2574,N,07740.7896,W,1,06,1.05,153.2,M,-34.4,M,,*5A
$GPRMC,230805.000,A,4305.2573,N,07740.7878,W,16.42,88.67,120821,,,A*7D
$GPGGA,230805.250,4305.2572,N,07740.7860,W,1,06,1.05,153.0,M,-34.4,M,,*53
$GPRMC,230805.500,A,4305.2571,N,07740.7842,W,16.12,88.91,120821,,,A*7F
$GPGGA,230805.750,4305.2571,N,07740.7826,W,1,06,1.05,152.8,M,-34.4,M,,*5E
$GPRMC,230806.000,A,4305.2570,N,07740.7809,W,15.98,88.89,120821,,,A*7F
$GPGGA,230806.250,4305.2570,N,07740.7793,W,1,06,1.05,152.6,M,-34.4,M,,*56
$GPRMC,230806.500,A,4305.2569,N,07740.7777,W,15.64,88.85,120821,,,A*7B
$GPGGA,230806.750,4305.2568,N,07740.7762,W,1,06,1.05,152.4,M,-34.4,M,,*56
$GPRMC,230807.000,A,4305.2568,N,07740.7747,W,15.55,89.28,120821,,,A*79
$GPGGA,230807.250,4305.2568,N,07740.7732,W,1,06,1.05,152.2,M,-34.4,M,,*51
$GPRMC,230807.500,A,4305.2568,N,07740.7717,W,15.20,89.17,120821,,,A*77
$GPGGA,230807.750,4305.2568,N,07740.7703,W,1,06,1.05,152.1,M,-34.4,M,,*55
$GPRMC,230808.000,A,4305.2568,N,07740.7690,W,14.83,88.54,120821,,,A*7D
$GPGGA,230808.250,4305.2568,N,07740.7676,W,1,06,1.05,152.1,M,-34.4,M,,*5C
$GPRMC,230808.500,A,4305.2568,N,07740.7662,W,14.42,88.37,120821,,,A*7D
$GPGGA,230808.750,4305.2568,N,07740.7649,W,1,06,1.05,152.0,M,-34.4,M,,*54
$GPRMC,230809.000,A,4305.2568,N,07740.7636,W,14.15,87.58,120821,,,A*7C
$GPGGA,230809.250,4305.2568,N,07740.7623,W,1,06,1.05,151.9,M,-34.4,M,,*56
$GPRMC,230809.500,A,4305.2569,N,07740.7610,W,13.96,87.54,120821,,,A*7C
$GPGGA,230809.750,4305.2569,N,07740.7597,W,1,06,1.05,151.7,M,-34.4,M,,*50
$GPRMC,230810.000,A,4305.2569,N,07740.7584,W,13.73,87.17,120821,,,A*73
$GPGGA,230810.250,4305.2570,N,07740.7571,W,1,06,1.05,151.6,M,-34.4,M,,*5C
$GPRMC,230810.500,A,4305.2570,N,07740.7559,W,13.43,87.46,120821,,,A*79
$GPGGA,230810.750,4305.2570,N,07740.7547,W,1,06,1.04,151.5,M,-34.4,M,,*5E
$GPRMC,230811.000,A,4305.2570,N,07740.7534,W,13.24,88.01,120821,,,A*7B
$GPGGA,230811.250,4305.2570,N,07740.7522,W,1,06,1.05,151.5,M,-34.4,M,,*58
$GPRMC,230811.500,A,4305.2570,N,07740.7509,W,13.45,88.21,120821,,,A*75
$GPGGA,230811.750,4305.2570,N,07740.7497,W,1,06,1.05,151.5,M,-34.4,M,,*52
$GPRMC,230812.000,A,4305.2570,N,07740.7484,W,13.58,88.68,120821,,,A*76
$GPGGA,230812.250,4305.2570,N,07740.7471,W,1,06,1.05,151.5,M,-34.4,M,,*5C
$GPRMC,230812.500,A,4305.2570,N,07740.7458,W,13.77,89.07,120821,,,A*77
$GPGGA,230812.750,4305.2570,N,07740.7445,W,1,06,1.05,151.5,M,-34.4,M,,*5E
$GPRMC,230813.000,A,4305.2569,N,07740.7432,W,13.97,89.28,120821,,,A*74
$GPGGA,230813.250,4305.2569,N,07740.7418,W,1,06,1.05,151.5,M,-34.4,M,,*5A
$GPRMC,230813.500,A,4305.2569,N,07740.7405,W,14.26,89.15,120821,,,A*76
$GPGGA,230813.750,4305.2569,N,07740.7391,W,1,06,1.05,151.5,M,-34.4,M,,*59
$GPRMC,230814.000,A,4305.2569,N,07740.7377,W,14.75,89.08,120821,,,A*7C
$GPGGA,230814.250,4305.2569,N,07740.7363,W,1,06,1.05,151.3,M,-34.4,M,,*50
$GPRMC,230814.500,A,4305.2569,N,07740.7348,W,14.98,89.19,120821,,,A*76
$GPGGA,230814.750,4305.2569,N,07740.7334,W,1,06,1.05,151.2,M,-34.4,M,,*56
$GPRMC,230815.000,A,4305.2569,N,07740.7320,W,15.01,89.06,120821,,,A*73
$GPGGA,230815.250,4305.2569,N,07740.7305,W,1,06,1.05,151.0,M,-34.4,M,,*52
$GPRMC,230815.500,A,4305.2569,N,07740.7291,W,15.00,88.79,120821,,,A*75
$GPGGA,230815.750,4305.2569,N,07740.7277,W,1,06,1.05,150.7,M,-34.4,M,,*55
$GPRMC,230816.000,A,4305.2569,N,07740.7262,W,15.01,89.37,120821,,,A*75
$GPGGA,230816.250,4305.2569,N,07740.7247,W,1,06,1.05,150.5,M,-34.4,M,,*52
$GPRMC,230816.500,A,4305.2568,N,07740.7232,W,15.56,89.94,120821,,,A*7F
$GPGGA,230816.750,4305.2568,N,07740.7217,W,1,06,1.05,150.1,M,-34.4,M,,*57
$GPRMC,230817.000,A,4305.2568,N,07740.7202,W,16.04,90.23,120821,,,A*78
$GPGGA,230817.250,4305.2568,N,07740.7186,W,1,06,1.05,149.8,M,-34.4,M,,*59
$GPRMC,230817.500,A,4305.2568,N,07740.7171,W,16.22,89.84,120821,,,A*7B
$GPGGA,230817.750,4305.2568,N,07740.7155,W,1,06,1.05,149.6,M,-34.4,M,,*5C
$GPRMC,230818.000,A,4305.2569,N,07740.7140,W,16.26,89.51,120821,,,A*7E
$GPGGA,230818.250,4305.2569,N,07740.7125,W,1,06,1.05,149.4,M,-34.4,M,,*52
$GPRMC,230818.500,A,4305.2569,N,07740.7110,W,16.29,88.85,120821,,,A*79
$GPGGA,230818.750,4305.2570,N,07740.7095,W,1,06,1.05,149.2,M,-34.4,M,,*53
$GPRMC,230819.000,A,4305.2571,N,07740.7079,W,16.35,88.23,120821,,,A*7B
$GPGGA,230819.250,4305.2571,N,07740.7062,W,1,06,1.05,149.1,M,-34.4,M,,*5D
$GPRMC,230819.500,A,4305.2572,N,07740.7047,W,16.38,88.17,120821,,,A*7A
$GPGGA,230819.750,4305.2573,N,07740.7031,W,1,06,1.05,148.9,M,-34.4,M,,*55
$GPRMC,230820.000,A,4305.2574,N,07740.7016,W,16.44,87.71,120821,,,A*73
$GPGGA,230820.250,4305.2575,N,07740.7000,W,1,06,1.05,148.8,M,-34.4,M,,*5F
$GPRMC,230820.500,A,4305.2576,N,07740.6985,W,16.66,87.72,120821,,,A*75
$GPGGA,230820.750,4305.2577,N,07740.6970,W,1,06,1.05,148.6,M,-34.4,M,,*59
$GPRMC,230821.000,A,4305.2578,N,07740.6955,W,16.69,87.82,120821,,,A*72
$GPGGA,230821.250,4305.2579,N,07740.6940,W,1,06,1.05,148.4,M,-34.4,M,,*52
$GPRMC,230821.500,A,4305.2580,N,07740.6925,W,16.72,87.84,120821,,,A*7B
$GPGGA,230821.750,4305.2581,N,07740.6910,W,1,06,1.05,148.2,M,-34.4,M,,*53
$GPRMC,230822.000,A,4305.2582,N,07740.6895,W,16.72,87.28,120821,,,A*73
$GPGGA,230822.250,4305.2583,N,07740.6879,W,1,06,1.05,148.0,M,-34.4,M,,*5B
$GPRMC,230822.500,A,4305.2583,N,07740.6863,W,16.66,87.44,120821,,,A*71
$GPGGA,230822.750,4305.2584,N,07740.6847,W,1,06,1.05,148.0,M,-34.4,M,,*54
$GPRMC,230823.000,A,4305.2584,N,07740.6831,W,16.83,88.54,120821,,,A*70
$GPGGA,230823.250,4305.2585,N,07740.6816,W,1,06,1.04,147.9,M,-34.4,M,,*52
$GPRMC,230823.500,A,4305.2585,N,07740.6800,W,16.86,88.97,120821,,,A*7C
$GPGGA,230823.750,4305.2586,N,07740.6784,W,1,06,1.05,147.8,M,-34.4,M,,*50
$GPRMC,230824.000,A,4305.2587,N,07740.6767,W,16.98,88.30,120821,,,A*70
$GPGGA,230824.250,4305.2588,N,07740.6750,W,1,07,1.02,147.9,M,-34.4,M,,*52
$GPRMC,230824.500,A,4305.2588,N,07740.6732,W,17.05,87.25,120821,,,A*74
$GPGGA,230824.750,4305.2589,N,07740.6715,W,1,07,1.02,148.2,M,-34.4,M,,*53
$GPRMC,230825.000,A,4305.2589,N,07740.6698,W,17.07,86.94,120821,,,A*79
$GPGGA,230825.250,4305.2590,N,07740.6682,W,1,07,1.02,148.4,M,-34.4,M,,*56
$GPRMC,230825.500,A,4305.2590,N,07740.6665,W,16.76,87.27,120821,,,A*78
$GPGGA,230825.750,4305.2590,N,07740.6649,W,1,07,1.02,148.6,M,-34.4,M,,*56
$GPRMC,230826.000,A,4305.2591,N,07740.6632,W,16.61,87.50,120821,,,A*7B
$GPGGA,230826.250,4305.2591,N,07740.6616,W,1,07,1.02,148.8,M,-34.4,M,,*55
$GPRMC,230826.500,A,4305.2592,N,07740.6599,W,16.37,87.68,120821,,,A*77
$GPGGA,230826.750,4305.2591,N,07740.6581,W,1,07,1.02,149.0,M,-34.4,M,,*54
$GPRMC,230827.000,A,4305.2591,N,07740.6565,W,16.31,87.61,120821,,,A*7C
$GPGGA,230827.250,4305.2590,N,07740.6547,W,1,07,1.02,149.2,M,-34.4,M,,*59
$GPRMC,230827.500,A,4305.2590,N,07740.6530,W,16.21,87.32,120821,,,A*7F
$GPGGA,230827.750,4305.2589,N,07740.6514,W,1,07,1.02,149.4,M,-34.4,M,,*54
$GPRMC,230828.000,A,4305.2590,N,07740.6499,W,15.89,87.41,120821,,,A*72
$GPGGA,230828.250,4305.2590,N,07740.6484,W,1,07,1.02,149.5,M,-34.4,M,,*5F
$GPRMC,230828.500,A,4305.2590,N,07740.6469,W,15.63,87.46,120821,,,A*7B
$GPGGA,230828.750,4305.2591,N,07740.6454,W,1,07,1.02,149.5,M,-34.4,M,,*56
$GPRMC,230829.000,A,4305.2591,N,07740.6439,W,15.41,87.78,120821,,,A*76
$GPGGA,230829.250,4305.2592,N,07740.6425,W,1,07,1.02,149.6,M,-34.4,M,,*54
$GPRMC,230829.500,A,4305.2593,N,07740.6412,W,14.88,87.06,120821,,,A*75
$GPGGA,230829.750,4305.2593,N,07740.6399,W,1,07,1.02,149.9,M,-34.4,M,,*5F
$GPRMC,230830.000,A,4305.2593,N,07740.6386,W,14.46,87.17,120821,,,A*70
$GPGGA,230830.250,4305.2594,N,07740.6373,W,1,07,1.02,150.2,M,-34.4,M,,*52
$GPRMC,230830.500,A,4305.2594,N,07740.6360,W,14.05,87.71,120821,,,A*7D
$GPGGA,230830.750,4305.2594,N,07740.6347,W,1,07,1.02,150.5,M,-34.4,M,,*57
$GPRMC,230831.000,A,4305.2594,N,07740.6334,W,13.77,89.00,120821,,,A*72
$GPGGA,230831.250,4305.2594,N,07740.6321,W,1,07,1.02,150.7,M,-34.4,M,,*51
$GPRMC,230831.500,A,4305.2595,N,07740.6308,W,13.33,89.56,120821,,,A*7A
$GPGGA,230831.750,4305.2595,N,07740.6296,W,1,07,1.02,151.0,M,-34.4,M,,*5E
$GPRMC,230832.000,A,4305.2595,N,07740.6283,W,13.07,89.21,120821,,,A*79
$GPGGA,230832.250,4305.2595,N,07740.6270,W,1,07,1.02,151.3,M,-34.4,M,,*53
$GPRMC,230832.500,A,4305.2595,N,07740.6258,W,13.01,88.94,120821,,,A*73
$GPGGA,230832.750,4305.2595,N,07740.6245,W,1,07,1.02,151.5,M,-34.4,M,,*56
$GPRMC,230833.000,A,4305.2595,N,07740.6233,W,12.98,88.62,120821,,,A*72
$GPGGA,230833.250,4305.2595,N,07740.6220,W,1,07,1.02,151.7,M,-34.4,M,,*53
$GPRMC,230833.500,A,4305.2595,N,07740.6207,W,12.98,88.79,120821,,,A*7A
$GPGGA,230833.750,4305.2594,N,07740.6194,W,1,07,1.02,151.9,M,-34.4,M,,*55
$GPRMC,230834.000,A,4305.2594,N,07740.6182,W,13.04,88.40,120821,,,A*79
$GPGGA,230834.250,4305.2593,N,07740.6166,W,1,07,1.02,152.0,M,-34.4,M,,*57
$GPRMC,230834.500,A,4305.2592,N,07740.6152,W,12.91,87.85,120821,,,A*7C
$GPGGA,230834.750,4305.2591,N,07740.6138,W,1,07,1.02,152.2,M,-34.4,M,,*59
$GPRMC,230835.000,A,4305.2590,N,07740.6126,W,12.76,88.37,120821,,,A*76
$GPGGA,230835.250,4305.2590,N,07740.6114,W,1,07,1.02,152.4,M,-34.4,M,,*54
$GPRMC,230835.500,A,4305.2590,N,07740.6102,W,12.69,87.84,120821,,,A*7C
$GPGGA,230835.750,4305.2590,N,07740.6089,W,1,07,1.02,152.7,M,-34.4,M,,*57
$GPRMC,230836.000,A,4305.2590,N,07740.6077,W,12.68,87.31,120821,,,A*76
$GPGGA,230836.250,4305.2591,N,07740.6065,W,1,07,1.02,152.8,M,-34.4,M,,*5D
$GPRMC,230836.500,A,4305.2591,N,07740.6053,W,12.98,87.46,120821,,,A*7B
$GPGGA,230836.750,4305.2591,N,07740.6040,W,1,07,1.02,153.0,M,-34.4,M,,*56
$GPRMC,230837.000,A,4305.2591,N,07740.6027,W,13.25,87.50,120821,,,A*7C
$GPGGA,230837.250,4305.2591,N,07740.6013,W,1,07,1.02,153.0,M,-34.4,M,,*54
$GPRMC,230837.500,A,4305.2591,N,07740.5999,W,13.88,88.31,120821,,,A*79
$GPGGA,230837.750,4305.2591,N,07740.5984,W,1,07,1.02,153.1,M,-34.4,M,,*54
$GPRMC,230838.000,A,4305.2591,N,07740.5970,W,14.38,88.49,120821,,,A*77
$GPGGA,230838.250,4305.2590,N,07740.5955,W,1,07,1.02,153.2,M,-34.4,M,,*50
$GPRMC,230838.500,A,4305.2590,N,07740.5941,W,14.61,88.47,120821,,,A*73
$GPGGA,230838.750,4305.2589,N,07740.5925,W,1,07,1.02,153.3,M,-34.4,M,,*5B
$GPRMC,230839.000,A,4305.2589,N,07740.5910,W,14.73,88.58,120821,,,A*76
$GPGGA,230839.250,4305.2588,N,07740.5895,W,1,07,1.02,153.4,M,-34.4,M,,*53
$GPRMC,230839.500,A,4305.2588,N,07740.5880,W,15.00,88.39,120821,,,A*78
$GPGGA,230839.750,4305.2587,N,07740.5865,W,1,07,1.02,153.5,M,-34.4,M,,*57
$GPRMC,230840.000,A,4305.2587,N,07740.5850,W,15.20,87.68,120821,,,A*78
$GPGGA,230840.250,4305.2586,N,07740.5835,W,1,07,1.02,153.6,M,-34.4,M,,*5B
$GPRMC,230840.500,A,4305.2586,N,07740.5819,W,15.46,87.82,120821,,,A*75
$GPGGA,230840.750,4305.2586,N,07740.5805,W,1,07,1.02,153.7,M,-34.4,M,,*5C
$GPRMC,230841.000,A,4305.2585,N,07740.5790,W,15.50,87.57,120821,,,A*73
$GPGGA,230841.250,4305.2585,N,07740.5775,W,1,07,1.02,153.8,M,-34.4,M,,*5C
$GPRMC,230841.500,A,4305.2585,N,07740.5760,W,15.54,87.52,120821,,,A*78
$GPGGA,230841.750,4305.2584,N,07740.5744,W,1,07,1.02,154.0,M,-34.4,M,,*55
$GPRMC,230842.000,A,4305.2583,N,07740.5728,W,15.61,88.20,120821,,,A*78
$GPGGA,230842.250,4305.2582,N,07740.5712,W,1,07,1.02,154.3,M,-34.4,M,,*55
$GPRMC,230842.500,A,4305.2581,N,07740.5696,W,15.84,88.67,120821,,,A*73
$GPGGA,230842.750,4305.2581,N,07740.5680,W,1,07,1.02,154.4,M,-34.4,M,,*5E
$GPRMC,230843.000,A,4305.2581,N,07740.5665,W,15.94,89.05,120821,,,A*7F
$GPGGA,230843.250,4305.2580,N,07740.5649,W,1,07,1.02,154.6,M,-34.4,M,,*5C
$GPRMC,230843.500,A,4305.2579,N,07740.5632,W,15.95,89.30,120821,,,A*78
$GPGGA,230843.750,4305.2579,N,07740.5616,W,1,07,1.02,154.9,M,-34.4,M,,*5A
$GPRMC,230844.000,A,4305.2579,N,07740.5601,W,15.75,88.97,120821,,,A*78
$GPGGA,230844.250,4305.2579,N,07740.5585,W,1,07,1.02,155.2,M,-34.4,M,,*5B
$GPRMC,230844.500,A,4305.2579,N,07740.5569,W,15.65,89.17,120821,,,A*78
$GPGGA,230844.750,4305.2579,N,07740.5554,W,1,07,1.02,155.4,M,-34.4,M,,*54
$GPRMC,230845.000,A,4305.2578,N,07740.5539,W,15.42,89.04,120821,,,A*7F
$GPGGA,230845.250,4305.2577,N,07740.5524,W,1,07,1.02,155.6,M,-34.4,M,,*5B
$GPRMC,230845.500,A,4305.2577,N,07740.5509,W,15.32,88.63,120821,,,A*71
$GPGGA,230845.750,4305.2577,N,07740.5494,W,1,07,1.02,155.7,M,-34.4,M,,*55
$GPRMC,230846.000,A,4305.2577,N,07740.5480,W,15.03,89.02,120821,,,A*73
$GPGGA,230846.250,4305.2577,N,07740.5466,W,1,07,1.02,155.7,M,-34.4,M,,*5E
$GPRMC,230846.500,A,4305.2577,N,07740.5452,W,14.60,88.75,120821,,,A*7C
$GPGGA,230846.750,4305.2577,N,07740.5439,W,1,07,1.02,155.8,M,-34.4,M,,*5E
$GPRMC,230847.000,A,4305.2578,N,07740.5425,W,14.38,88.90,120821,,,A*71
$GPGGA,230847.250,4305.2578,N,07740.5412,W,1,07,1.02,155.8,M,-34.4,M,,*5C
$GPRMC,230847.500,A,4305.2579,N,07740.5400,W,14.06,88.77,120821,,,A*76
$GPGGA,230847.750,4305.2580,N,07740.5388,W,1,07,1.02,155.6,M,-34.4,M,,*54
$GPRMC,230848.000,A,4305.2581,N,07740.5376,W,13.67,88.16,120821,,,A*7A
$GPGGA,230848.250,4305.2582,N,07740.5364,W,1,07,1.02,155.6,M,-34.4,M,,*5E
$GPRMC,230848.500,A,4305.2583,N,07740.5353,W,13.18,87.53,120821,,,A*7C
$GPGGA,230848.750,4305.2583,N,07740.5340,W,1,07,1.02,155.5,M,-34.4,M,,*5F
$GPRMC,230849.000,A,4305.2584,N,07740.5328,W,12.95,88.01,120821,,,A*7F
$GPGGA,230849.250,4305.2584,N,07740.5316,W,1,07,1.02,155.5,M,-34.4,M,,*5F
$GPRMC,230849.500,A,4305.2585,N,07740.5305,W,12.71,87.90,120821,,,A*79
$GPGGA,230849.750,4305.2588,N,07740.5291,W,1,07,1.02,155.6,M,-34.4,M,,*5B
$GPRMC,230850.000,A,4305.2590,N,07740.5278,W,12.39,87.05,120821,,,A*7B
$GPGGA,230850.250,4305.2591,N,07740.5263,W,1,07,1.02,155.5,M,-34.4,M,,*50
$GPRMC,230850.500,A,4305.2592,N,07740.5251,W,12.30,87.10,120821,,,A*7A
$GPGGA,230850.750,4305.2594,N,07740.5238,W,1,07,1.02,155.4,M,-34.4,M,,*5F
$GPRMC,230851.000,A,4305.2595,N,07740.5227,W,12.22,87.70,120821,,,A*7D
$GPGGA,230851.250,4305.2596,N,07740.5214,W,1,07,1.02,155.3,M,-34.4,M,,*50
$GPRMC,230851.500,A,4305.2596,N,07740.5203,W,12.14,88.72,120821,,,A*75
$GPGGA,230851.750,4305.2596,N,07740.5191,W,1,07,1.02,155.2,M,-34.4,M,,*5A
$GPRMC,230852.000,A,4305.2596,N,07740.5180,W,12.07,88.92,120821,,,A*77
$GPGGA,230852.250,4305.2596,N,07740.5168,W,1,07,1.02,155.3,M,-34.4,M,,*5B
$GPRMC,230852.500,A,4305.2596,N,07740.5157,W,12.00,88.54,120821,,,A*75
$GPGGA,230852.750,4305.2597,N,07740.5146,W,1,07,1.02,155.4,M,-34.4,M,,*54
$GPRMC,230853.000,A,4305.2597,N,07740.5135,W,11.92,88.12,120821,,,A*7E
$GPGGA,230853.250,4305.2597,N,07740.5124,W,1,07,1.02,155.4,M,-34.4,M,,*54
$GPRMC,230853.500,A,4305.2598,N,07740.5114,W,11.88,87.95,120821,,,A*7C
$GPGGA,230853.750,4305.2597,N,07740.5103,W,1,07,1.02,155.3,M,-34.4,M,,*53
$GPRMC,230854.000,A,4305.2598,N,07740.5092,W,12.08,89.15,120821,,,A*7C
$GPGGA,230854.250,4305.2599,N,07740.5082,W,1,07,1.02,155.1,M,-34.4,M,,*55
$GPRMC,230854.500,A,4305.2599,N,07740.5071,W,12.11,87.94,120821,,,A*7A
$GPGGA,230854.750,4305.2600,N,07740.5060,W,1,07,1.02,155.0,M,-34.4,M,,*5E
$GPRMC,230855.000,A,4305.2601,N,07740.5050,W,12.08,88.09,120821,,,A*7C
$GPGGA,230855.250,4305.2601,N,07740.5038,W,1,07,1.02,154.9,M,-34.4,M,,*5E
$GPRMC,230855.500,A,4305.2602,N,07740.5028,W,12.08,87.45,120821,,,A*72
$GPGGA,230855.750,4305.2602,N,07740.5016,W,1,07,1.02,154.9,M,-34.4,M,,*54
$GPRMC,230856.000,A,4305.2602,N,07740.5005,W,12.05,87.01,120821,,,A*76
$GPGGA,230856.250,4305.2603,N,07740.4994,W,1,07,1.02,154.9,M,-34.4,M,,*51
$GPRMC,230856.500,A,4305.2603,N,07740.4983,W,12.00,86.62,120821,,,A*75
$GPGGA,230856.750,4305.2604,N,07740.4972,W,1,07,1.02,154.9,M,-34.4,M,,*5B
$GPRMC,230857.000,A,4305.2604,N,07740.4961,W,11.98,87.34,120821,,,A*7A
$GPGGA,230857.250,4305.2604,N,07740.4950,W,1,07,1.02,154.8,M,-34.4,M,,*5E
$GPRMC,230857.500,A,4305.2602,N,07740.4941,W,11.99,89.35,120821,,,A*75
$GPGGA,230857.750,4305.2602,N,07740.4931,W,1,07,1.02,154.7,M,-34.4,M,,*55
$GPRMC,230858.000,A,4305.2601,N,07740.4920,W,11.93,93.26,120821,,,A*78
$GPGGA,230858.250,4305.2599,N,07740.4910,W,1,07,1.02,154.7,M,-34.4,M,,*5D
$GPRMC,230858.500,A,4305.2598,N,07740.4900,W,11.84,97.56,120821,,,A*79
$GPGGA,230858.750,4305.2596,N,07740.4890,W,1,07,1.02,154.7,M,-34.4,M,,*5E
$GPRMC,230859.000,A,4305.2595,N,07740.4881,W,11.43,102.03,120821,,,A*4E
$GPGGA,230859.250,4305.2593,N,07740.4871,W,1,07,1.02,154.8,M,-34.4,M,,*5F
$GPRMC,230859.500,A,4305.2591,N,07740.4862,W,11.14,106.45,120821,,,A*46
$GPGGA,230859.750,4305.2588,N,07740.4852,W,1,07,1.02,154.7,M,-34.4,M,,*5E
$GPRMC,230900.000,A,4305.2586,N,07740.4842,W,11.12,108.46,120821,,,A*41
$GPGGA,230900.250,4305.2583,N,07740.4833,W,1,07,1.02,154.6,M,-34.4,M,,*5B
$GPRMC,230900.500,A,4305.2579,N,07740.4824,W,11.38,113.86,120821,,,A*4A
$GPGGA,230900.750,4305.2575,N,07740.4815,W,1,07,1.02,154.5,M,-34.4,M,,*50
$GPRMC,230901.000,A,4305.2571,N,07740.4805,W,11.45,117.78,120821,,,A*4A
$GPGGA,230901.250,4305.2567,N,07740.4796,W,1,07,1.02,154.6,M,-34.4,M,,*50
$GPRMC,230901.500,A,4305.2563,N,07740.4787,W,11.86,119.30,120821,,,A*44
$GPGGA,230901.750,4305.2559,N,07740.4778,W,1,07,1.02,154.7,M,-34.4,M,,*59
$GPRMC,230902.000,A,4305.2554,N,07740.4768,W,11.96,119.23,120821,,,A*44
$GPGGA,230902.250,4305.2550,N,07740.4758,W,1,07,1.02,155.0,M,-34.4,M,,*52
$GPRMC,230902.500,A,4305.2546,N,07740.4748,W,11.99,117.00,120821,,,A*40
$GPGGA,230902.750,4305.2542,N,07740.4739,W,1,07,1.02,155.4,M,-34.4,M,,*57
$GPRMC,230903.000,A,4305.2538,N,07740.4729,W,11.97,111.72,120821,,,A*47
$GPGGA,230903.250,4305.2536,N,07740.4719,W,1,07,1.02,155.7,M,-34.4,M,,*51
$GPRMC,230903.500,A,4305.2534,N,07740.4708,W,11.77,102.97,120821,,,A*4A
$GPGGA,230903.750,4305.2533,N,07740.4697,W,1,07,1.02,155.8,M,-34.4,M,,*59
$GPRMC,230904.000,A,4305.2532,N,07740.4686,W,11.72,95.92,120821,,,A*76
$GPGGA,230904.250,4305.2532,N,07740.4676,W,1,07,1.02,155.9,M,-34.4,M,,*54
$GPRMC,230904.500,A,4305.2532,N,07740.4664,W,11.78,91.73,120821,,,A*7E
$GPGGA,230904.750,4305.2532,N,07740.4653,W,1,07,1.02,155.9,M,-34.4,M,,*56
$GPRMC,230905.000,A,4305.2533,N,07740.4641,W,12.03,86.93,120821,,,A*7B
$GPGGA,230905.250,4305.2540,N,07740.4631,W,1,07,1.02,155.9,M,-34.4,M,,*53
$GPRMC,230905.500,A,4305.2544,N,07740.4620,W,12.13,79.35,120821,,,A*74
$GPGGA,230905.750,4305.2548,N,07740.4610,W,1,07,1.02,155.9,M,-34.4,M,,*5D
$GPRMC,230906.000,A,4305.2552,N,07740.4599,W,12.20,74.67,120821,,,A*7E
$GPGGA,230906.250,4305.2557,N,07740.4588,W,1,07,1.02,155.9,M,-34.4,M,,*57
$GPRMC,230906.500,A,4305.2561,N,07740.4577,W,12.29,68.24,120821,,,A*78
$GPGGA,230906.750,4305.2565,N,07740.4566,W,1,07,1.02,155.8,M,-34.4,M,,*52
$GPRMC,230907.000,A,4305.2570,N,07740.4555,W,12.64,65.29,120821,,,A*75
$GPGGA,230907.250,4305.2575,N,07740.4544,W,1,07,1.02,155.6,M,-34.4,M,,*59
$GPRMC,230907.500,A,4305.2579,N,07740.4531,W,12.95,65.58,120821,,,A*73
$GPGGA,230907.750,4305.2583,N,07740.4518,W,1,07,1.02,155.4,M,-34.4,M,,*5E
$GPRMC,230908.000,A,4305.2586,N,07740.4504,W,13.58,68.17,120821,,,A*79
$GPGGA,230908.250,4305.2589,N,07740.4489,W,1,07,1.02,155.2,M,-34.4,M,,*51
$GPRMC,230908.500,A,4305.2593,N,07740.4476,W,13.87,69.78,120821,,,A*76
$GPGGA,230908.750,4305.2596,N,07740.4463,W,1,07,1.02,155.0,M,-34.4,M,,*5C
$GPRMC,230909.000,A,4305.2598,N,07740.4450,W,13.86,72.00,120821,,,A*79
$GPGGA,230909.250,4305.2600,N,07740.4438,W,1,07,1.02,154.8,M,-34.4,M,,*53
$GPRMC,230909.500,A,4305.2601,N,07740.4425,W,13.63,75.43,120821,,,A*76
$GPGGA,230909.750,4305.2602,N,07740.4412,W,1,07,1.02,154.7,M,-34.4,M,,*53
$GPRMC,230910.000,A,4305.2602,N,07740.4400,W,13.50,79.91,120821,,,A*7C
$GPGGA,230910.250,4305.2603,N,07740.4386,W,1,07,1.02,154.6,M,-34.4,M,,*54
$GPRMC,230910.500,A,4305.2603,N,07740.4373,W,13.56,85.76,120821,,,A*77
$GPGGA,230910.750,4305.2605,N,07740.4359,W,1,07,1.02,154.7,M,-34.4,M,,*54
$GPRMC,230911.000,A,4305.2606,N,07740.4345,W,13.88,86.86,120821,,,A*7C
$GPGGA,230911.250,4305.2608,N,07740.4332,W,1,07,1.02,154.7,M,-34.4,M,,*50
$GPRMC,230911.500,A,4305.2609,N,07740.4318,W,14.26,87.35,120821,,,A*74
$GPGGA,230911.750,4305.2609,N,07740.4304,W,1,07,1.02,154.8,M,-34.4,M,,*5E
$GPRMC,230912.000,A,4305.2610,N,07740.4290,W,14.37,87.36,120821,,,A*78
$GPGGA,230912.250,4305.2611,N,07740.4276,W,1,07,1.02,154.8,M,-34.4,M,,*55
$GPRMC,230912.500,A,4305.2611,N,07740.4262,W,14.48,87.91,120821,,,A*74
$GPGGA,230912.750,4305.2612,N,07740.4248,W,1,07,1.02,154.7,M,-34.4,M,,*51
$GPRMC,230913.000,A,4305.2613,N,07740.4234,W,14.57,87.70,120821,,,A*70
$GPGGA,230913.250,4305.2614,N,07740.4220,W,1,07,1.02,154.8,M,-34.4,M,,*52
$GPRMC,230913.500,A,4305.2615,N,07740.4208,W,14.63,87.83,120821,,,A*77
$GPGGA,230913.750,4305.2616,N,07740.4195,W,1,07,1.02,154.9,M,-34.4,M,,*59
$GPRMC,230914.000,A,4305.2618,N,07740.4182,W,14.62,87.49,120821,,,A*7E
$GPGGA,230914.250,4305.2618,N,07740.4170,W,1,07,1.02,155.0,M,-34.4,M,,*56
$GPRMC,230914.500,A,4305.2619,N,07740.4158,W,14.42,87.23,120821,,,A*73
$GPGGA,230914.750,4305.2619,N,07740.4145,W,1,07,1.02,155.1,M,-34.4,M,,*55
$GPRMC,230915.000,A,4305.2620,N,07740.4131,W,14.19,87.28,120821,,,A*77
$GPGGA,230915.250,4305.2620,N,07740.4118,W,1,07,1.02,155.1,M,-34.4,M,,*53
$GPRMC,230915.500,A,4305.2620,N,07740.4105,W,14.13,87.82,120821,,,A*7F
$GPGGA,230915.750,4305.2620,N,07740.4091,W,1,07,1.02,155.3,M,-34.4,M,,*54
$GPRMC,230916.000,A,4305.2620,N,07740.4078,W,14.11,88.04,120821,,,A*71
$GPGGA,230916.250,4305.2621,N,07740.4064,W,1,07,1.02,155.4,M,-34.4,M,,*5E
$GPRMC,230916.500,A,4305.2621,N,07740.4051,W,14.16,86.90,120821,,,A*7A
$GPGGA,230916.750,4305.2622,N,07740.4037,W,1,07,1.02,155.4,M,-34.4,M,,*5E
$GPRMC,230917.000,A,4305.2622,N,07740.4023,W,14.22,86.80,120821,,,A*7E
$GPGGA,230917.250,4305.2623,N,07740.4009,W,1,07,1.02,155.5,M,-34.4,M,,*57
$GPRMC,230917.500,A,4305.2623,N,07740.3994,W,14.42,86.87,120821,,,A*79
$GPGGA,230917.750,4305.2623,N,07740.3980,W,1,07,1.02,155.7,M,-34.4,M,,*5F
$GPRMC,230918.000,A,4305.2624,N,07740.3966,W,14.69,86.32,120821,,,A*7E
$GPGGA,230918.250,4305.2623,N,07740.3952,W,1,07,1.02,155.8,M,-34.4,M,,*55
$GPRMC,230918.500,A,4305.2624,N,07740.3937,W,15.02,86.58,120821,,,A*7F
$GPGGA,230918.750,4305.2624,N,07740.3922,W,1,07,1.02,155.8,M,-34.4,M,,*50
$GPRMC,230919.000,A,4305.2624,N,07740.3907,W,15.29,87.01,120821,,,A*7C
$GPGGA,230919.250,4305.2624,N,07740.3891,W,1,07,1.02,155.7,M,-34.4,M,,*52
$GPRMC,230919.500,A,4305.2624,N,07740.3875,W,15.51,87.65,120821,,,A*70
$GPGGA,230919.750,4305.2624,N,07740.3859,W,1,07,1.02,155.8,M,-34.4,M,,*5C
$GPRMC,230920.000,A,4305.2625,N,07740.3843,W,15.72,87.87,120821,,,A*76
$GPGGA,230920.250,4305.2625,N,07740.3827,W,1,07,1.02,155.8,M,-34.4,M,,*5B
$GPRMC,230920.500,A,4305.2625,N,07740.3811,W,16.02,87.95,120821,,,A*73
$GPGGA,230920.750,4305.2624,N,07740.3791,W,1,07,1.02,155.8,M,-34.4,M,,*5D
$GPRMC,230921.000,A,4305.2623,N,07740.3773,W,16.47,88.81,120821,,,A*71
$GPGGA,230921.250,4305.2621,N,07740.3755,W,1,07,1.02,155.8,M,-34.4,M,,*54
$GPRMC,230921.500,A,4305.2621,N,07740.3739,W,17.20,89.44,120821,,,A*70
$GPGGA,230921.750,4305.2621,N,07740.3723,W,1,07,1.02,155.8,M,-34.4,M,,*50
$GPRMC,230922.000,A,4305.2621,N,07740.3707,W,17.67,88.61,120821,,,A*7E
$GPGGA,230922.250,4305.2620,N,07740.3689,W,1,07,1.02,155.8,M,-34.4,M,,*56
$GPRMC,230922.500,A,4305.2621,N,07740.3672,W,18.01,87.58,120821,,,A*72
$GPGGA,230922.750,4305.2621,N,07740.3653,W,1,07,1.02,155.9,M,-34.4,M,,*54
$GPRMC,230923.000,A,4305.2621,N,07740.3635,W,18.28,86.41,120821,,,A*77
$GPGGA,230923.250,4305.2621,N,07740.3616,W,1,07,1.02,156.0,M,-34.4,M,,*5B
$GPRMC,230923.500,A,4305.2622,N,07740.3596,W,18.76,85.36,120821,,,A*73
$GPGGA,230923.750,4305.2623,N,07740.3575,W,1,07,1.02,156.2,M,-34.4,M,,*58
$GPRMC,230924.000,A,4305.2624,N,07740.3555,W,19.18,84.76,120821,,,A*74
$GPGGA,230924.250,4305.2626,N,07740.3535,W,1,07,1.02,156.4,M,-34.4,M,,*5D
$GPRMC,230924.500,A,4305.2627,N,07740.3514,W,19.86,83.95,120821,,,A*7A
$GPGGA,230924.750,4305.2629,N,07740.3494,W,1,07,1.02,156.5,M,-34.4,M,,*5C
$GPRMC,230925.000,A,4305.2630,N,07740.3473,W,20.19,83.89,120821,,,A*79
$GPGGA,230925.250,4305.2631,N,07740.3453,W,1,07,1.02,156.6,M,-34.4,M,,*59
$GPRMC,230925.500,A,4305.2633,N,07740.3433,W,20.43,83.78,120821,,,A*7A
$GPGGA,230925.750,4305.2634,N,07740.3413,W,1,07,1.02,156.7,M,-34.4,M,,*5C
$GPRMC,230926.000,A,4305.2636,N,07740.3392,W,20.91,83.82,120821,,,A*7F
$GPGGA,230926.250,4305.2638,N,07740.3372,W,1,07,1.02,156.6,M,-34.4,M,,*57
$GPRMC,230926.500,A,4305.2640,N,07740.3351,W,21.31,82.97,120821,,,A*7A
$GPGGA,230926.750,4305.2642,N,07740.3330,W,1,07,1.02,156.5,M,-34.4,M,,*5A
$GPRMC,230927.000,A,4305.2644,N,07740.3308,W,21.56,82.58,120821,,,A*74
$GPGGA,230927.250,4305.2646,N,07740.3287,W,1,07,1.02,156.5,M,-34.4,M,,*57
$GPRMC,230927.500,A,4305.2648,N,07740.3265,W,21.83,82.08,120821,,,A*7A
$GPGGA,230927.750,4305.2650,N,07740.3243,W,1,07,1.02,156.6,M,-34.4,M,,*5E
$GPRMC,230928.000,A,4305.2652,N,07740.3220,W,22.25,81.16,120821,,,A*79
$GPGGA,230928.250,4305.2655,N,07740.3198,W,1,07,1.02,156.8,M,-34.4,M,,*5A
$GPRMC,230928.500,A,4305.2658,N,07740.3175,W,22.57,79.99,120821,,,A*70
$GPGGA,230928.750,4305.2660,N,07740.3153,W,1,07,1.02,157.2,M,-34.4,M,,*55
$GPRMC,230929.000,A,4305.2663,N,07740.3131,W,22.65,78.87,120821,,,A*73
$GPGGA,230929.250,4305.2667,N,07740.3109,W,1,07,1.02,157.4,M,-34.4,M,,*5F
$GPRMC,230929.500,A,4305.2670,N,07740.3087,W,22.72,77.50,120821,,,A*7B
$GPGGA,230929.750,4305.2674,N,07740.3065,W,1,07,1.02,157.6,M,-34.4,M,,*51
$GPRMC,230930.000,A,4305.2678,N,07740.3043,W,22.94,76.61,120821,,,A*7D
$GPGGA,230930.250,4305.2682,N,07740.3021,W,1,07,1.02,157.6,M,-34.4,M,,*55
$GPRMC,230930.500,A,4305.2686,N,07740.2999,W,23.01,76.06,120821,,,A*7A
$GPGGA,230930.750,4305.2690,N,07740.2977,W,1,07,1.02,157.7,M,-34.4,M,,*59
$GPRMC,230931.000,A,4305.2694,N,07740.2955,W,23.23,75.37,120821,,,A*7C
$GPGGA,230931.250,4305.2698,N,07740.2933,W,1,07,1.02,157.7,M,-34.4,M,,*55
$GPRMC,230931.500,A,4305.2702,N,07740.2911,W,23.27,75.21,120821,,,A*74
$GPGGA,230931.750,4305.2706,N,07740.2889,W,1,07,1.02,157.7,M,-34.4,M,,*56
$GPRMC,230932.000,A,4305.2710,N,07740.2867,W,23.23,75.38,120821,,,A*7D
$GPGGA,230932.250,4305.2715,N,07740.2846,W,1,07,1.02,157.6,M,-34.4,M,,*50
$GPRMC,230932.500,A,4305.2719,N,07740.2824,W,23.18,74.68,120821,,,A*7A
$GPGGA,230932.750,4305.2725,N,07740.2803,W,1,07,1.02,157.4,M,-34.4,M,,*55
$GPRMC,230933.000,A,4305.2732,N,07740.2783,W,23.21,71.95,120821,,,A*78
$GPGGA,230933.250,4305.2739,N,07740.2763,W,1,07,1.02,156.8,M,-34.4,M,,*58
$GPRMC,230933.500,A,4305.2745,N,07740.2742,W,23.44,70.45,120821,,,A*7F
$GPGGA,230933.750,4305.2751,N,07740.2721,W,1,07,1.02,156.8,M,-34.4,M,,*55
$GPRMC,230934.000,A,4305.2757,N,07740.2700,W,23.53,69.70,120821,,,A*70
$GPGGA,230934.250,4305.2763,N,07740.2679,W,1,07,1.02,156.8,M,-34.4,M,,*5A
$GPRMC,230934.500,A,4305.2769,N,07740.2658,W,23.54,69.00,120821,,,A*74
$GPGGA,230934.750,4305.2774,N,07740.2637,W,1,07,1.02,156.8,M,-34.4,M,,*53
$GPRMC,230935.000,A,4305.2780,N,07740.2616,W,23.60,68.63,120821,,,A*7E
$GPGGA,230935.250,4305.2787,N,07740.2595,W,1,07,1.02,156.7,M,-34.4,M,,*5F
$GPRMC,230935.500,A,4305.2793,N,07740.2574,W,23.77,67.68,120821,,,A*7C
$GPGGA,230935.750,4305.2801,N,07740.2554,W,1,07,1.02,156.6,M,-34.4,M,,*57
$GPRMC,230936.000,A,4305.2808,N,07740.2533,W,23.79,66.59,120821,,,A*79
$GPGGA,230936.250,4305.2815,N,07740.2512,W,1,07,1.02,156.5,M,-34.4,M,,*55
$GPRMC,230936.500,A,4305.2823,N,07740.2492,W,23.88,65.12,120821,,,A*7D
$GPGGA,230936.750,4305.2831,N,07740.2471,W,1,07,1.02,156.4,M,-34.4,M,,*53
$GPRMC,230937.000,A,4305.2838,N,07740.2451,W,23.95,64.21,120821,,,A*71
$GPGGA,230937.250,4305.2846,N,07740.2430,W,1,07,1.02,156.3,M,-34.4,M,,*55
$GPRMC,230937.500,A,4305.2854,N,07740.2410,W,24.06,63.51,120821,,,A*76
$GPGGA,230937.750,4305.2863,N,07740.2389,W,1,07,1.02,156.3,M,-34.4,M,,*52
$GPRMC,230938.000,A,4305.2870,N,07740.2369,W,24.13,62.88,120821,,,A*72
$GPGGA,230938.250,4305.2878,N,07740.2350,W,1,07,1.02,156.2,M,-34.4,M,,*57
$GPRMC,230938.500,A,4305.2886,N,07740.2331,W,23.85,62.49,120821,,,A*76
$GPGGA,230938.750,4305.2895,N,07740.2311,W,1,07,1.02,156.1,M,-34.4,M,,*57
$GPRMC,230939.000,A,4305.2903,N,07740.2292,W,23.83,61.52,120821,,,A*79
$GPGGA,230939.250,4305.2913,N,07740.2272,W,1,07,1.02,155.9,M,-34.4,M,,*53
$GPRMC,230939.500,A,4305.2922,N,07740.2253,W,23.96,60.52,120821,,,A*77
$GPGGA,230939.750,4305.2931,N,07740.2233,W,1,07,1.02,155.8,M,-34.4,M,,*52
$GPRMC,230940.000,A,4305.2940,N,07740.2213,W,24.14,60.36,120821,,,A*73
$GPGGA,230940.250,4305.2949,N,07740.2193,W,1,07,1.02,155.7,M,-34.4,M,,*50
$GPRMC,230940.500,A,4305.2958,N,07740.2173,W,24.23,60.23,120821,,,A*7A
$GPGGA,230940.750,4305.2967,N,07740.2153,W,1,07,1.02,155.6,M,-34.4,M,,*54
$GPRMC,230941.000,A,4305.2977,N,07740.2133,W,24.43,60.45,120821,,,A*71
$GPGGA,230941.250,4305.2986,N,07740.2113,W,1,07,1.02,155.3,M,-34.4,M,,*5E
$GPRMC,230941.500,A,4305.2995,N,07740.2093,W,24.50,59.90,120821,,,A*73
$GPGGA,230941.750,4305.3005,N,07740.2073,W,1,07,1.02,155.2,M,-34.4,M,,*5E
$GPRMC,230942.000,A,4305.3014,N,07740.2053,W,24.70,59.90,120821,,,A*7A
$GPGGA,230942.250,4305.3023,N,07740.2033,W,1,07,1.02,155.1,M,-34.4,M,,*5B
$GPRMC,230942.500,A,4305.3032,N,07740.2013,W,24.67,60.15,120821,,,A*7E
$GPGGA,230942.750,4305.3040,N,07740.1993,W,1,07,1.02,155.0,M,-34.4,M,,*5A
$GPRMC,230943.000,A,4305.3049,N,07740.1973,W,24.65,60.43,120821,,,A*7B
$GPGGA,230943.250,4305.3058,N,07740.1953,W,1,07,1.02,155.0,M,-34.4,M,,*5B
$GPRMC,230943.500,A,4305.3067,N,07740.1933,W,24.65,60.10,120821,,,A*70
$GPGGA,230943.750,4305.3076,N,07740.1913,W,1,07,1.02,155.1,M,-34.4,M,,*57
$GPRMC,230944.000,A,4305.3086,N,07740.1893,W,24.62,59.65,120821,,,A*79
$GPGGA,230944.250,4305.3095,N,07740.1874,W,1,07,1.02,155.1,M,-34.4,M,,*58
$GPRMC,230944.500,A,4305.3104,N,07740.1854,W,24.44,59.18,120821,,,A*72
$GPGGA,230944.750,4305.3113,N,07740.1834,W,1,07,1.02,155.0,M,-34.4,M,,*57
$GPRMC,230945.000,A,4305.3122,N,07740.1815,W,24.40,59.02,120821,,,A*78
$GPGGA,230945.250,4305.3131,N,07740.1795,W,1,07,1.02,154.9,M,-34.4,M,,*5F
$GPRMC,230945.500,A,4305.3140,N,07740.1774,W,24.52,59.67,120821,,,A*71
$GPGGA,230945.750,4305.3149,N,07740.1754,W,1,07,1.02,154.9,M,-34.4,M,,*58
$GPRMC,230946.000,A,4305.3158,N,07740.1734,W,24.60,60.10,120821,,,A*71
$GPGGA,230946.250,4305.3167,N,07740.1715,W,1,07,1.02,154.7,M,-34.4,M,,*59
$GPRMC,230946.500,A,4305.3176,N,07740.1695,W,24.67,60.00,120821,,,A*74
$GPGGA,230946.750,4305.3185,N,07740.1675,W,1,07,1.02,154.6,M,-34.4,M,,*56
