Vers 81
USE_SERIAL_FEEDBACK=true
DEVELOPMENT_MODE=false
USE_RMC_ONLY=false

$GPRMC,203230.000,A,3554.7416,N,08403.5380,W,0.28,217.52,260721,,,A*77
$GPGGA,203230.250,3554.7418,N,08403.5379,W,1,03,4.86,182.1,M,-32.1,M,,*5D
$GPRMC,203230.500,A,3554.7419,N,08403.5378,W,0.38,208.03,260721,,,A*71
$GPGGA,203230.750,3554.7421,N,08403.5378,W,1,03,4.86,182.1,M,-32.1,M,,*53
$GPRMC,203231.000,A,3554.7423,N,08403.5377,W,0.38,208.27,260721,,,A*75
$GPGGA,203231.250,3554.7425,N,08403.5375,W,1,03,4.86,182.1,M,-32.1,M,,*5E
$GPRMC,203231.500,A,3554.7427,N,08403.5375,W,0.52,205.97,260721,,,A*7C
$GPGGA,203231.750,3554.7429,N,08403.5374,W,1,03,4.86,182.1,M,-32.1,M,,*56
$GPRMC,203232.000,A,3554.7432,N,08403.5373,W,0.44,205.34,260721,,,A*76
$GPGGA,203232.093,3554.7434,N,08403.5372,W,1,03,4.87,182.1,M,-31,M,,*56
$GPRMC,203232.500,A,3554.7435,N,08403.5371,W,0.47,194.60,260721,,,A*7F
$GPGGA,203232.750,3554.7436,N,08403.5371,W,1,03,4.87,182.1,M,-32.1,M,,*5F
$GPRMC,203233.000,A,3554.7438,N,08403.5370,W,0.49,192.65,260721,,,A*7A
$GPGGA,203233.250,3554.7439,N,08403.5370,W,1,03,4.87,182.1,M,-32.1,M,,*55
$GPRMC,203233.500,A,3554.7440,N,08403.5369,W,0.60,197.92,260721,,,A*7E
$GPGGA,203233.750,3554.7442,N,08403.5368,W,1,03,4.87,182.1,M,-32.1,M,,*55
$GPRMC,203234.000,A,3554.7444,N,08403.5368,W,0.58,207.41,260721,,,A*76
$GPGGA,203234.250,3554.7447,N,08403.5366,W,1,03,4.87,182.1,M,-32.1,M,,*5C
$GPRMC,203234.500,A,3554.7450,N,08403.5365,W,0.40,203.76,260721,,,A*72
$GPGGA,203234.750,3554.7451,N,08403.5363,W,1,03,4.87,182.1,M,-32.1,M,,*5B
$GPRMC,203235.000,A,3554.7452,N,08403.5362,W,0.30,179.65,260721,,,A*78
$GPGGA,203235.250,3554.7452,N,08403.5362,W,1,03,4.87,182.1,M,-32.1,M,,*5D
$GPRMC,203235.500,A,3554.7452,N,08403.5362,W,0.40,200.14,260721,,,A*71
$GPGGA,203235.750,3554.7451,N,08403.5361,W,1,03,4.87,182.1,M,-32.1,M,,*58
$GPRMC,203236.000,A,3554.7451,N,08403.5361,W,0.41,196.36,260721,,,A*7A
$GPGGA,203236.250,3554.7451,N,08403.5360,W,1,03,4.87,182.1,M,-32.1,M,,*5F
$GPRMC,203236.500,A,3554.7452,N,08403.5359,W,0.36,186.83,260721,,,A*78
$GPGGA,203236.750,3554.7452,N,08403.5359,W,1,03,4.87,182.1,M,-32.1,M,,*53
$GPRMC,203237.000,A,3554.7453,N,08403.5358,W,0.22,198.71,260721,,,A*7B
$GPGGA,203237.250,3554.7454,N,08403.5357,W,1,03,4.87,182.1,M,-32.1,M,,*5F
$GPRMC,203237.500,A,3554.7454,N,08403.5357,W,0.12,198.75,260721,,,A*71
$GPGGA,203237.750,3554.7454,N,08403.5356,W,1,03,4.88,182.1,M,-32.1,M,,*54
$GPRMC,203238.000,A,3554.7454,N,08403.5356,W,0.13,216.54,260721,,,A*7D
$GPGGA,203238.085,3554.7453,N,08403.5356,W,1,03,4.87,182.1,M,-31,M,,*5C
$GPRMC,203238.500,A,3554.7452,N,08403.5356,W,0.31,190.74,260721,,,A*71
$GPGGA,203238.750,3554.7451,N,08403.5356,W,1,03,4.88,182.1,M,-32.1,M,,*5E
$GPRMC,203239.000,A,3554.7450,N,08403.5356,W,0.41,198.03,260721,,,A*78
$GPGGA,203239.250,3554.7450,N,08403.5356,W,1,03,4.88,182.1,M,-32.1,M,,*5B
$GPRMC,203239.500,A,3554.7450,N,08403.5356,W,0.50,204.18,260721,,,A*71
$GPGGA,203239.750,3554.7450,N,08403.5356,W,1,03,4.88,182.1,M,-32.1,M,,*5E
$GPRMC,203240.000,A,3554.7450,N,08403.5356,W,0.48,215.92,260721,,,A*71
$GPGGA,203240.250,3554.7451,N,08403.5356,W,1,03,4.88,182.1,M,-32.1,M,,*54
$GPRMC,203240.500,A,3554.7450,N,08403.5356,W,0.45,221.78,260721,,,A*7A
$GPGGA,203240.750,3554.7451,N,08403.5356,W,1,03,4.88,182.1,M,-32.1,M,,*51
$GPRMC,203241.000,A,3554.7451,N,08403.5355,W,0.33,220.12,260721,,,A*70
$GPGGA,203241.250,3554.7451,N,08403.5355,W,1,03,4.88,182.0,M,-32.1,M,,*57
$GPRMC,203241.500,A,3554.7452,N,08403.5354,W,0.21,194.06,260721,,,A*7D
$GPGGA,203241.750,3554.7451,N,08403.5354,W,1,03,4.88,182.0,M,-32.1,M,,*53
$GPRMC,203242.000,A,3554.7451,N,08403.5354,W,0.25,198.58,260721,,,A*7B
$GPGGA,203242.250,3554.7451,N,08403.5354,W,1,03,4.88,182.0,M,-32.1,M,,*55
$GPRMC,203242.500,A,3554.7452,N,08403.5354,W,0.14,196.97,260721,,,A*72
$GPGGA,203242.750,3554.7452,N,08403.5354,W,1,03,4.88,182.0,M,-32.1,M,,*53
$GPRMC,203243.000,A,3554.7452,N,08403.5353,W,0.13,186.56,260721,,,A*7A
$GPGGA,203243.250,3554.7452,N,08403.5353,W,1,03,4.88,182.0,M,-32.1,M,,*50
$GPRMC,203243.500,A,3554.7452,N,08403.5353,W,0.14,194.40,260721,,,A*7C
$GPGGA,203243.750,3554.7451,N,08403.5353,W,1,03,4.88,182.0,M,-32.1,M,,*56
$GPRMC,203244.000,A,3554.7451,N,08403.5353,W,0.17,192.99,260721,,,A*7C
$GPGGA,203244.084,3554.7451,N,08403.5353,W,1,03,4.89,182.0,M,-31,M,,*5E
$GPGGA,203244.500,3554.7450,N,08403.5353,W,1,03,4.88,182.0,M,-32.1,M,,*57
$GPRMC,203244.500,A,3554.7450,N,08403.5353,W,0.27,192.45,260721,,A*7A
$GPGGA,203244.750,3554.7450,N,08403.5352,W,1,03,4.88,182.0,M,-32.1,M,,*51
$GPRMC,203244.750,A,3554.7450,N,08403.5352,W,0.28,192.35,260721,,A*74
$GPGGA,203245.000,3554.7450,N,08403.5352,W,1,03,4.89,182.0,M,-32.1,M,,*53
$GPRMC,203245.000,A,3554.7450,N,08403.5352,W,0.32,194.99,260721$GPGGA,203245.250,3554.7449,N,08403.5353,W,1,03,4.88,182.0,M,-32.1,M,,*5C
$GPRMC,203245.500,A,3554.7449,N,08403.5353,W,0.39,205.16,260721,,,A*77
$GPGGA,203245.750,3554.7448,N,08403.5353,W,1,03,4.89,182.0,M,-32.1,M,,*59
$GPRMC,203246.000,A,3554.7448,N,08403.5353,W,0.45,197.07,260721,,,A*73
$GPGGA,203246.250,3554.7448,N,08403.5352,W,1,03,4.89,182.0,M,-32.1,M,,*5E
$GPRMC,203246.500,A,3554.7448,N,08403.5352,W,0.39,188.11,260721,,,A*75
$GPGGA,203246.750,3554.7448,N,08403.5352,W,1,03,4.89,182.0,M,-32.1,M,,*5B
$GPRMC,203247.000,A,3554.7448,N,08403.5352,W,0.35,189.90,260721,,,A*75
$GPGGA,203247.250,3554.7449,N,08403.5352,W,1,03,4.89,182.0,M,-32.1,M,,*5E
$GPRMC,203247.500,A,3554.7449,N,08403.5352,W,0.24,192.89,260721,,,A*73
$GPGGA,203247.750,3554.7450,N,08403.5351,W,1,03,4.89,182.0,M,-32.1,M,,*50
$GPRMC,203248.000,A,3554.7450,N,08403.5351,W,0.15,173.15,260721,,,A*7A
$GPGGA,203248.250,3554.7450,N,08403.5351,W,1,03,4.89,182.0,M,-32.1,M,,*5A
$GPRMC,203248.500,A,3554.7449,N,08403.5351,W,0.17,187.86,260721,,,A*74
$GPGGA,203248.750,3554.7450,N,08403.5351,W,1,03,4.89,182.0,M,-32.1,M,,*5F
$GPRMC,203249.000,A,3554.7450,N,08403.5351,W,0.16,188.91,260721,,,A*70
$GPGGA,203249.250,3554.7449,N,08403.5351,W,1,03,4.89,182.0,M,-32.1,M,,*53
$GPRMC,203249.500,A,3554.7450,N,08403.5350,W,0.17,192.53,260721,,,A*70
$GPGGA,203249.750,3554.7450,N,08403.5350,W,1,03,4.90,182.0,M,-32.1,M,,*57
$GPRMC,203250.000,A,3554.7449,N,08403.5350,W,0.17,176.54,260721,,,A*78
$GPGGA,203250.084,3554.7444,N,08403.5352,W,1,04,1.80,181.9,M,-34,A,3554.7444,N,08403.5352,W,0.18,180.29,260721,,,A*77
$GPGGA,203250.500,3554.7438,N,08403.5354,W,1,04,1.80,181.9,M,-32.1,M,,*5B
$GPRMC,203250.500,A,3554.7438,N,08403.5354,W,0.23,188.84,260721,,A*74
$GPGGA,203250.750,3554.7433,N,08403.5356,W,1,04,1.80,181.9,M,-32.1,M,,*55
$GPRMC,203250.750,A,3554.7433,N,08403.5356,W,0.24,195.46,260721,,A*7F
$GPGGA,203251.000,3554.7430,N,08403.5357,W,1,04,1.80,181.9,M,-32.1,M,,*54
$GPRMC,203251.000,A,3554.7430,N,08403.5357,W,0.28,206.83,260721,,A*72
$GPGGA,203251.250,3554.7427,N,08403.5358,W,1,04,1.80,181.9,M,-32.1,M,,*5A
$GPRMC,203251.250,A,3554.7427,N,08403.5358,W,0.26,197.81,260721,,A*7B
$GPGGA,203251.500,3554.7424,N,08403.5359,W,1,04,1.80,181.8,M,-32.1,M,,*5B
$GPRMC,203251.500,A,3554.7424,N,08403.5359,W,0.21,183.49,260721,,A*7D
$GPGGA,203251.750,3554.7422,N,08403.5359,W,1,04,1.80,181.8,M,-32.1,M,,*5A
$GPRMC,203251.750,A,3554.7422,N,08403.5359,W,0.14,188.61,260721,,A*7B
$GPGGA,203252.000,3554.7420,N,08403.5360,W,1,04,1.80,181.8,M,-32.1,M,,*53
$GPRMC,203252.000,A,3554.7420,N,08403.5360,W,0.08,189.14,260721$GPGGA,203252.250,3554.7419,N,08403.5360,W,1,04,1.80,181.8,M,-32.1,M,,*5E
$GPRMC,203252.500,A,3554.7418,N,08403.5361,W,0.13,202.01,260721,,,A*7D
$GPGGA,203252.750,3554.7416,N,08403.5361,W,1,04,1.80,181.8,M,-32.1,M,,*55
$GPRMC,203253.000,A,3554.7415,N,08403.5362,W,0.21,205.51,260721,,,A*74
$GPGGA,203253.250,3554.7413,N,08403.5362,W,1,04,1.80,181.8,M,-32.1,M,,*57
$GPRMC,203253.500,A,3554.7411,N,08403.5363,W,0.22,200.80,260721,,,A*7E
$GPGGA,203253.750,3554.7409,N,08403.5363,W,1,04,1.80,181.8,M,-32.1,M,,*58
$GPRMC,203254.000,A,3554.7408,N,08403.5364,W,0.20,197.28,260721,,,A*7E
$GPGGA,203254.250,3554.7407,N,08403.5364,W,1,04,1.80,181.8,M,-32.1,M,,*53
$GPRMC,203254.500,A,3554.7406,N,08403.5365,W,0.23,207.94,260721,,,A*7A
$GPGGA,203254.750,3554.7405,N,08403.5365,W,1,04,1.80,181.7,M,-32.1,M,,*5A
$GPRMC,203255.000,A,3554.7402,N,08403.5364,W,0.21,194.28,260721,,,A*77
$GPGGA,203255.250,3554.7402,N,08403.5364,W,1,04,1.80,180.4,M,-32.1,M,,*5A
$GPRMC,203255.500,A,3554.7402,N,08403.5364,W,0.12,195.36,260721,,,A*7C
$GPGGA,203255.750,3554.7402,N,08403.5364,W,1,04,1.80,180.4,M,-32.1,M,,*5F
$GPRMC,203256.000,A,3554.7403,N,08403.5364,W,0.02,227.23,260721,,,A*74
$GPGGA,203256.250,3554.7401,N,08403.5365,W,1,05,1.65,180.5,M,-32.1,M,,*50
$GPRMC,203256.500,A,3554.7400,N,08403.5365,W,0.10,323.78,260721,,,A*7B
$GPGGA,203256.750,3554.7398,N,08403.5366,W,1,05,1.65,180.8,M,-32.1,M,,*5C
$GPRMC,203257.000,A,3554.7396,N,08403.5366,W,0.02,290.56,260721,,,A*72
$GPGGA,203257.250,3554.7396,N,08403.5366,W,1,05,1.65,181.0,M,-32.1,M,,*5F
$GPRMC,203257.500,A,3554.7395,N,08403.5367,W,0.10,346.40,260721,,,A*7B
$GPGGA,203257.750,3554.7394,N,08403.5367,W,1,05,4.44,181.2,M,-32.1,M,,*5D
$GPRMC,203258.000,A,3554.7393,N,08403.5367,W,0.10,350.39,260721,,,A*7E
$GPGGA,203258.250,3554.7392,N,08403.5367,W,1,05,4.43,181.4,M,-32.1,M,,*50
$GPRMC,203258.500,A,3554.7392,N,08403.5367,W,0.11,38.10,260721,,,A*4D
$GPGGA,203258.750,3554.7392,N,08403.5366,W,1,05,1.65,181.6,M,-32.1,M,,*57
$GPRMC,203259.000,A,3554.7391,N,08403.5366,W,0.13,93.70,260721,,,A*4E
$GPGGA,203259.250,3554.7391,N,08403.5367,W,1,05,1.65,181.9,M,-32.1,M,,*5E
$GPRMC,203259.500,A,3554.7391,N,08403.5367,W,0.05,201.76,260721,,,A*72
$GPGGA,203259.750,3554.7391,N,08403.5367,W,1,05,1.65,182.0,M,-32.1,M,,*51
$GPRMC,203300.000,A,3554.7391,N,08403.5367,W,0.04,230.54,260721,,,A*79
$GPGGA,203300.250,3554.7391,N,08403.5367,W,1,05,1.65,182.0,M,-32.1,M,,*59
$GPRMC,203300.500,A,3554.7391,N,08403.5367,W,0.03,286.85,260721,,,A*7A
$GPGGA,203300.750,3554.7391,N,08403.5367,W,1,05,1.65,182.0,M,-32.1,M,,*5C
$GPRMC,203301.000,A,3554.7391,N,08403.5367,W,0.03,275.59,260721,,,A*73
$GPGGA,203301.250,3554.7391,N,08403.5367,W,1,05,1.65,182.0,M,-32.1,M,,*58
$GPRMC,203301.500,A,3554.7391,N,08403.5367,W,0.12,235.08,260721,,,A*76
$GPGGA,203301.750,3554.7390,N,08403.5367,W,1,05,1.65,182.0,M,-32.1,M,,*5C
$GPRMC,203302.000,A,3554.7390,N,08403.5367,W,0.22,234.68,260721,,,A*75
$GPGGA,203302.250,3554.7390,N,08403.5368,W,1,06,1.33,182.0,M,-32.1,M,,*55
$GPRMC,203302.500,A,3554.7391,N,08403.5367,W,0.08,177.64,260721,,,A*71
$GPGGA,203302.750,3554.7391,N,08403.5367,W,1,06,1.33,182.3,M,-32.1,M,,*5D
$GPRMC,203303.000,A,3554.7391,N,08403.5367,W,0.10,204.85,260721,,,A*74
$GPGGA,203303.250,3554.7391,N,08403.5368,W,1,06,1.33,182.5,M,-32.1,M,,*50
$GPRMC,203303.500,A,3554.7391,N,08403.5368,W,0.10,247.67,260721,,,A*75
$GPGGA,203303.750,3554.7391,N,08403.5368,W,1,06,1.33,182.5,M,-32.1,M,,*55
$GPRMC,203304.000,A,3554.7391,N,08403.5368,W,0.16,258.40,260721,,,A*7A
$GPGGA,203304.250,3554.7391,N,08403.5368,W,1,06,1.33,182.5,M,-32.1,M,,*57
$GPRMC,203304.500,A,3554.7391,N,08403.5368,W,0.28,252.03,260721,,,A*7F
$GPGGA,203304.750,3554.7391,N,08403.5368,W,1,06,1.33,182.6,M,-32.1,M,,*51
$GPRMC,203305.000,A,3554.7391,N,08403.5369,W,0.18,243.82,260721,,,A*70
$GPGGA,203305.250,3554.7391,N,08403.5369,W,1,06,1.33,182.6,M,-32.1,M,,*54
$GPRMC,203305.500,A,3554.7391,N,08403.5369,W,0.12,240.89,260721,,,A*77
$GPGGA,203305.750,3554.7391,N,08403.5369,W,1,06,1.33,182.6,M,-32.1,M,,*51
$GPRMC,203306.000,A,3554.7390,N,08403.5369,W,0.20,231.59,260721,,,A*7A
$GPGGA,203306.250,3554.7390,N,08403.5369,W,1,06,1.33,182.6,M,-32.1,M,,*56
$GPRMC,203306.500,A,3554.7390,N,08403.5369,W,0.27,237.05,260721,,,A*77
$GPGGA,203306.750,3554.7390,N,08403.5370,W,1,06,1.33,182.6,M,-32.1,M,,*5B
$GPRMC,203307.000,A,3554.7390,N,08403.5370,W,0.28,235.89,260721,,,A*72
$GPGGA,203307.250,3554.7390,N,08403.5370,W,1,06,1.33,182.6,M,-32.1,M,,*5F
$GPRMC,203307.500,A,3554.7390,N,08403.5370,W,0.27,232.85,260721,,,A*73
$GPGGA,203307.750,3554.7390,N,08403.5370,W,1,06,1.33,182.6,M,-32.1,M,,*5A
$GPRMC,203308.000,A,3554.7389,N,08403.5370,W,0.30,228.09,260721,,,A*78
$GPGGA,203308.250,3554.7389,N,08403.5370,W,1,06,1.33,182.6,M,-32.1,M,,*58
$GPRMC,203308.500,A,3554.7389,N,08403.5370,W,0.23,223.91,260721,,,A*75
$GPGGA,203308.750,3554.7389,N,08403.5370,W,1,06,1.33,182.6,M,-32.1,M,,*5D
$GPRMC,203309.000,A,3554.7389,N,08403.5370,W,0.21,220.57,260721,,,A*7A
$GPGGA,203309.250,3554.7389,N,08403.5370,W,1,06,1.33,182.6,M,-32.1,M,,*59
$GPRMC,203309.500,A,3554.7389,N,08403.5370,W,0.20,219.65,260721,,,A*75
$GPGGA,203309.750,3554.7388,N,08403.5371,W,1,06,1.33,182.6,M,-32.1,M,,*5C
$GPRMC,203310.000,A,3554.7388,N,08403.5371,W,0.11,218.75,260721,,,A*7A
$GPGGA,203310.250,3554.7388,N,08403.5371,W,1,06,1.33,182.6,M,-32.1,M,,*51
$GPRMC,203310.500,A,3554.7388,N,08403.5371,W,0.07,216.57,260721,,,A*76
$GPGGA,203310.750,3554.7388,N,08403.5371,W,1,06,1.33,182.6,M,-32.1,M,,*54
$GPRMC,203311.000,A,3554.7388,N,08403.5371,W,0.14,217.82,260721,,,A*79
$GPGGA,203311.250,3554.7388,N,08403.5371,W,1,06,1.33,182.6,M,-32.1,M,,*50
$GPRMC,203311.500,A,3554.7388,N,08403.5371,W,0.14,222.75,260721,,,A*72
$GPGGA,203311.750,3554.7388,N,08403.5371,W,1,06,1.33,182.6,M,-32.1,M,,*55
$GPRMC,203312.000,A,3554.7388,N,08403.5371,W,0.15,307.02,260721,,,A*73
$GPGGA,203312.250,3554.7388,N,08403.5371,W,1,06,1.33,182.6,M,-32.1,M,,*53
$GPRMC,203312.500,A,3554.7389,N,08403.5371,W,0.10,309.48,260721,,,A*72
$GPGGA,203312.750,3554.7389,N,08403.5371,W,1,06,1.33,182.6,M,-32.1,M,,*57
$GPRMC,203313.000,A,3554.7389,N,08403.5371,W,0.14,215.41,260721,,,A*77
$GPGGA,203313.250,3554.7389,N,08403.5371,W,1,06,1.33,182.6,M,-32.1,M,,*53
$GPRMC,203313.500,A,3554.7388,N,08403.5371,W,0.11,178.31,260721,,,A*79
$GPGGA,203313.750,3554.7388,N,08403.5371,W,1,06,1.33,182.6,M,-32.1,M,,*57
$GPRMC,203314.000,A,3554.7388,N,08403.5371,W,0.08,157.85,260721,,,A*71
$GPGGA,203314.250,3554.7388,N,08403.5371,W,1,06,1.33,182.6,M,-32.1,M,,*55
$GPRMC,203314.500,A,3554.7388,N,08403.5371,W,0.11,87.74,260721,,,A*4E
$GPGGA,203314.750,3554.7388,N,08403.5371,W,1,06,1.33,182.6,M,-32.1,M,,*50
$GPRMC,203315.000,A,3554.7388,N,08403.5371,W,0.20,77.14,260721,,,A*41
$GPGGA,203315.250,3554.7388,N,08403.5371,W,1,06,1.33,182.6,M,-32.1,M,,*54
$GPRMC,203315.500,A,3554.7388,N,08403.5371,W,0.14,85.63,260721,,,A*4E
$GPGGA,203315.750,3554.7388,N,08403.5371,W,1,06,1.33,182.6,M,-32.1,M,,*51
$GPRMC,203316.000,A,3554.7388,N,08403.5371,W,0.17,71.37,260721,,,A*41
$GPGGA,203316.250,3554.7388,N,08403.5370,W,1,06,1.33,182.6,M,-32.1,M,,*56
$GPRMC,203316.500,A,3554.7388,N,08403.5370,W,0.23,69.99,260721,,,A*4F
$GPGGA,203316.750,3554.7389,N,08403.5370,W,1,06,1.33,182.6,M,-32.1,M,,*52
$GPRMC,203317.000,A,3554.7389,N,08403.5370,W,0.21,81.73,260721,,,A*4A
$GPGGA,203317.250,3554.7389,N,08403.5370,W,1,06,1.33,182.6,M,-32.1,M,,*56
$GPRMC,203317.500,A,3554.7389,N,08403.5370,W,0.19,105.75,260721,,,A*7F
$GPGGA,203317.750,3554.7389,N,08403.5369,W,1,06,1.33,182.6,M,-32.1,M,,*5B
$GPRMC,203318.000,A,3554.7389,N,08403.5369,W,0.07,133.19,260721,,,A*7D
$GPGGA,203318.250,3554.7388,N,08403.5369,W,1,06,1.33,182.6,M,-32.1,M,,*50
$GPRMC,203318.500,A,3554.7388,N,08403.5369,W,0.07,151.39,260721,,,A*7F
$GPGGA,203318.750,3554.7388,N,08403.5369,W,1,06,1.33,182.6,M,-32.1,M,,*55
$GPRMC,203319.000,A,3554.7388,N,08403.5369,W,0.15,174.03,260721,,,A*76
$GPGGA,203319.250,3554.7388,N,08403.5369,W,1,06,1.33,182.6,M,-32.1,M,,*51
$GPRMC,203319.500,A,3554.7388,N,08403.5369,W,0.18,235.69,260721,,,A*74
$GPGGA,203319.750,3554.7388,N,08403.5369,W,1,06,1.33,182.6,M,-32.1,M,,*54
$GPRMC,203320.000,A,3554.7388,N,08403.5370,W,0.14,272.89,260721,,,A*72
$GPGGA,203320.250,3554.7388,N,08403.5370,W,1,06,1.33,182.6,M,-32.1,M,,*53
$GPRMC,203320.500,A,3554.7388,N,08403.5370,W,0.16,310.86,260721,,,A*7F
$GPGGA,203320.750,3554.7388,N,08403.5370,W,1,06,1.33,182.6,M,-32.1,M,,*56
$GPRMC,203321.000,A,3554.7388,N,08403.5370,W,0.13,350.57,260721,,,A*76
$GPGGA,203321.250,3554.7388,N,08403.5370,W,1,06,1.40,182.6,M,-32.1,M,,*56
$GPRMC,203321.500,A,3554.7389,N,08403.5370,W,0.15,357.88,260721,,,A*71
$GPGGA,203321.750,3554.7389,N,08403.5370,W,1,06,1.40,182.6,M,-32.1,M,,*52
$GPRMC,203322.000,A,3554.7389,N,08403.5370,W,0.11,17.50,260721,,,A*41
$GPGGA,203322.250,3554.7389,N,08403.5370,W,1,06,1.33,182.6,M,-32.1,M,,*50
$GPRMC,203322.500,A,3554.7389,N,08403.5370,W,0.10,30.55,260721,,,A*45
$GPGGA,203322.750,3554.7389,N,08403.5370,W,1,06,1.40,182.6,M,-32.1,M,,*51
$GPRMC,203323.000,A,3554.7389,N,08403.5370,W,0.03,181.27,260721,,,A*7D
$GPGGA,203323.250,3554.7389,N,08403.5370,W,1,06,1.40,182.6,M,-32.1,M,,*55
$GPRMC,203323.500,A,3554.7389,N,08403.5370,W,0.03,116.99,260721,,,A*73
$GPGGA,203323.750,3554.7389,N,08403.5370,W,1,06,1.40,182.6,M,-32.1,M,,*50
$GPRMC,203324.000,A,3554.7389,N,08403.5370,W,0.02,63.46,260721,,,A*41
$GPGGA,203324.250,3554.7389,N,08403.5370,W,1,06,1.40,182.6,M,-32.1,M,,*52
$GPRMC,203324.500,A,3554.7389,N,08403.5370,W,0.01,137.22,260721,,,A*75
$GPGGA,203324.750,3554.7389,N,08403.5370,W,1,06,1.40,182.6,M,-32.1,M,,*57
$GPRMC,203325.000,A,3554.7389,N,08403.5370,W,0.04,253.13,260721,,,A*77
$GPGGA,203325.250,3554.7389,N,08403.5370,W,1,06,1.40,182.6,M,-32.1,M,,*53
$GPRMC,203325.500,A,3554.7389,N,08403.5370,W,0.03,57.77,260721,,,A*41
$GPGGA,203325.750,3554.7389,N,08403.5370,W,1,06,1.40,182.7,M,-32.1,M,,*57
$GPRMC,203326.000,A,3554.7389,N,08403.5370,W,0.05,220.47,260721,,,A*70
$GPGGA,203326.250,3554.7389,N,08403.5370,W,1,07,1.20,182.7,M,-32.1,M,,*56
$GPRMC,203326.500,A,3554.7389,N,08403.5370,W,0.01,260.47,260721,,,A*75
$GPGGA,203326.750,3554.7389,N,08403.5370,W,1,07,1.20,182.7,M,-32.1,M,,*53
$GPRMC,203327.000,A,3554.7389,N,08403.5370,W,0.01,80.08,260721,,,A*46
$GPGGA,203327.250,3554.7389,N,08403.5370,W,1,07,1.20,182.7,M,-32.1,M,,*57
$GPRMC,203327.500,A,3554.7389,N,08403.5370,W,0.02,260.70,260721,,,A*73
$GPGGA,203327.750,3554.7389,N,08403.5370,W,1,07,1.20,182.7,M,-32.1,M,,*52
$GPRMC,203328.000,A,3554.7389,N,08403.5370,W,0.03,226.66,260721,,,A*7D
$GPGGA,203328.250,3554.7389,N,08403.5370,W,1,07,1.20,182.7,M,-32.1,M,,*58
$GPRMC,203328.500,A,3554.7389,N,08403.5370,W,0.01,233.24,260721,,,A*78
$GPGGA,203328.750,3554.7389,N,08403.5370,W,1,07,1.20,182.7,M,-32.1,M,,*5D
$GPRMC,203329.000,A,3554.7390,N,08403.5370,W,0.01,23.41,260721,,,A*44
$GPGGA,203329.250,3554.7390,N,08403.5370,W,1,07,1.20,183.2,M,-32.1,M,,*55
$GPRMC,203329.500,A,3554.7390,N,08403.5370,W,0.00,9.40,260721,,,A*79
$GPGGA,203329.750,3554.7391,N,08403.5371,W,1,07,1.20,183.8,M,-32.1,M,,*5A
$GPRMC,203330.000,A,3554.7392,N,08403.5370,W,0.00,38.40,260721,,,A*44
$GPGGA,203330.250,3554.7392,N,08403.5371,W,1,07,1.20,184.6,M,-32.1,M,,*5D
$GPRMC,203330.500,A,3554.7393,N,08403.5371,W,0.00,194.81,260721,,,A*7B
$GPGGA,203330.750,3554.7393,N,08403.5371,W,1,07,1.20,185.1,M,-32.1,M,,*5F
$GPRMC,203331.000,A,3554.7394,N,08403.5371,W,0.03,297.09,260721,,,A*7B
$GPGGA,203331.250,3554.7395,N,08403.5371,W,1,07,1.20,185.6,M,-32.1,M,,*5A
$GPRMC,203331.500,A,3554.7395,N,08403.5372,W,0.02,263.62,260721,,,A*7B
$GPGGA,203331.750,3554.7396,N,08403.5371,W,1,07,1.20,186.4,M,-32.1,M,,*5D
$GPRMC,203332.000,A,3554.7396,N,08403.5372,W,0.04,203.11,260721,,,A*7A
$GPGGA,203332.250,3554.7398,N,08403.5372,W,1,07,1.20,187.1,M,-32.1,M,,*52
$GPRMC,203332.500,A,3554.7398,N,08403.5372,W,0.00,250.75,260721,,,A*71
$GPGGA,203332.750,3554.7399,N,08403.5372,W,1,07,1.20,187.7,M,-32.1,M,,*50
$GPRMC,203333.000,A,3554.7400,N,08403.5372,W,0.01,233.45,260721,,,A*74
$GPGGA,203333.250,3554.7400,N,08403.5372,W,1,07,1.20,188.4,M,-32.1,M,,*5F
$GPRMC,203333.500,A,3554.7401,N,08403.5372,W,0.00,33.40,260721,,,A*46
$GPGGA,203333.750,3554.7402,N,08403.5373,W,1,07,1.20,189.1,M,-32.1,M,,*5D
$GPRMC,203334.000,A,3554.7403,N,08403.5373,W,0.01,312.44,260721,,,A*72
$GPGGA,203334.250,3554.7404,N,08403.5373,W,1,07,1.20,189.8,M,-32.1,M,,*50
$GPRMC,203334.500,A,3554.7405,N,08403.5373,W,0.01,243.12,260721,,,A*77
$GPGGA,203334.750,3554.7405,N,08403.5373,W,1,07,1.20,190.4,M,-32.1,M,,*50
$GPRMC,203335.000,A,3554.7406,N,08403.5373,W,0.01,220.91,260721,,,A*7E
$GPGGA,203335.250,3554.7407,N,08403.5373,W,1,07,1.20,191.0,M,-32.1,M,,*53
$GPRMC,203335.500,A,3554.7408,N,08403.5373,W,0.01,244.60,260721,,,A*79
$GPGGA,203335.750,3554.7409,N,08403.5373,W,1,07,1.20,191.7,M,-32.1,M,,*5F
$GPRMC,203336.000,A,3554.7409,N,08403.5374,W,0.01,227.46,260721,,,A*78
$GPGGA,203336.250,3554.7410,N,08403.5374,W,1,07,1.20,192.3,M,-32.1,M,,*51
$GPRMC,203336.500,A,3554.7411,N,08403.5374,W,0.01,118.96,260721,,,A*76
$GPGGA,203336.750,3554.7412,N,08403.5374,W,1,07,1.20,193.0,M,-32.1,M,,*54
$GPRMC,203337.000,A,3554.7412,N,08403.5374,W,0.00,228.36,260721,,,A*7A
$GPGGA,203337.250,3554.7413,N,08403.5374,W,1,07,1.20,193.6,M,-32.1,M,,*57
$GPRMC,203337.500,A,3554.7414,N,08403.5374,W,0.01,199.75,260721,,,A*76
$GPGGA,203337.750,3554.7414,N,08403.5374,W,1,07,1.20,194.3,M,-32.1,M,,*57
$GPRMC,203338.000,A,3554.7415,N,08403.5374,W,0.01,264.33,260721,,,A*7E
$GPGGA,203338.250,3554.7416,N,08403.5374,W,1,07,1.20,194.8,M,-32.1,M,,*54
$GPRMC,203338.500,A,3554.7416,N,08403.5374,W,0.01,212.01,260721,,,A*78
$GPGGA,203338.750,3554.7417,N,08403.5375,W,1,07,1.20,195.4,M,-32.1,M,,*5C
$GPRMC,203339.000,A,3554.7418,N,08403.5375,W,0.00,15.82,260721,,,A*4C
$GPGGA,203339.250,3554.7418,N,08403.5375,W,1,07,1.20,196.0,M,-32.1,M,,*50
$GPRMC,203339.500,A,3554.7419,N,08403.5375,W,0.01,204.40,260721,,,A*75
$GPGGA,203339.750,3554.7420,N,08403.5375,W,1,07,1.20,196.6,M,-32.1,M,,*58
$GPRMC,203340.000,A,3554.7420,N,08403.5375,W,0.00,223.10,260721,,,A*75
$GPGGA,203340.250,3554.7421,N,08403.5375,W,1,07,1.20,197.1,M,-32.1,M,,*54
$GPRMC,203340.500,A,3554.7421,N,08403.5376,W,0.00,214.65,260721,,,A*74
$GPGGA,203340.750,3554.7422,N,08403.5376,W,1,07,1.20,197.6,M,-32.1,M,,*56
$GPRMC,203341.000,A,3554.7422,N,08403.5376,W,0.01,230.59,260721,,,A*7B
$GPGGA,203341.250,3554.7423,N,08403.5376,W,1,07,1.20,197.9,M,-32.1,M,,*5C
$GPRMC,203341.500,A,3554.7423,N,08403.5376,W,0.01,265.13,260721,,,A*71
$GPGGA,203341.750,3554.7423,N,08403.5377,W,1,07,1.20,198.3,M,-32.1,M,,*5D
$GPRMC,203342.000,A,3554.7423,N,08403.5377,W,0.01,192.14,260721,,,A*7A
$GPGGA,203342.250,3554.7424,N,08403.5378,W,1,07,1.20,198.4,M,-32.1,M,,*54
$GPRMC,203342.500,A,3554.7424,N,08403.5378,W,0.01,271.13,260721,,,A*7E
$GPGGA,203342.750,3554.7424,N,08403.5378,W,1,07,1.20,198.8,M,-32.1,M,,*5D
$GPRMC,203343.000,A,3554.7424,N,08403.5378,W,0.01,98.37,260721,,,A*49
$GPGGA,203343.250,3554.7425,N,08403.5378,W,1,07,1.20,199.1,M,-32.1,M,,*50
$GPRMC,203343.500,A,3554.7425,N,08403.5379,W,0.00,277.45,260721,,,A*7B
$GPGGA,203343.750,3554.7425,N,08403.5379,W,1,07,1.20,199.4,M,-32.1,M,,*51
$GPRMC,203344.000,A,3554.7426,N,08403.5379,W,0.00,0.00,260721,,,A*79
$GPGGA,203344.250,3554.7426,N,08403.5379,W,1,07,1.20,199.7,M,-32.1,M,,*53
$GPRMC,203344.500,A,3554.7426,N,08403.5379,W,0.01,329.95,260721,,,A*79
$GPGGA,203344.750,3554.7427,N,08403.5379,W,1,07,1.20,200.2,M,-32.1,M,,*51
$GPRMC,203345.000,A,3554.7427,N,08403.5379,W,0.00,0.00,260721,,,A*79
$GPGGA,203345.250,3554.7427,N,08403.5380,W,1,07,1.20,200.3,M,-32.1,M,,*52
$GPRMC,203345.500,A,3554.7427,N,08403.5380,W,0.00,307.14,260721,,,A*7B
$GPGGA,203345.750,3554.7427,N,08403.5380,W,1,07,1.20,200.6,M,-32.1,M,,*52
$GPRMC,203346.000,A,3554.7427,N,08403.5380,W,0.00,0.00,260721,,,A*7C
$GPGGA,203346.250,3554.7427,N,08403.5380,W,1,07,1.20,200.9,M,-32.1,M,,*5B
$GPRMC,203346.500,A,3554.7428,N,08403.5380,W,0.00,0.00,260721,,,A*76
$GPGGA,203346.750,3554.7428,N,08403.5380,W,1,07,1.20,201.3,M,-32.1,M,,*5A
$GPRMC,203347.000,A,3554.7428,N,08403.5380,W,0.00,295.82,260721,,,A*76
$GPGGA,203347.250,3554.7429,N,08403.5380,W,1,07,1.20,201.8,M,-32.1,M,,*54
$GPRMC,203347.500,A,3554.7429,N,08403.5380,W,0.00,235.98,260721,,,A*73
$GPGGA,203347.750,3554.7429,N,08403.5380,W,1,07,1.20,202.0,M,-32.1,M,,*5A
$GPRMC,203348.000,A,3554.7429,N,08403.5380,W,0.00,295.02,260721,,,A*70
$GPGGA,203348.250,3554.7429,N,08403.5380,W,1,07,1.20,202.3,M,-32.1,M,,*53
$GPRMC,203348.500,A,3554.7430,N,08403.5380,W,0.00,132.37,260721,,,A*75
$GPGGA,203348.750,3554.7431,N,08403.5380,W,1,07,1.20,203.2,M,-32.1,M,,*5F
$GPRMC,203349.000,A,3554.7431,N,08403.5380,W,0.00,99.83,260721,,,A*4F
$GPGGA,203349.250,3554.7432,N,08403.5379,W,1,07,1.20,204.0,M,-32.1,M,,*5B
$GPRMC,203349.500,A,3554.7432,N,08403.5379,W,0.00,82.49,260721,,,A*43
$GPGGA,203349.750,3554.7433,N,08403.5379,W,1,07,1.20,204.9,M,-32.1,M,,*56
$GPRMC,203350.000,A,3554.7434,N,08403.5378,W,0.00,94.76,260721,,,A*42
$GPGGA,203350.250,3554.7434,N,08403.5378,W,1,07,1.20,205.6,M,-32.1,M,,*53
$GPRMC,203350.500,A,3554.7434,N,08403.5378,W,0.00,142.25,260721,,,A*7B
$GPGGA,203350.750,3554.7435,N,08403.5378,W,1,07,1.20,206.3,M,-32.1,M,,*51
$GPRMC,203351.000,A,3554.7435,N,08403.5378,W,0.01,255.62,260721,,,A*79
$GPGGA,203351.250,3554.7435,N,08403.5378,W,1,07,1.20,207.0,M,-32.1,M,,*57
$GPRMC,203351.500,A,3554.7436,N,08403.5378,W,0.01,269.58,260721,,,A*79
$GPGGA,203351.750,3554.7435,N,08403.5378,W,1,07,1.20,207.3,M,-32.1,M,,*51
$GPRMC,203352.000,A,3554.7436,N,08403.5378,W,0.00,13.41,260721,,,A*49
$GPGGA,203352.250,3554.7436,N,08403.5378,W,1,07,1.20,208.0,M,-32.1,M,,*58
$GPRMC,203352.500,A,3554.7436,N,08403.5377,W,0.00,60.59,260721,,,A*4E
$GPGGA,203352.750,3554.7437,N,08403.5377,W,1,07,1.20,208.4,M,-32.1,M,,*57
$GPRMC,203353.000,A,3554.7437,N,08403.5377,W,0.01,241.08,260721,,,A*7F
$GPGGA,203353.250,3554.7437,N,08403.5377,W,1,07,1.20,208.9,M,-32.1,M,,*5E
$GPRMC,203353.500,A,3554.7437,N,08403.5377,W,0.01,218.70,260721,,,A*79
$GPGGA,203353.750,3554.7437,N,08403.5377,W,1,07,1.20,209.3,M,-32.1,M,,*50
$GPRMC,203354.000,A,3554.7437,N,08403.5377,W,0.00,191.26,260721,,,A*7B
$GPGGA,203354.250,3554.7438,N,08403.5377,W,1,07,1.20,209.7,M,-32.1,M,,*59
$GPRMC,203354.500,A,3554.7438,N,08403.5377,W,0.00,218.39,260721,,,A*7D
$GPGGA,203354.750,3554.7438,N,08403.5377,W,1,07,1.20,210.1,M,-32.1,M,,*52
$GPRMC,203355.000,A,3554.7438,N,08403.5377,W,0.00,326.15,260721,,,A*7B
$GPGGA,203355.250,3554.7438,N,08403.5377,W,1,07,1.20,210.5,M,-32.1,M,,*52
$GPRMC,203355.500,A,3554.7439,N,08403.5377,W,0.01,197.95,260721,,,A*7E
$GPGGA,203355.750,3554.7439,N,08403.5377,W,1,07,1.20,210.8,M,-32.1,M,,*5B
$GPRMC,203356.000,A,3554.7439,N,08403.5377,W,0.01,219.46,260721,,,A*73
$GPGGA,203356.250,3554.7439,N,08403.5377,W,1,07,1.20,211.2,M,-32.1,M,,*56
$GPRMC,203356.500,A,3554.7440,N,08403.5377,W,0.00,26.48,260721,,,A*49
$GPGGA,203356.750,3554.7440,N,08403.5377,W,1,07,1.20,211.6,M,-32.1,M,,*59
$GPRMC,203357.000,A,3554.7440,N,08403.5377,W,0.00,277.39,260721,,,A*7D
$GPGGA,203357.250,3554.7441,N,08403.5377,W,1,07,1.20,212.0,M,-32.1,M,,*59
$GPRMC,203357.500,A,3554.7441,N,08403.5377,W,0.00,240.67,260721,,,A*76
$GPGGA,203357.750,3554.7441,N,08403.5377,W,1,07,1.20,212.4,M,-32.1,M,,*58
$GPRMC,203358.000,A,3554.7441,N,08403.5377,W,0.01,215.19,260721,,,A*74
$GPGGA,203358.250,3554.7442,N,08403.5377,W,1,07,1.20,212.7,M,-32.1,M,,*52
$GPRMC,203358.500,A,3554.7442,N,08403.5377,W,0.01,218.92,260721,,,A*7C
$GPGGA,203358.750,3554.7442,N,08403.5377,W,1,07,1.20,213.0,M,-32.1,M,,*51
$GPRMC,203359.000,A,3554.7443,N,08403.5377,W,0.00,337.55,260721,,,A*7F
$GPGGA,203359.250,3554.7443,N,08403.5377,W,1,07,1.20,213.3,M,-32.1,M,,*57
$GPRMC,203359.500,A,3554.7443,N,08403.5377,W,0.01,198.34,260721,,,A*7B
$GPGGA,203359.750,3554.7444,N,08403.5377,W,1,07,1.20,213.7,M,-32.1,M,,*51
$GPRMC,203400.000,A,3554.7444,N,08403.5377,W,0.01,39.70,260721,,,A*48
$GPGGA,203400.250,3554.7444,N,08403.5377,W,1,07,1.20,214.0,M,-32.1,M,,*5F
$GPRMC,203400.500,A,3554.7444,N,08403.5377,W,0.00,220.23,260721,,,A*70
$GPGGA,203400.750,3554.7444,N,08403.5378,W,1,07,1.20,214.3,M,-32.1,M,,*56
$GPRMC,203401.000,A,3554.7445,N,08403.5378,W,0.00,239.29,260721,,,A*78
$GPGGA,203401.250,3554.7445,N,08403.5378,W,1,07,1.20,214.7,M,-32.1,M,,*57
$GPRMC,203401.500,A,3554.7445,N,08403.5378,W,0.01,116.57,260721,,,A*7B
$GPGGA,203401.750,3554.7446,N,08403.5378,W,1,07,1.20,215.2,M,-32.1,M,,*55
$GPRMC,203402.000,A,3554.7446,N,08403.5378,W,0.01,229.06,260721,,,A*75
$GPGGA,203402.250,3554.7447,N,08403.5378,W,1,07,1.20,215.7,M,-32.1,M,,*57
$GPRMC,203402.500,A,3554.7447,N,08403.5378,W,0.01,207.52,260721,,,A*7C
$GPGGA,203402.750,3554.7447,N,08403.5378,W,1,07,1.20,216.0,M,-32.1,M,,*56
$GPRMC,203403.000,A,3554.7447,N,08403.5378,W,0.00,0.00,260721,,,A*7B
$GPGGA,203403.250,3554.7448,N,08403.5378,W,1,07,1.20,216.4,M,-32.1,M,,*59
$GPRMC,203403.500,A,3554.7448,N,08403.5378,W,0.00,50.33,260721,,,A*44
$GPGGA,203403.750,3554.7448,N,08403.5378,W,1,07,1.20,216.8,M,-32.1,M,,*50
$GPRMC,203404.000,A,3554.7448,N,08403.5378,W,0.01,99.71,260721,,,A*44
$GPGGA,203404.250,3554.7449,N,08403.5378,W,1,07,1.20,217.3,M,-32.1,M,,*59
$GPRMC,203404.500,A,3554.7449,N,08403.5378,W,0.01,351.32,260721,,,A*70
$GPGGA,203404.750,3554.7449,N,08403.5378,W,1,07,1.20,217.8,M,-32.1,M,,*57
$GPRMC,203405.000,A,3554.7449,N,08403.5378,W,0.01,66.67,260721,,,A*43
$GPGGA,203405.250,3554.7450,N,08403.5378,W,1,07,1.20,218.1,M,-32.1,M,,*5D
$GPRMC,203405.500,A,3554.7450,N,08403.5378,W,0.01,95.74,260721,,,A*40
$GPGGA,203405.750,3554.7450,N,08403.5378,W,1,07,1.20,218.6,M,-32.1,M,,*5F
$GPRMC,203406.000,A,3554.7450,N,08403.5379,W,0.00,252.42,260721,,,A*7A
$GPGGA,203406.250,3554.7451,N,08403.5379,W,1,07,1.20,219.0,M,-32.1,M,,*5E
$GPRMC,203406.500,A,3554.7451,N,08403.5379,W,0.00,315.98,260721,,,A*7B
$GPGGA,203406.750,3554.7451,N,08403.5379,W,1,07,1.20,219.5,M,-32.1,M,,*5E
$GPRMC,203407.000,A,3554.7451,N,08403.5379,W,0.00,132.10,260721,,,A*78
$GPGGA,203407.250,3554.7451,N,08403.5379,W,1,07,1.20,219.8,M,-32.1,M,,*57
$GPRMC,203407.500,A,3554.7451,N,08403.5379,W,0.01,287.60,260721,,,A*76
$GPGGA,203407.750,3554.7451,N,08403.5379,W,1,07,1.20,220.1,M,-32.1,M,,*51
$GPRMC,203408.000,A,3554.7452,N,08403.5379,W,0.00,25.68,260721,,,A*4C
$GPGGA,203408.250,3554.7452,N,08403.5380,W,1,07,1.20,220.5,M,-32.1,M,,*5A
$GPRMC,203408.500,A,3554.7452,N,08403.5380,W,0.01,335.36,260721,,,A*77
$GPGGA,203408.750,3554.7452,N,08403.5380,W,1,07,1.20,221.0,M,-32.1,M,,*5B
$GPRMC,203409.000,A,3554.7452,N,08403.5380,W,0.01,172.01,260721,,,A*76
$GPGGA,203409.250,3554.7453,N,08403.5380,W,1,07,1.20,221.4,M,-32.1,M,,*5A
$GPRMC,203409.500,A,3554.7453,N,08403.5380,W,0.01,293.83,260721,,,A*74
$GPGGA,203409.750,3554.7453,N,08403.5380,W,1,07,1.20,221.8,M,-32.1,M,,*53
$GPRMC,203410.000,A,3554.7453,N,08403.5380,W,0.01,199.40,260721,,,A*7F
$GPGGA,203410.250,3554.7454,N,08403.5381,W,1,07,1.20,222.3,M,-32.1,M,,*50
$GPRMC,203410.500,A,3554.7454,N,08403.5381,W,0.00,332.78,260721,,,A*75
$GPGGA,203410.750,3554.7454,N,08403.5381,W,1,07,1.20,222.5,M,-32.1,M,,*53
$GPRMC,203411.000,A,3554.7454,N,08403.5381,W,0.01,211.64,260721,,,A*7D
$GPGGA,203411.250,3554.7454,N,08403.5381,W,1,07,1.20,223.0,M,-32.1,M,,*53
$GPRMC,203411.500,A,3554.7454,N,08403.5381,W,0.00,243.64,260721,,,A*7E
$GPGGA,203411.750,3554.7455,N,08403.5381,W,1,07,1.20,223.4,M,-32.1,M,,*53
$GPRMC,203412.000,A,3554.7455,N,08403.5382,W,0.00,265.09,260721,,,A*75
$GPGGA,203412.250,3554.7455,N,08403.5382,W,1,07,1.20,223.8,M,-32.1,M,,*5A
$GPRMC,203412.500,A,3554.7455,N,08403.5382,W,0.00,245.50,260721,,,A*7E
$GPGGA,203412.750,3554.7455,N,08403.5382,W,1,07,1.20,224.0,M,-32.1,M,,*50
$GPRMC,203413.000,A,3554.7455,N,08403.5382,W,0.01,230.42,260721,,,A*7A
$GPGGA,203413.250,3554.7455,N,08403.5383,W,1,07,1.20,224.3,M,-32.1,M,,*56
$GPRMC,203413.500,A,3554.7455,N,08403.5383,W,0.01,358.56,260721,,,A*74
$GPGGA,203413.750,3554.7455,N,08403.5383,W,1,07,1.20,224.5,M,-32.1,M,,*55
$GPRMC,203414.000,A,3554.7456,N,08403.5383,W,0.01,153.62,260721,,,A*7B
$GPGGA,203414.250,3554.7456,N,08403.5383,W,1,07,1.20,224.9,M,-32.1,M,,*58
$GPRMC,203414.500,A,3554.7456,N,08403.5383,W,0.01,23.96,260721,,,A*43
$GPGGA,203414.750,3554.7456,N,08403.5384,W,1,07,1.20,225.2,M,-32.1,M,,*50
$GPRMC,203415.000,A,3554.7456,N,08403.5384,W,0.00,330.14,260721,,,A*7A
$GPGGA,203415.250,3554.7456,N,08403.5384,W,1,07,1.20,225.5,M,-32.1,M,,*53
$GPRMC,203415.500,A,3554.7456,N,08403.5384,W,0.01,162.41,260721,,,A*7B
$GPGGA,203415.750,3554.7456,N,08403.5384,W,1,07,1.20,225.7,M,-32.1,M,,*54
$GPRMC,203416.000,A,3554.7456,N,08403.5384,W,0.00,235.40,260721,,,A*7C
$GPGGA,203416.250,3554.7456,N,08403.5384,W,1,07,1.20,225.9,M,-32.1,M,,*5C
$GPRMC,203416.500,A,3554.7457,N,08403.5385,W,0.01,53.18,260721,,,A*47
$GPGGA,203416.750,3554.7457,N,08403.5385,W,1,07,1.20,226.1,M,-32.1,M,,*52
$GPRMC,203417.000,A,3554.7457,N,08403.5385,W,0.01,184.11,260721,,,A*71
$GPGGA,203417.250,3554.7457,N,08403.5385,W,1,07,1.20,226.3,M,-32.1,M,,*54
$GPRMC,203417.500,A,3554.7457,N,08403.5385,W,0.00,310.54,260721,,,A*7B
$GPGGA,203417.750,3554.7457,N,08403.5385,W,1,07,1.20,226.5,M,-32.1,M,,*57
$GPRMC,203418.000,A,3554.7457,N,08403.5386,W,0.00,279.90,260721,,,A*74
$GPGGA,203418.250,3554.7457,N,08403.5386,W,1,07,1.20,226.9,M,-32.1,M,,*52
$GPRMC,203418.500,A,3554.7457,N,08403.5386,W,0.00,103.84,260721,,,A*7A
$GPGGA,203418.750,3554.7458,N,08403.5386,W,1,07,1.20,227.4,M,-32.1,M,,*54
$GPRMC,203419.000,A,3554.7458,N,08403.5386,W,0.00,0.00,260721,,,A*7F
$GPGGA,203419.250,3554.7458,N,08403.5386,W,1,07,1.20,227.8,M,-32.1,M,,*5C
$GPRMC,203419.500,A,3554.7458,N,08403.5386,W,0.00,0.00,260721,,,A*7A
$GPGGA,203419.750,3554.7459,N,08403.5386,W,1,07,1.20,228.3,M,-32.1,M,,*5C
$GPRMC,203420.000,A,3554.7459,N,08403.5386,W,0.00,0.00,260721,,,A*74
$GPGGA,203420.250,3554.7459,N,08403.5386,W,1,07,1.20,228.8,M,-32.1,M,,*58
$GPRMC,203420.500,A,3554.7459,N,08403.5386,W,0.00,297.14,260721,,,A*78
$GPGGA,203420.750,3554.7460,N,08403.5386,W,1,07,1.20,229.2,M,-32.1,M,,*5C
$GPRMC,203421.000,A,3554.7460,N,08403.5386,W,0.00,220.44,260721,,,A*7F
$GPGGA,203421.250,3554.7460,N,08403.5386,W,1,07,1.20,229.8,M,-32.1,M,,*52
$GPRMC,203421.500,A,3554.7461,N,08403.5386,W,0.00,0.00,260721,,,A*7B
$GPGGA,203421.750,3554.7461,N,08403.5386,W,1,07,1.20,230.1,M,-32.1,M,,*57
$GPRMC,203422.000,A,3554.7461,N,08403.5386,W,0.00,354.61,260721,,,A*78
$GPGGA,203422.250,3554.7461,N,08403.5386,W,1,07,1.20,230.4,M,-32.1,M,,*54
$GPRMC,203422.500,A,3554.7461,N,08403.5386,W,0.00,0.00,260721,,,A*78
$GPGGA,203422.750,3554.7461,N,08403.5386,W,1,07,1.20,230.7,M,-32.1,M,,*52
$GPRMC,203423.000,A,3554.7461,N,08403.5386,W,0.00,154.31,260721,,,A*7E
$GPGGA,203423.250,3554.7462,N,08403.5386,W,1,07,1.20,231.0,M,-32.1,M,,*53
$GPRMC,203423.500,A,3554.7462,N,08403.5386,W,0.01,132.92,260721,,,A*70
$GPGGA,203423.750,3554.7462,N,08403.5386,W,1,07,1.20,231.4,M,-32.1,M,,*52
$GPRMC,203424.000,A,3554.7462,N,08403.5386,W,0.00,61.47,260721,,,A*4C
$GPGGA,203424.250,3554.7463,N,08403.5386,W,1,07,1.20,231.9,M,-32.1,M,,*5C
$GPRMC,203424.500,A,3554.7463,N,08403.5386,W,0.00,0.00,260721,,,A*7C
$GPGGA,203424.750,3554.7463,N,08403.5386,W,1,07,1.20,232.3,M,-32.1,M,,*50
$GPRMC,203425.000,A,3554.7463,N,08403.5386,W,0.01,268.40,260721,,,A*71
$GPGGA,203425.250,3554.7464,N,08403.5386,W,1,07,1.20,232.6,M,-32.1,M,,*56
$GPRMC,203425.500,A,3554.7464,N,08403.5386,W,0.00,7.50,260721,,,A*78
$GPGGA,203425.750,3554.7464,N,08403.5386,W,1,07,1.20,232.9,M,-32.1,M,,*5C
$GPRMC,203426.000,A,3554.7464,N,08403.5387,W,0.00,156.49,260721,,,A*72
$GPGGA,203426.250,3554.7465,N,08403.5387,W,1,07,1.20,233.4,M,-32.1,M,,*56
$GPRMC,203426.500,A,3554.7465,N,08403.5387,W,0.00,213.63,260721,,,A*7C
$GPGGA,203426.750,3554.7465,N,08403.5387,W,1,07,1.20,233.8,M,-32.1,M,,*5F
$GPRMC,203427.000,A,3554.7465,N,08403.5387,W,0.01,132.01,260721,,,A*7D
$GPGGA,203427.250,3554.7465,N,08403.5387,W,1,07,1.20,234.2,M,-32.1,M,,*56
$GPRMC,203427.500,A,3554.7465,N,08403.5387,W,0.00,78.84,260721,,,A*4B
$GPGGA,203427.750,3554.7465,N,08403.5387,W,1,07,1.20,234.5,M,-32.1,M,,*54
$GPRMC,203428.000,A,3554.7465,N,08403.5387,W,0.00,199.53,260721,,,A*75
$GPGGA,203428.250,3554.7466,N,08403.5387,W,1,07,1.20,234.7,M,-32.1,M,,*5F
$GPRMC,203428.500,A,3554.7466,N,08403.5387,W,0.01,21.54,260721,,,A*47
$GPGGA,203428.750,3554.7466,N,08403.5388,W,1,07,1.20,234.9,M,-32.1,M,,*5B
$GPRMC,203429.000,A,3554.7466,N,08403.5388,W,0.01,50.85,260721,,,A*46
$GPGGA,203429.250,3554.7466,N,08403.5388,W,1,07,1.20,235.1,M,-32.1,M,,*56
$GPRMC,203429.500,A,3554.7466,N,08403.5388,W,0.01,233.63,260721,,,A*7C
$GPGGA,203429.750,3554.7466,N,08403.5388,W,1,07,1.20,235.3,M,-32.1,M,,*51
$GPRMC,203430.000,A,3554.7466,N,08403.5389,W,0.01,239.89,260721,,,A*7E
$GPGGA,203430.250,3554.7466,N,08403.5389,W,1,07,1.20,235.6,M,-32.1,M,,*58
$GPRMC,203430.500,A,3554.7466,N,08403.5389,W,0.01,245.71,260721,,,A*77
$GPGGA,203430.750,3554.7466,N,08403.5389,W,1,07,1.20,235.9,M,-32.1,M,,*52
$GPRMC,203431.000,A,3554.7466,N,08403.5389,W,0.00,78.32,260721,,,A*49
$GPGGA,203431.250,3554.7467,N,08403.5389,W,1,07,1.20,236.2,M,-32.1,M,,*5F
$GPRMC,203431.500,A,3554.7467,N,08403.5389,W,0.00,27.97,260721,,,A*48
$GPGGA,203431.750,3554.7467,N,08403.5390,W,1,07,1.20,236.4,M,-32.1,M,,*54
$GPRMC,203432.000,A,3554.7467,N,08403.5390,W,0.01,240.26,260721,,,A*7E
$GPGGA,203432.250,3554.7467,N,08403.5390,W,1,07,1.20,236.5,M,-32.1,M,,*53
$GPRMC,203432.500,A,3554.7467,N,08403.5391,W,0.01,279.98,260721,,,A*75
$GPGGA,203432.750,3554.7467,N,08403.5391,W,1,07,1.20,236.7,M,-32.1,M,,*55
$GPRMC,203433.000,A,3554.7467,N,08403.5391,W,0.01,8.32,260721,,,A*75
$GPGGA,203433.250,3554.7467,N,08403.5390,W,1,07,1.20,237.0,M,-32.1,M,,*56
$GPRMC,203433.500,A,3554.7468,N,08403.5390,W,0.01,93.41,260721,,,A*48
$GPGGA,203433.750,3554.7468,N,08403.5391,W,1,07,1.20,237.3,M,-32.1,M,,*5E
$GPRMC,203434.000,A,3554.7468,N,08403.5391,W,0.00,137.65,260721,,,A*73
$GPGGA,203434.250,3554.7468,N,08403.5391,W,1,07,1.20,237.5,M,-32.1,M,,*5A
$GPRMC,203434.500,A,3554.7468,N,08403.5391,W,0.00,10.32,260721,,,A*40
$GPGGA,203434.750,3554.7468,N,08403.5391,W,1,07,1.20,237.7,M,-32.1,M,,*5D
$GPRMC,203435.000,A,3554.7469,N,08403.5391,W,0.01,340.03,260721,,,A*70
$GPGGA,203435.250,3554.7469,N,08403.5391,W,1,07,1.20,237.9,M,-32.1,M,,*56
$GPRMC,203435.500,A,3554.7469,N,08403.5391,W,0.01,212.04,260721,,,A*74
$GPGGA,203435.750,3554.7469,N,08403.5391,W,1,07,1.20,238.1,M,-32.1,M,,*54
$GPRMC,203436.000,A,3554.7469,N,08403.5391,W,0.00,248.44,260721,,,A*78
$GPGGA,203436.250,3554.7469,N,08403.5392,W,1,07,1.20,238.2,M,-32.1,M,,*52
$GPRMC,203436.500,A,3554.7469,N,08403.5392,W,0.00,0.00,260721,,,A*70
$GPGGA,203436.750,3554.7469,N,08403.5392,W,1,07,1.20,238.5,M,-32.1,M,,*50
$GPRMC,203437.000,A,3554.7469,N,08403.5392,W,0.00,234.00,260721,,,A*71
$GPGGA,203437.250,3554.7469,N,08403.5392,W,1,07,1.20,238.6,M,-32.1,M,,*57
$GPRMC,203437.500,A,3554.7469,N,08403.5393,W,0.01,235.29,260721,,,A*7E
$GPGGA,203437.750,3554.7469,N,08403.5393,W,1,07,1.20,238.7,M,-32.1,M,,*52
$GPRMC,203438.000,A,3554.7469,N,08403.5393,W,0.01,224.64,260721,,,A*7D
$GPGGA,203438.250,3554.7469,N,08403.5394,W,1,07,1.20,238.9,M,-32.1,M,,*51
$GPRMC,203438.500,A,3554.7469,N,08403.5394,W,0.01,148.69,260721,,,A*7B
$GPGGA,203438.750,3554.7469,N,08403.5394,W,1,07,1.20,239.0,M,-32.1,M,,*5C
$GPRMC,203439.000,A,3554.7469,N,08403.5394,W,0.01,238.58,260721,,,A*79
$GPGGA,203439.250,3554.7469,N,08403.5395,W,1,07,1.20,239.1,M,-32.1,M,,*58
$GPRMC,203439.500,A,3554.7469,N,08403.5395,W,0.01,301.86,260721,,,A*75
$GPGGA,203439.750,3554.7469,N,08403.5395,W,1,07,1.20,239.2,M,-32.1,M,,*5E
$GPRMC,203440.000,A,3554.7469,N,08403.5396,W,0.00,150.94,260721,,,A*79
$GPGGA,203440.250,3554.7469,N,08403.5396,W,1,07,1.20,239.3,M,-32.1,M,,*57
$GPRMC,203440.500,A,3554.7469,N,08403.5396,W,0.00,94.48,260721,,,A*44
$GPGGA,203440.750,3554.7469,N,08403.5396,W,1,07,1.20,239.4,M,-32.1,M,,*55
$GPRMC,203441.000,A,3554.7469,N,08403.5396,W,0.01,288.08,260721,,,A*7A
$GPGGA,203441.250,3554.7470,N,08403.5397,W,1,07,1.20,239.5,M,-32.1,M,,*59
$GPRMC,203441.500,A,3554.7469,N,08403.5397,W,0.01,226.26,260721,,,A*76
$GPGGA,203441.750,3554.7470,N,08403.5397,W,1,07,1.20,239.7,M,-32.1,M,,*5E
$GPRMC,203442.000,A,3554.7470,N,08403.5397,W,0.01,178.06,260721,,,A*72
$GPGGA,203442.250,3554.7470,N,08403.5397,W,1,07,1.20,240.1,M,-32.1,M,,*50
$GPRMC,203442.500,A,3554.7470,N,08403.5397,W,0.01,222.75,260721,,,A*7F
$GPGGA,203442.750,3554.7470,N,08403.5397,W,1,07,1.20,240.3,M,-32.1,M,,*57
$GPRMC,203443.000,A,3554.7470,N,08403.5397,W,0.01,29.86,260721,,,A*4E
$GPGGA,203443.250,3554.7470,N,08403.5397,W,1,07,1.20,240.5,M,-32.1,M,,*55
$GPRMC,203443.500,A,3554.7470,N,08403.5397,W,0.01,104.33,260721,,,A*7B
$GPGGA,203443.750,3554.7471,N,08403.5397,W,1,07,1.20,240.6,M,-32.1,M,,*52
$GPRMC,203444.000,A,3554.7471,N,08403.5397,W,0.01,25.68,260721,,,A*44
$GPGGA,203444.250,3554.7471,N,08403.5397,W,1,07,1.20,240.8,M,-32.1,M,,*5E
$GPRMC,203444.500,A,3554.7472,N,08403.5397,W,0.01,34.35,260721,,,A*4A
$GPGGA,203444.750,3554.7472,N,08403.5396,W,1,07,1.20,240.8,M,-32.1,M,,*59
$GPRMC,203445.000,A,3554.7472,N,08403.5396,W,0.02,33.54,260721,,,A*4C
$GPGGA,203445.250,3554.7473,N,08403.5396,W,1,07,1.20,240.9,M,-32.1,M,,*5D
$GPRMC,203445.500,A,3554.7473,N,08403.5396,W,0.02,30.26,260721,,,A*4E
$GPGGA,203445.750,3554.7473,N,08403.5396,W,1,07,1.20,240.9,M,-32.1,M,,*58
$GPRMC,203446.000,A,3554.7474,N,08403.5395,W,0.04,49.63,260721,,,A*45
$GPGGA,203446.250,3554.7474,N,08403.5395,W,1,07,1.20,241.0,M,-32.1,M,,*52
$GPRMC,203446.500,A,3554.7474,N,08403.5394,W,0.04,49.38,260721,,,A*4F
$GPGGA,203446.750,3554.7475,N,08403.5393,W,1,07,1.20,241.0,M,-32.1,M,,*50
$GPRMC,203447.000,A,3554.7475,N,08403.5393,W,0.12,53.40,260721,,,A*4E
$GPGGA,203447.250,3554.7476,N,08403.5392,W,1,07,1.13,241.1,M,-32.1,M,,*57
$GPRMC,203447.500,A,3554.7476,N,08403.5392,W,0.14,65.21,260721,,,A*4D
$GPGGA,203447.750,3554.7476,N,08403.5392,W,1,07,1.20,241.1,M,-32.1,M,,*52
$GPRMC,203448.000,A,3554.7476,N,08403.5392,W,0.06,84.53,260721,,,A*4E
$GPGGA,203448.250,3554.7476,N,08403.5391,W,1,07,1.13,241.1,M,-32.1,M,,*5B
$GPRMC,203448.500,A,3554.7476,N,08403.5391,W,0.07,73.89,260721,,,A*46
$GPGGA,203448.750,3554.7476,N,08403.5391,W,1,07,1.20,241.1,M,-32.1,M,,*5E
$GPRMC,203449.000,A,3554.7476,N,08403.5391,W,0.03,96.84,260721,,,A*40
$GPGGA,203449.250,3554.7476,N,08403.5391,W,1,07,1.20,241.1,M,-32.1,M,,*5A
$GPRMC,203449.500,A,3554.7477,N,08403.5391,W,0.01,316.98,260721,,,A*70
$GPGGA,203449.750,3554.7477,N,08403.5391,W,1,07,1.20,241.2,M,-32.1,M,,*5D
$GPRMC,203450.000,A,3554.7477,N,08403.5391,W,0.02,269.08,260721,,,A*7E
$GPGGA,203450.250,3554.7478,N,08403.5391,W,1,07,1.20,241.5,M,-32.1,M,,*58
$GPRMC,203450.500,A,3554.7478,N,08403.5390,W,0.01,267.04,260721,,,A*74
$GPGGA,203450.750,3554.7478,N,08403.5390,W,1,07,1.20,241.7,M,-32.1,M,,*5E
$GPRMC,203451.000,A,3554.7478,N,08403.5391,W,0.05,271.28,260721,,,A*7C
$GPGGA,203451.250,3554.7479,N,08403.5391,W,1,07,1.20,241.9,M,-32.1,M,,*54
$GPRMC,203451.500,A,3554.7480,N,08403.5391,W,0.04,284.41,260721,,,A*7A
$GPGGA,203451.750,3554.7480,N,08403.5392,W,1,07,1.20,241.9,M,-32.1,M,,*54
$GPRMC,203452.000,A,3554.7480,N,08403.5393,W,0.13,272.65,260721,,,A*77
$GPGGA,203452.250,3554.7480,N,08403.5395,W,1,07,1.20,242.1,M,-32.1,M,,*5E
$GPRMC,203452.500,A,3554.7481,N,08403.5398,W,0.36,266.53,260721,,,A*7F
$GPGGA,203452.750,3554.7481,N,08403.5398,W,1,07,1.13,242.2,M,-32.1,M,,*54
$GPRMC,203453.000,A,3554.7481,N,08403.5398,W,0.17,278.87,260721,,,A*7E
$GPGGA,203453.250,3554.7481,N,08403.5399,W,1,07,1.20,242.2,M,-32.1,M,,*51
$GPRMC,203453.500,A,3554.7481,N,08403.5399,W,0.32,284.91,260721,,,A*79
$GPGGA,203453.750,3554.7481,N,08403.5399,W,1,07,1.20,242.2,M,-32.1,M,,*54
$GPRMC,203454.000,A,3554.7481,N,08403.5399,W,0.51,296.47,260721,,,A*76
$GPGGA,203454.250,3554.7482,N,08403.5399,W,1,07,1.13,242.2,M,-32.1,M,,*55
$GPRMC,203454.500,A,3554.7484,N,08403.5401,W,1.66,302.36,260721,,,A*7F
$GPGGA,203454.750,3554.7486,N,08403.5403,W,1,07,1.13,242.5,M,-32.1,M,,*57
$GPRMC,203455.000,A,3554.7489,N,08403.5405,W,3.00,307.83,260721,,,A*7B
$GPGGA,203455.250,3554.7492,N,08403.5407,W,1,07,1.13,242.6,M,-32.1,M,,*51
$GPRMC,203455.500,A,3554.7495,N,08403.5409,W,4.16,313.22,260721,,,A*71
$GPGGA,203455.750,3554.7500,N,08403.5411,W,1,07,1.20,242.6,M,-32.1,M,,*59
$GPRMC,203456.000,A,3554.7504,N,08403.5414,W,5.08,319.58,260721,,,A*7B
$GPGGA,203456.250,3554.7509,N,08403.5414,W,1,07,1.20,242.6,M,-32.1,M,,*53
$GPRMC,203456.500,A,3554.7514,N,08403.5415,W,6.25,324.39,260721,,,A*7B
$GPGGA,203456.750,3554.7519,N,08403.5417,W,1,07,1.20,242.4,M,-32.1,M,,*56
$GPRMC,203457.000,A,3554.7524,N,08403.5419,W,6.98,318.88,260721,,,A*73
$GPGGA,203457.250,3554.7528,N,08403.5423,W,1,07,1.20,242.3,M,-32.1,M,,*50
$GPRMC,203457.500,A,3554.7530,N,08403.5426,W,6.79,308.15,260721,,,A*75
$GPGGA,203457.750,3554.7533,N,08403.5431,W,1,07,1.20,242.3,M,-32.1,M,,*5C
$GPRMC,203458.000,A,3554.7535,N,08403.5434,W,6.67,294.51,260721,,,A*72
$GPGGA,203458.250,3554.7538,N,08403.5439,W,1,07,1.20,242.4,M,-32.1,M,,*52
$GPRMC,203458.500,A,3554.7540,N,08403.5444,W,6.86,291.60,260721,,,A*7A
$GPGGA,203458.750,3554.7542,N,08403.5449,W,1,07,1.20,242.4,M,-32.1,M,,*5D
$GPRMC,203459.000,A,3554.7543,N,08403.5455,W,7.26,286.93,260721,,,A*7C
$GPGGA,203459.250,3554.7544,N,08403.5461,W,1,07,1.20,242.4,M,-32.1,M,,*55
$GPRMC,203459.500,A,3554.7546,N,08403.5468,W,7.41,279.20,260721,,,A*7B
$GPGGA,203459.750,3554.7546,N,08403.5474,W,1,07,1.20,242.5,M,-32.1,M,,*57
$GPRMC,203500.000,A,3554.7546,N,08403.5481,W,7.85,272.91,260721,,,A*7D
$GPGGA,203500.250,3554.7545,N,08403.5488,W,1,07,1.20,242.6,M,-32.1,M,,*5C
$GPRMC,203500.500,A,3554.7544,N,08403.5494,W,7.83,261.87,260721,,,A*7D
$GPGGA,203500.750,3554.7543,N,08403.5501,W,1,07,1.20,242.7,M,-32.1,M,,*5E
$GPRMC,203501.000,A,3554.7542,N,08403.5507,W,7.99,256.89,260721,,,A*75
$GPGGA,203501.250,3554.7540,N,08403.5514,W,1,07,1.20,242.9,M,-32.1,M,,*53
$GPRMC,203501.500,A,3554.7538,N,08403.5520,W,7.99,250.04,260721,,,A*7B
$GPGGA,203501.750,3554.7536,N,08403.5526,W,1,07,1.20,243.1,M,-32.1,M,,*5F
$GPRMC,203502.000,A,3554.7534,N,08403.5531,W,7.16,246.95,260721,,,A*79
$GPGGA,203502.250,3554.7532,N,08403.5536,W,1,07,1.20,243.2,M,-32.1,M,,*5F
$GPRMC,203502.500,A,3554.7529,N,08403.5541,W,7.09,238.84,260721,,,A*70
$GPGGA,203502.750,3554.7526,N,08403.5545,W,1,07,1.20,243.3,M,-32.1,M,,*5A
$GPRMC,203503.000,A,3554.7523,N,08403.5549,W,6.86,235.95,260721,,,A*7D
$GPGGA,203503.250,3554.7520,N,08403.5554,W,1,07,1.20,243.5,M,-32.1,M,,*5E
$GPRMC,203503.500,A,3554.7518,N,08403.5558,W,6.47,236.08,260721,,,A*7A
$GPGGA,203503.750,3554.7516,N,08403.5562,W,1,07,1.20,243.7,M,-32.1,M,,*59
$GPRMC,203504.000,A,3554.7514,N,08403.5566,W,6.06,233.48,260721,,,A*7D
$GPGGA,203504.250,3554.7511,N,08403.5570,W,1,07,1.20,243.9,M,-32.1,M,,*51
$GPRMC,203504.500,A,3554.7510,N,08403.5573,W,5.39,235.31,260721,,,A*7F
$GPGGA,203504.750,3554.7508,N,08403.5575,W,1,07,1.20,244.1,M,-32.1,M,,*56
$GPRMC,203505.000,A,3554.7506,N,08403.5577,W,4.42,234.71,260721,,,A*70
$GPGGA,203505.250,3554.7504,N,08403.5578,W,1,07,1.20,244.3,M,-32.1,M,,*51
$GPRMC,203505.500,A,3554.7503,N,08403.5578,W,2.42,230.90,260721,,,A*72
$GPGGA,203505.750,3554.7502,N,08403.5577,W,1,07,1.13,244.5,M,-32.1,M,,*5B
$GPRMC,203506.000,A,3554.7501,N,08403.5576,W,1.40,197.09,260721,,,A*77
$GPGGA,203506.250,3554.7501,N,08403.5576,W,1,07,1.13,244.7,M,-32.1,M,,*5D
$GPRMC,203506.500,A,3554.7502,N,08403.5575,W,0.63,193.87,260721,,,A*70
$GPGGA,203506.750,3554.7502,N,08403.5574,W,1,07,1.13,244.9,M,-32.1,M,,*57
$GPRMC,203507.000,A,3554.7501,N,08403.5573,W,0.47,174.77,260721,,,A*71
$GPGGA,203507.250,3554.7501,N,08403.5572,W,1,07,1.13,245.0,M,-32.1,M,,*5E
$GPRMC,203507.500,A,3554.7501,N,08403.5572,W,0.39,163.23,260721,,,A*7B
$GPGGA,203507.750,3554.7501,N,08403.5571,W,1,07,1.13,245.1,M,-32.1,M,,*59
$GPRMC,203508.000,A,3554.7500,N,08403.5571,W,0.40,171.27,260721,,,A*7A
$GPGGA,203508.250,3554.7499,N,08403.5569,W,1,07,1.13,245.2,M,-32.1,M,,*59
$GPRMC,203508.500,A,3554.7499,N,08403.5569,W,0.41,156.09,260721,,,A*7F
$GPGGA,203508.750,3554.7498,N,08403.5568,W,1,07,1.13,245.4,M,-32.1,M,,*5A
$GPRMC,203509.000,A,3554.7498,N,08403.5567,W,0.39,144.39,260721,,,A*7B
$GPGGA,203509.250,3554.7498,N,08403.5567,W,1,07,1.13,245.5,M,-32.1,M,,*50
$GPRMC,203509.500,A,3554.7498,N,08403.5567,W,0.40,134.38,260721,,,A*76
$GPGGA,203509.750,3554.7498,N,08403.5566,W,1,07,1.13,245.5,M,-32.1,M,,*54
$GPRMC,203510.000,A,3554.7497,N,08403.5566,W,0.33,141.26,260721,,,A*7C
$GPGGA,203510.250,3554.7497,N,08403.5566,W,1,07,1.13,245.5,M,-32.1,M,,*56
$GPRMC,203510.500,A,3554.7497,N,08403.5566,W,0.28,130.52,260721,,,A*76
$GPGGA,203510.750,3554.7497,N,08403.5566,W,1,07,1.13,245.5,M,-32.1,M,,*53
$GPRMC,203511.000,A,3554.7497,N,08403.5565,W,0.29,132.90,260721,,,A*7C
$GPGGA,203511.250,3554.7497,N,08403.5565,W,1,07,1.13,245.5,M,-32.1,M,,*54
$GPRMC,203511.500,A,3554.7496,N,08403.5565,W,0.37,149.36,260721,,,A*77
$GPGGA,203511.750,3554.7496,N,08403.5565,W,1,07,1.13,245.5,M,-32.1,M,,*50
$GPRMC,203512.000,A,3554.7496,N,08403.5565,W,0.48,153.49,260721,,,A*7A
$GPGGA,203512.250,3554.7496,N,08403.5564,W,1,07,1.13,245.5,M,-32.1,M,,*57
$GPRMC,203512.500,A,3554.7495,N,08403.5564,W,0.53,156.14,260721,,,A*7A
$GPGGA,203512.750,3554.7495,N,08403.5564,W,1,07,1.13,245.5,M,-32.1,M,,*51
$GPRMC,203513.000,A,3554.7495,N,08403.5564,W,0.53,159.68,260721,,,A*7A
$GPGGA,203513.250,3554.7494,N,08403.5564,W,1,07,1.13,245.5,M,-32.1,M,,*54
$GPRMC,203513.500,A,3554.7494,N,08403.5564,W,0.57,160.32,260721,,,A*7F
$GPGGA,203513.750,3554.7493,N,08403.5563,W,1,07,1.20,245.5,M,-32.1,M,,*51
$GPRMC,203514.000,A,3554.7493,N,08403.5563,W,0.57,160.43,260721,,,A*7B
$GPGGA,203514.250,3554.7493,N,08403.5563,W,1,07,1.20,245.5,M,-32.1,M,,*53
$GPRMC,203514.500,A,3554.7492,N,08403.5563,W,0.53,160.04,260721,,,A*78
$GPGGA,203514.750,3554.7492,N,08403.5563,W,1,07,1.20,245.5,M,-32.1,M,,*57
$GPRMC,203515.000,A,3554.7492,N,08403.5563,W,0.57,160.14,260721,,,A*79
$GPGGA,203515.250,3554.7491,N,08403.5562,W,1,07,1.20,245.5,M,-32.1,M,,*51
$GPRMC,203515.500,A,3554.7491,N,08403.5562,W,0.52,162.48,260721,,,A*70
$GPGGA,203515.750,3554.7490,N,08403.5563,W,1,07,1.13,245.6,M,-32.1,M,,*57
$GPRMC,203516.000,A,3554.7490,N,08403.5563,W,0.91,169.70,260721,,,A*79
$GPGGA,203516.250,3554.7489,N,08403.5563,W,1,07,1.13,245.6,M,-32.1,M,,*59
$GPRMC,203516.500,A,3554.7489,N,08403.5564,W,2.49,230.87,260721,,,A*73
$GPGGA,203516.750,3554.7486,N,08403.5568,W,1,07,1.13,245.7,M,-32.1,M,,*59
$GPRMC,203517.000,A,3554.7485,N,08403.5575,W,5.51,246.60,260721,,,A*7D
$GPGGA,203517.250,3554.7482,N,08403.5581,W,1,07,1.20,245.9,M,-32.1,M,,*50
$GPRMC,203517.500,A,3554.7481,N,08403.5587,W,6.43,250.81,260721,,,A*79
$GPGGA,203517.750,3554.7480,N,08403.5594,W,1,07,1.20,246.0,M,-32.1,M,,*59
$GPRMC,203518.000,A,3554.7480,N,08403.5601,W,6.95,262.11,260721,,,A*7C
$GPGGA,203518.250,3554.7482,N,08403.5608,W,1,07,1.20,246.2,M,-32.1,M,,*55
$GPRMC,203518.500,A,3554.7485,N,08403.5616,W,7.58,284.04,260721,,,A*76
$GPGGA,203518.750,3554.7488,N,08403.5623,W,1,07,1.20,246.3,M,-32.1,M,,*52
$GPRMC,203519.000,A,3554.7494,N,08403.5630,W,8.78,304.68,260721,,,A*78
$GPGGA,203519.250,3554.7500,N,08403.5638,W,1,07,1.20,246.5,M,-32.1,M,,*5B
$GPRMC,203519.500,A,3554.7506,N,08403.5646,W,10.28,312.59,260721,,,A*4F
$GPGGA,203519.750,3554.7511,N,08403.5654,W,1,07,1.20,246.7,M,-32.1,M,,*56
$GPRMC,203520.000,A,3554.7516,N,08403.5662,W,10.77,315.29,260721,,,A*4D
$GPGGA,203520.250,3554.7520,N,08403.5670,W,1,07,1.20,246.7,M,-32.1,M,,*5D
$GPRMC,203520.500,A,3554.7526,N,08403.5678,W,11.38,316.41,260721,,,A*47
$GPGGA,203520.750,3554.7532,N,08403.5686,W,1,07,1.20,246.7,M,-32.1,M,,*52
$GPRMC,203521.000,A,3554.7542,N,08403.5694,W,11.98,317.15,260721,,,A*49
$GPGGA,203521.250,3554.7551,N,08403.5703,W,1,07,1.20,247.0,M,-32.1,M,,*59
$GPRMC,203521.500,A,3554.7562,N,08403.5712,W,12.78,319.31,260721,,,A*44
$GPGGA,203521.750,3554.7572,N,08403.5721,W,1,07,1.20,247.3,M,-32.1,M,,*5E
$GPRMC,203522.000,A,3554.7582,N,08403.5730,W,13.37,320.89,260721,,,A*4F
$GPGGA,203522.250,3554.7593,N,08403.5739,W,1,07,1.20,247.6,M,-32.1,M,,*5B
$GPRMC,203522.500,A,3554.7604,N,08403.5747,W,14.01,323.47,260721,,,A*44
$GPGGA,203522.750,3554.7613,N,08403.5755,W,1,07,1.20,247.7,M,-32.1,M,,*5E
$GPRMC,203523.000,A,3554.7622,N,08403.5763,W,14.46,324.59,260721,,,A*49
$GPGGA,203523.250,3554.7632,N,08403.5771,W,1,07,1.20,247.8,M,-32.1,M,,*50
$GPRMC,203523.500,A,3554.7641,N,08403.5779,W,14.57,326.28,260721,,,A*46
$GPGGA,203523.750,3554.7650,N,08403.5786,W,1,07,1.13,247.9,M,-32.1,M,,*58
$GPRMC,203524.000,A,3554.7659,N,08403.5794,W,14.88,327.15,260721,,,A*43
$GPGGA,203524.250,3554.7669,N,08403.5801,W,1,07,1.20,248.0,M,-32.1,M,,*56
$GPRMC,203524.500,A,3554.7679,N,08403.5808,W,15.39,328.77,260721,,,A*4E
$GPGGA,203524.750,3554.7688,N,08403.5814,W,1,07,1.13,248.0,M,-32.1,M,,*58
$GPRMC,203525.000,A,3554.7698,N,08403.5821,W,15.45,329.63,260721,,,A*41
$GPGGA,203525.250,3554.7707,N,08403.5829,W,1,07,1.20,248.1,M,-32.1,M,,*55
$GPRMC,203525.500,A,3554.7717,N,08403.5838,W,16.31,326.49,260721,,,A*4D
$GPGGA,203525.750,3554.7727,N,08403.5846,W,1,07,1.13,248.1,M,-32.1,M,,*5B
$GPRMC,203526.000,A,3554.7738,N,08403.5854,W,16.54,327.43,260721,,,A*44
$GPGGA,203526.250,3554.7749,N,08403.5862,W,1,07,1.20,248.3,M,-32.1,M,,*51
$GPRMC,203526.500,A,3554.7761,N,08403.5870,W,16.99,328.70,260721,,,A*45
$GPGGA,203526.750,3554.7774,N,08403.5879,W,1,07,1.20,248.4,M,-32.1,M,,*57
$GPRMC,203527.000,A,3554.7787,N,08403.5887,W,17.60,329.39,260721,,,A*4A
$GPGGA,203527.250,3554.7799,N,08403.5895,W,1,07,1.20,248.5,M,-32.1,M,,*53
$GPRMC,203527.500,A,3554.7813,N,08403.5904,W,18.54,329.58,260721,,,A*48
$GPGGA,203527.750,3554.7827,N,08403.5914,W,1,07,1.13,248.7,M,-32.1,M,,*56
$GPRMC,203528.000,A,3554.7842,N,08403.5924,W,19.45,329.95,260721,,,A*44
$GPGGA,203528.250,3554.7857,N,08403.5933,W,1,07,1.20,248.9,M,-32.1,M,,*50
$GPRMC,203528.500,A,3554.7871,N,08403.5942,W,19.51,330.39,260721,,,A*4A
$GPGGA,203528.750,3554.7886,N,08403.5951,W,1,07,1.20,249.1,M,-32.1,M,,*54
$GPRMC,203529.000,A,3554.7901,N,08403.5959,W,19.43,331.84,260721,,,A*46
$GPGGA,203529.250,3554.7918,N,08403.5966,W,1,07,1.20,249.3,M,-32.1,M,,*50
$GPRMC,203529.500,A,3554.7934,N,08403.5973,W,19.49,334.36,260721,,,A*4B
$GPGGA,203529.750,3554.7949,N,08403.5979,W,1,07,1.20,249.5,M,-32.1,M,,*59
$GPRMC,203530.000,A,3554.7965,N,08403.5984,W,20.02,337.14,260721,,,A*4C
$GPGGA,203530.250,3554.7981,N,08403.5990,W,1,07,1.20,249.7,M,-32.1,M,,*55
$GPRMC,203530.500,A,3554.7996,N,08403.5996,W,20.54,339.02,260721,,,A*4C
$GPGGA,203530.750,3554.8012,N,08403.6003,W,1,07,1.20,249.8,M,-32.1,M,,*53
$GPRMC,203531.000,A,3554.8027,N,08403.6008,W,20.59,340.57,260721,,,A*4A
$GPGGA,203531.250,3554.8041,N,08403.6013,W,1,07,1.20,250.1,M,-32.1,M,,*51
$GPRMC,203531.500,A,3554.8056,N,08403.6018,W,20.48,342.29,260721,,,A*43
$GPGGA,203531.750,3554.8070,N,08403.6023,W,1,07,1.20,250.4,M,-32.1,M,,*50
$GPRMC,203532.000,A,3554.8084,N,08403.6027,W,20.46,343.00,260721,,,A*42
$GPGGA,203532.250,3554.8100,N,08403.6032,W,1,07,1.20,250.7,M,-32.1,M,,*53
$GPRMC,203532.500,A,3554.8115,N,08403.6037,W,20.76,343.35,260721,,,A*4A
$GPGGA,203532.750,3554.8131,N,08403.6043,W,1,07,1.13,251.0,M,-32.1,M,,*54
$GPRMC,203533.000,A,3554.8147,N,08403.6048,W,20.55,343.90,260721,,,A*4F
$GPGGA,203533.250,3554.8162,N,08403.6053,W,1,07,1.20,251.3,M,-32.1,M,,*54
$GPRMC,203533.500,A,3554.8177,N,08403.6058,W,20.50,344.68,260721,,,A*4D
$GPGGA,203533.750,3554.8192,N,08403.6063,W,1,07,1.20,251.7,M,-32.1,M,,*59
$GPRMC,203534.000,A,3554.8207,N,08403.6068,W,20.46,344.74,260721,,,A*42
$GPGGA,203534.250,3554.8223,N,08403.6074,W,1,07,1.20,252.0,M,-32.1,M,,*50
$GPRMC,203534.500,A,3554.8238,N,08403.6079,W,20.45,345.39,260721,,,A*40
$GPGGA,203534.750,3554.8254,N,08403.6085,W,1,07,1.20,252.3,M,-32.1,M,,*58
$GPRMC,203535.000,A,3554.8269,N,08403.6090,W,20.20,345.29,260721,,,A*45
$GPGGA,203535.250,3554.8284,N,08403.6095,W,1,07,1.20,252.7,M,-32.1,M,,*54
$GPRMC,203535.500,A,3554.8299,N,08403.6098,W,20.10,345.33,260721,,,A*4F
$GPGGA,203535.750,3554.8314,N,08403.6102,W,1,07,1.20,253.1,M,-32.1,M,,*51
$GPRMC,203536.000,A,3554.8328,N,08403.6106,W,20.06,345.93,260721,,,A*49
$GPGGA,203536.250,3554.8343,N,08403.6110,W,1,07,1.20,253.4,M,-32.1,M,,*53
$GPRMC,203536.500,A,3554.8356,N,08403.6115,W,19.77,345.78,260721,,,A*4E
$GPGGA,203536.750,3554.8370,N,08403.6119,W,1,07,1.20,253.7,M,-32.1,M,,*5C
$GPRMC,203537.000,A,3554.8384,N,08403.6122,W,19.18,346.46,260721,,,A*46
$GPGGA,203537.250,3554.8398,N,08403.6126,W,1,07,1.20,254.0,M,-32.1,M,,*52
$GPRMC,203537.500,A,3554.8411,N,08403.6129,W,18.24,346.82,260721,,,A*45
$GPGGA,203537.750,3554.8423,N,08403.6132,W,1,07,1.20,254.5,M,-32.1,M,,*50
$GPRMC,203538.000,A,3554.8436,N,08403.6135,W,17.29,346.91,260721,,,A*47
$GPGGA,203538.250,3554.8448,N,08403.6138,W,1,07,1.20,255.0,M,-32.1,M,,*59
$GPRMC,203538.500,A,3554.8460,N,08403.6141,W,16.33,347.06,260721,,,A*47
$GPGGA,203538.750,3554.8471,N,08403.6144,W,1,07,1.20,255.5,M,-32.1,M,,*58
$GPRMC,203539.000,A,3554.8483,N,08403.6147,W,15.57,348.02,260721,,,A*42
$GPGGA,203539.250,3554.8493,N,08403.6150,W,1,07,1.20,256.0,M,-32.1,M,,*53
$GPRMC,203539.500,A,3554.8504,N,08403.6154,W,15.03,349.07,260721,,,A*4E
$GPGGA,203539.750,3554.8515,N,08403.6157,W,1,07,1.20,256.5,M,-32.1,M,,*5B
$GPRMC,203540.000,A,3554.8525,N,08403.6160,W,14.51,349.28,260721,,,A*4A
$GPGGA,203540.250,3554.8535,N,08403.6162,W,1,07,1.20,256.8,M,-32.1,M,,*59
$GPRMC,203540.500,A,3554.8545,N,08403.6165,W,13.74,349.89,260721,,,A*47
$GPGGA,203540.750,3554.8554,N,08403.6167,W,1,07,1.20,257.3,M,-32.1,M,,*54
$GPRMC,203541.000,A,3554.8563,N,08403.6169,W,12.59,351.20,260721,,,A*4F
$GPGGA,203541.250,3554.8570,N,08403.6171,W,1,07,1.20,257.5,M,-32.1,M,,*57
$GPRMC,203541.500,A,3554.8577,N,08403.6173,W,10.96,350.78,260721,,,A*49
$GPGGA,203541.750,3554.8584,N,08403.6175,W,1,07,1.20,257.8,M,-32.1,M,,*50
$GPRMC,203542.000,A,3554.8590,N,08403.6176,W,9.39,351.70,260721,,,A*77
$GPGGA,203542.250,3554.8596,N,08403.6176,W,1,07,1.20,258.2,M,-32.1,M,,*53
$GPRMC,203542.500,A,3554.8601,N,08403.6177,W,7.48,354.07,260721,,,A*75
$GPGGA,203542.750,3554.8606,N,08403.6178,W,1,07,1.20,258.5,M,-32.1,M,,*55
$GPRMC,203543.000,A,3554.8610,N,08403.6178,W,6.22,356.18,260721,,,A*7F
$GPGGA,203543.250,3554.8613,N,08403.6178,W,1,07,1.20,258.7,M,-32.1,M,,*57
$GPRMC,203543.500,A,3554.8615,N,08403.6179,W,4.05,5.33,260721,,,A*75
$GPGGA,203543.750,3554.8617,N,08403.6180,W,1,07,1.20,258.9,M,-32.1,M,,*5F
$GPRMC,203544.000,A,3554.8619,N,08403.6181,W,2.73,6.89,260721,,,A*79
$GPGGA,203544.250,3554.8620,N,08403.6182,W,1,07,1.20,259.3,M,-32.1,M,,*50
$GPRMC,203544.500,A,3554.8622,N,08403.6183,W,1.94,6.89,260721,,,A*7C
$GPGGA,203544.750,3554.8623,N,08403.6184,W,1,07,1.13,259.6,M,-32.1,M,,*55
$GPRMC,203545.000,A,3554.8624,N,08403.6184,W,1.45,6.89,260721,,,A*75
$GPGGA,203545.250,3554.8626,N,08403.6184,W,1,07,1.20,259.9,M,-32.1,M,,*5B
$GPRMC,203545.500,A,3554.8627,N,08403.6184,W,1.23,6.89,260721,,,A*73
$GPGGA,203545.750,3554.8628,N,08403.6184,W,1,07,1.20,260.2,M,-32.1,M,,*51
$GPRMC,203546.000,A,3554.8628,N,08403.6185,W,1.08,6.89,260721,,,A*72
$GPGGA,203546.250,3554.8629,N,08403.6186,W,1,07,1.20,260.5,M,-32.1,M,,*53
$GPRMC,203546.500,A,3554.8629,N,08403.6188,W,0.86,6.89,260721,,,A*7C
$GPGGA,203546.750,3554.8629,N,08403.6188,W,1,07,1.20,260.8,M,-32.1,M,,*55
$GPRMC,203547.000,A,3554.8630,N,08403.6188,W,0.76,6.89,260721,,,A*7F
$GPGGA,203547.250,3554.8630,N,08403.6188,W,1,07,1.20,261.1,M,-32.1,M,,*51
$GPRMC,203547.500,A,3554.8630,N,08403.6188,W,0.64,6.89,260721,,,A*79
$GPGGA,203547.750,3554.8630,N,08403.6188,W,1,07,1.20,261.4,M,-32.1,M,,*51
$GPRMC,203548.000,A,3554.8631,N,08403.6188,W,0.46,6.89,260721,,,A*72
$GPGGA,203548.250,3554.8631,N,08403.6188,W,1,07,1.20,261.5,M,-32.1,M,,*5B
$GPRMC,203548.500,A,3554.8631,N,08403.6188,W,0.35,6.89,260721,,,A*73
$GPGGA,203548.750,3554.8631,N,08403.6188,W,1,07,1.20,261.5,M,-32.1,M,,*5E
$GPRMC,203549.000,A,3554.8631,N,08403.6188,W,0.00,6.89,260721,,,A*71
$GPGGA,203549.250,3554.8631,N,08403.6188,W,1,07,1.13,261.5,M,-32.1,M,,*5A
$GPRMC,203549.500,A,3554.8631,N,08403.6188,W,0.12,6.89,260721,,,A*77
$GPGGA,203549.750,3554.8631,N,08403.6188,W,1,07,1.13,261.6,M,-32.1,M,,*5C
$GPRMC,203550.000,A,3554.8631,N,08403.6188,W,0.10,6.89,260721,,,A*78
$GPGGA,203550.250,3554.8631,N,08403.6189,W,1,07,1.13,261.6,M,-32.1,M,,*50
$GPRMC,203550.500,A,3554.8631,N,08403.6189,W,0.04,6.89,260721,,,A*79
$GPGGA,203550.750,3554.8631,N,08403.6189,W,1,07,1.13,261.6,M,-32.1,M,,*55
$GPRMC,203551.000,A,3554.8631,N,08403.6189,W,0.18,6.89,260721,,,A*70
$GPGGA,203551.250,3554.8632,N,08403.6189,W,1,07,1.20,261.6,M,-32.1,M,,*52
$GPRMC,203551.500,A,3554.8632,N,08403.6189,W,0.00,6.89,260721,,,A*7F
$GPGGA,203551.750,3554.8632,N,08403.6189,W,1,07,1.20,261.6,M,-32.1,M,,*57
$GPRMC,203552.000,A,3554.8632,N,08403.6189,W,0.00,6.89,260721,,,A*79
$GPGGA,203552.250,3554.8632,N,08403.6189,W,1,07,1.13,261.6,M,-32.1,M,,*51
$GPRMC,203552.500,A,3554.8632,N,08403.6189,W,0.24,6.89,260721,,,A*7A
$GPGGA,203552.750,3554.8632,N,08403.6189,W,1,07,1.13,261.6,M,-32.1,M,,*54
$GPRMC,203553.000,A,3554.8632,N,08403.6189,W,0.36,6.89,260721,,,A*7D
$GPGGA,203553.250,3554.8632,N,08403.6189,W,1,07,1.13,261.6,M,-32.1,M,,*50
$GPRMC,203553.500,A,3554.8633,N,08403.6189,W,0.31,6.89,260721,,,A*7E
$GPGGA,203553.750,3554.8633,N,08403.6190,W,1,07,1.13,261.6,M,-32.1,M,,*5C
$GPRMC,203554.000,A,3554.8633,N,08403.6190,W,0.00,6.89,260721,,,A*76
