Vers 81
USE_SERIAL_FEEDBACK=true
DEVELOPMENT_MODE=false
USE_RMC_ONLY=false

$GPRMC,143826.750,A,3554.7941,N,08403.5525,W,0.40,0.17,300721,,,A*75
$GPGGA,143827.000,3554.7943,N,08403.5526,W,1,03,62.54,182.1,M,-32.1,M,,*61
$GPRMC,143827.250,A,3554.7945,N,08403.5526,W,0.39,359.93,300721,,,A*7B
$GPGGA,143827.500,3554.7945,N,08403.5526,W,1,03,4.64,182.1,M,-32.1,M,,*51
$GPRMC,143827.750,A,3554.7945,N,08403.5526,W,0.35,2.16,300721,,,A*72
$GPGGA,143828.000,3554.7946,N,08403.5526,W,1,03,62.55,182.1,M,-32.1,M,,*6A
$GPRMC,143828.250,A,3554.7947,N,08403.5526,W,0.25,353.31,300721,,,A*79
$GPGGA,143828.500,3554.7947,N,08403.5526,W,1,03,62.55,182.1,M,-32.1,M,,*6E
$GPRMC,143828.750,A,3554.7948,N,08403.5527,W,0.20,341.42,300721,,,A*70
$GPGGA,143829.000,3554.7949,N,08403.5527,W,1,03,4.63,182.1,M,-32.1,M,,*50
$GPRMC,143829.250,A,3554.7951,N,08403.5528,W,0.29,338.31,300721,,,A*70
$GPGGA,143829.500,3554.7951,N,08403.5527,W,1,03,4.63,182.1,M,-32.1,M,,*5C
$GPRMC,143829.750,A,3554.7952,N,08403.5527,W,0.29,349.22,300721,,,A*7D
$GPGGA,143830.000,3554.7953,N,08403.5527,W,1,03,62.56,182.1,M,-32.1,M,,*65
$GPRMC,143830.250,A,3554.7953,N,08403.5527,W,0.19,19.49,300721,,,A*49
$GPGGA,143830.500,3554.7954,N,08403.5526,W,1,03,4.64,182.1,M,-32.1,M,,*57
$GPRMC,143830.750,A,3554.7955,N,08403.5526,W,0.21,34.01,300721,,,A*43
$GPGGA,143831.000,3554.7956,N,08403.5526,W,1,03,4.64,182.1,M,-32.1,M,,*51
$GPRMC,143831.250,A,3554.7958,N,08403.5526,W,0.24,44.88,300721,,,A*49
$GPGGA,143831.500,3554.7959,N,08403.5526,W,1,03,4.64,182.1,M,-32.1,M,,*5B
$GPRMC,143831.750,A,3554.7960,N,08403.5527,W,0.24,45.81,300721,,,A*4E
$GPGGA,143832.000,3554.7963,N,08403.5528,W,1,03,4.63,182.1,M,-32.1,M,,*5D
$GPGGA,143832.140,3554.7968,N,08403.5531,W,1,03,62.57,182.1,M,-32.1,M,,*6C
$GPRMC,143832.140,A,3554.7968,N,08403.5531,W,0.37,359.77,300721,,A*70
$GPGGA,143832.500,3554.7969,N,08403.5531,W,1,03,62.58,182.1,M,-32.1,M,,*62
$GPRMC,143832.500,A,3554.7969,N,08403.5531,W,0.37,355.96,300721,,A*72
$GPGGA,143832.750,3554.7970,N,08403.5532,W,1,03,62.58,182.1,M,-32.1,M,,*6E
$GPRMC,143832.750,A,3554.7970,N,08403.5532,W,0.36,356.47,300721,,A*70
$GPGGA,143833.000,3554.7970,N,08403.5531,W,1,03,62.58,182.1,M,-32.1,M,,*6E
$GPRMC,143833.000,A,3554.7970,N,08403.5531,W,0.33,5.60,300721,,A*75
$GPGGA,143833.250,3554.7971,N,08403.5531,W,1,03,62.58,182.1,M,-32.1,M,,*68
$GPRMC,143833.250,A,3554.7971,N,08403.5531,W,0.28,9.63,300721,,A*76
$GPGGA,143833.500,3554.7970,N,08403.5530,W,1,03,62.58,182.1,M,-32.1,M,,*6A
$GPRMC,143833.500,A,3554.7970,N,08403.5530,W,0.23,12.40,300721,,A*44
$GPGGA,143833.750,3554.7971,N,08403.5531,W,1,03,62.58,182.1,M,-32.1,M,,*6D
$GPRMC,143833.750,A,3554.7971,N,08403.5531,W,0.27,4.55,300721,,$GPGGA,143834.000,3554.7972,N,08403.5531,W,1,03,62.58,182.1,M,-32.1,M,,*6B
$GPRMC,143834.250,A,3554.7973,N,08403.5530,W,0.27,7.11,300721,,,A*76
$GPGGA,143834.500,3554.7973,N,08403.5530,W,1,03,62.59,182.1,M,-32.1,M,,*6F
$GPRMC,143834.750,A,3554.7973,N,08403.5530,W,0.27,11.50,300721,,,A*41
$GPGGA,143835.000,3554.7974,N,08403.5530,W,1,03,62.59,182.1,M,-32.1,M,,*6C
$GPRMC,143835.250,A,3554.7974,N,08403.5530,W,0.26,352.81,300721,,,A*7B
$GPGGA,143835.500,3554.7975,N,08403.5531,W,1,03,62.59,182.1,M,-32.1,M,,*69
$GPRMC,143835.750,A,3554.7975,N,08403.5530,W,0.25,342.68,300721,,,A*7A
$GPGGA,143836.000,3554.7976,N,08403.5530,W,1,03,4.64,182.1,M,-32.1,M,,*53
$GPRMC,143836.250,A,3554.7977,N,08403.5530,W,0.30,348.98,300721,,,A*7F
$GPGGA,143836.500,3554.7978,N,08403.5531,W,1,03,62.60,182.1,M,-32.1,M,,*6D
$GPRMC,143836.750,A,3554.7978,N,08403.5531,W,0.31,343.41,300721,,,A*7A
$GPGGA,143837.000,3554.7980,N,08403.5532,W,1,03,4.64,182.1,M,-32.1,M,,*59
$GPRMC,143837.250,A,3554.7981,N,08403.5533,W,0.40,327.93,300721,,,A*71
$GPGGA,143837.500,3554.7983,N,08403.5533,W,1,03,4.64,182.1,M,-32.1,M,,*5E
$GPRMC,143837.750,A,3554.7984,N,08403.5533,W,0.44,338.20,300721,,,A*73
$GPGGA,143838.000,3554.7985,N,08403.5533,W,1,03,4.64,182.1,M,-32.1,M,,*52
$GPGGA,143838.140,3554.7989,N,08403.5534,W,1,03,4.64,182.1,M,-32.1,M,,*5C
$GPRMC,143838.140,A,3554.7989,N,08403.5534,W,0.59,343.39,300721,,,A*79
$GPGGA,143838.500,3554.7991,N,08403.5535,W,1,03,4.64,182.1,M,-32.1,M,,*54
$GPRMC,143838.500,A,3554.7991,N,08403.5535,W,0.64,344.34,300721$GPGGA,143838.750,3554.7993,N,08403.5535,W,1,03,4.64,182.1,M,-32.1,M,,*51
$GPRMC,143839.000,A,3554.7994,N,08403.5535,W,0.65,342.88,300721,,,A*74
$GPGGA,143839.250,3554.7995,N,08403.5536,W,1,03,4.64,182.1,M,-32.1,M,,*50
$GPRMC,143839.500,A,3554.7995,N,08403.5536,W,0.62,341.71,300721,,,A*71
$GPGGA,143839.750,3554.7995,N,08403.5536,W,1,03,4.64,182.1,M,-32.1,M,,*55
$GPRMC,143840.000,A,3554.7996,N,08403.5536,W,0.59,339.15,300721,,,A*7C
$GPGGA,143840.250,3554.7997,N,08403.5537,W,1,03,4.64,182.1,M,-32.1,M,,*5D
$GPRMC,143840.500,A,3554.7999,N,08403.5538,W,0.68,336.99,300721,,,A*71
$GPGGA,143840.750,3554.7999,N,08403.5538,W,1,03,4.64,182.1,M,-32.1,M,,*59
$GPRMC,143841.000,A,3554.8000,N,08403.5539,W,0.66,334.88,300721,,,A*7E
$GPGGA,143841.250,3554.8000,N,08403.5538,W,1,03,4.64,182.1,M,-32.1,M,,*5B
$GPRMC,143841.500,A,3554.8000,N,08403.5539,W,0.65,336.32,300721,,,A*7B
$GPGGA,143841.750,3554.8000,N,08403.5539,W,1,03,4.64,182.1,M,-32.1,M,,*5F
$GPRMC,143842.000,A,3554.8000,N,08403.5540,W,0.60,329.85,300721,,,A*74
$GPGGA,143842.250,3554.7999,N,08403.5540,W,1,03,4.64,182.1,M,-32.1,M,,*51
$GPRMC,143842.500,A,3554.8000,N,08403.5540,W,0.51,330.86,300721,,,A*78
$GPGGA,143842.750,3554.8000,N,08403.5540,W,1,03,4.64,182.1,M,-32.1,M,,*52
$GPRMC,143843.000,A,3554.8000,N,08403.5539,W,0.47,345.38,300721,,,A*72
$GPGGA,143843.250,3554.8000,N,08403.5539,W,1,03,62.64,182.1,M,-32.1,M,,*68
$GPRMC,143843.500,A,3554.8000,N,08403.5539,W,0.34,348.73,300721,,,A*71
$GPGGA,143843.750,3554.8000,N,08403.5539,W,1,03,62.64,182.1,M,-32.1,M,,*6D
$GPRMC,143844.000,A,3554.8001,N,08403.5539,W,0.35,350.09,300721,,,A*77
$GPGGA,143844.095,3554.8003,N,08403.5540,W,1,03,62.64,182.1,M,-.1,M,,*69
$GPRMC,143844.500,A,3554.8005,N,08403.5541,W,0.52,348.85,300721,,,A*75
$GPGGA,143844.750,3554.8006,N,08403.5541,W,1,03,62.65,182.1,M,-32.1,M,,*62
$GPRMC,143845.000,A,3554.8007,N,08403.5542,W,0.57,345.02,300721,,,A*77
$GPGGA,143845.250,3554.8007,N,08403.5542,W,1,03,62.65,182.1,M,-32.1,M,,*64
$GPRMC,143845.500,A,3554.8007,N,08403.5541,W,0.49,355.43,300721,,,A*7A
$GPGGA,143845.750,3554.8007,N,08403.5541,W,1,03,62.65,182.1,M,-32.1,M,,*62
$GPRMC,143846.000,A,3554.8008,N,08403.5541,W,0.48,357.60,300721,,,A*71
$GPGGA,143846.250,3554.8008,N,08403.5542,W,1,03,62.66,182.1,M,-32.1,M,,*6B
$GPRMC,143846.500,A,3554.8008,N,08403.5542,W,0.45,341.19,300721,,,A*73
$GPGGA,143846.750,3554.8008,N,08403.5542,W,1,03,4.64,182.1,M,-32.1,M,,*5C
$GPRMC,143847.000,A,3554.8009,N,08403.5542,W,0.45,341.66,300721,,,A*7E
$GPGGA,143847.250,3554.8009,N,08403.5542,W,1,03,4.64,182.1,M,-32.1,M,,*59
$GPRMC,143847.500,A,3554.8009,N,08403.5542,W,0.48,345.94,300721,,,A*7F
$GPGGA,143847.750,3554.8009,N,08403.5543,W,1,03,62.66,182.1,M,-32.1,M,,*6F
$GPRMC,143848.000,A,3554.8009,N,08403.5543,W,0.46,339.83,300721,,,A*77
$GPGGA,143848.250,3554.8008,N,08403.5543,W,1,03,4.64,182.1,M,-32.1,M,,*56
$GPRMC,143848.500,A,3554.8008,N,08403.5542,W,0.36,338.04,300721,,,A*7B
$GPGGA,143848.750,3554.8007,N,08403.5542,W,1,03,4.64,182.1,M,-32.1,M,,*5D
$GPRMC,143849.000,A,3554.8007,N,08403.5542,W,0.33,338.17,300721,,,A*77
$GPGGA,143849.250,3554.8007,N,08403.5542,W,1,03,4.64,182.1,M,-32.1,M,,*59
$GPRMC,143849.500,A,3554.8006,N,08403.5542,W,0.35,337.00,300721,,,A*7C
$GPGGA,143849.750,3554.8005,N,08403.5542,W,1,03,4.64,182.1,M,-32.1,M,,*5E
$GPRMC,143850.000,A,3554.8005,N,08403.5542,W,0.31,328.85,300721,,,A*75
$GPGGA,143850.095,3554.8004,N,08403.5542,W,1,03,4.64,182.1,M,-31,M,,*59
$GPRMC,143850.500,A,3554.8003,N,08403.5542,W,0.27,317.22,300721,,,A*70
$GPGGA,143850.750,3554.8003,N,08403.5542,W,1,03,4.64,182.1,M,-32.1,M,,*50
$GPRMC,143851.000,A,3554.8003,N,08403.5542,W,0.28,333.49,300721,,,A*70
$GPGGA,143851.250,3554.8002,N,08403.5541,W,1,03,4.64,182.1,M,-32.1,M,,*56
$GPRMC,143851.500,A,3554.8002,N,08403.5540,W,0.24,349.15,300721,,,A*7E
$GPGGA,143851.750,3554.8001,N,08403.5540,W,1,03,62.69,182.1,M,-32.1,M,,*6C
$GPRMC,143852.000,A,3554.8001,N,08403.5540,W,0.20,328.19,300721,,,A*74
$GPGGA,143852.250,3554.8001,N,08403.5541,W,1,03,4.64,182.1,M,-32.1,M,,*56
$GPRMC,143852.500,A,3554.8001,N,08403.5542,W,0.29,310.57,300721,,,A*7B
$GPGGA,143852.750,3554.8002,N,08403.5542,W,1,03,4.64,182.1,M,-32.1,M,,*53
$GPRMC,143853.000,A,3554.8001,N,08403.5541,W,0.24,315.37,300721,,,A*72
$GPGGA,143853.250,3554.8001,N,08403.5541,W,1,03,4.64,182.1,M,-32.1,M,,*57
$GPRMC,143853.500,A,3554.8001,N,08403.5541,W,0.21,318.93,300721,,,A*71
$GPGGA,143853.750,3554.8001,N,08403.5541,W,1,03,4.64,182.1,M,-32.1,M,,*52
$GPRMC,143854.000,A,3554.8002,N,08403.5541,W,0.26,340.86,300721,,,A*7E
$GPGGA,143854.250,3554.8002,N,08403.5541,W,1,03,4.65,182.1,M,-32.1,M,,*52
$GPRMC,143854.500,A,3554.8002,N,08403.5541,W,0.32,345.57,300721,,,A*77
$GPGGA,143854.750,3554.8002,N,08403.5542,W,1,03,62.71,182.1,M,-32.1,M,,*61
$GPRMC,143855.000,A,3554.8002,N,08403.5542,W,0.23,348.66,300721,,,A*7F
$GPGGA,143855.250,3554.8002,N,08403.5542,W,1,03,62.71,182.1,M,-32.1,M,,*65
$GPRMC,143855.500,A,3554.8003,N,08403.5542,W,0.28,345.78,300721,,,A*72
$GPGGA,143855.750,3554.8003,N,08403.5542,W,1,03,62.71,182.1,M,-32.1,M,,*61
$GPRMC,143856.000,A,3554.8003,N,08403.5542,W,0.28,337.83,300721,,,A*75
$GPGGA,143856.083,3554.8004,N,08403.5543,W,1,03,4.64,182.1,M,-3,A,3554.8004,N,08403.5543,W,0.33,339.68,300721,,,A*79
$GPRMC,143856.500,A,3554.8000,N,08403.5539,W,0.32,354.92,300721,,,A*71
$GPGGA,143856.750,3554.8000,N,08403.5539,W,1,04,3.35,182.9,M,-32.1,M,,*55
$GPRMC,143857.000,A,3554.8000,N,08403.5539,W,0.29,353.66,300721,,,A*73
$GPGGA,143857.250,3554.8000,N,08403.5539,W,1,04,3.34,182.9,M,-32.1,M,,*50
$GPRMC,143857.500,A,3554.8000,N,08403.5539,W,0.20,355.24,300721,,,A*7F
$GPGGA,143857.750,3554.8000,N,08403.5539,W,1,04,3.35,182.9,M,-32.1,M,,*54
$GPRMC,143858.000,A,3554.8000,N,08403.5539,W,0.21,351.14,300721,,,A*73
$GPGGA,143858.250,3554.8001,N,08403.5539,W,1,04,3.35,182.9,M,-32.1,M,,*5F
$GPRMC,143858.500,A,3554.8001,N,08403.5539,W,0.25,352.24,300721,,,A*73
$GPGGA,143858.750,3554.8001,N,08403.5539,W,1,04,3.35,182.9,M,-32.1,M,,*5A
$GPRMC,143859.000,A,3554.8001,N,08403.5539,W,0.26,6.48,300721,,,A*7C
$GPGGA,143859.250,3554.8001,N,08403.5539,W,1,04,3.35,182.9,M,-32.1,M,,*5E
$GPRMC,143859.500,A,3554.8002,N,08403.5539,W,0.39,10.90,300721,,,A*46
$GPGGA,143859.750,3554.8002,N,08403.5539,W,1,04,3.35,182.9,M,-32.1,M,,*58
$GPRMC,143900.000,A,3554.8002,N,08403.5539,W,0.45,10.60,300721,,,A*4A
$GPGGA,143900.250,3554.8002,N,08403.5539,W,1,04,3.35,183.0,M,-32.1,M,,*58
$GPRMC,143900.500,A,3554.8003,N,08403.5539,W,0.46,0.43,300721,,,A*7D
$GPGGA,143900.750,3554.8003,N,08403.5539,W,1,04,3.35,183.0,M,-32.1,M,,*5C
$GPRMC,143901.000,A,3554.8003,N,08403.5539,W,0.39,359.15,300721,,,A*7D
$GPGGA,143901.250,3554.8004,N,08403.5539,W,1,04,3.35,183.0,M,-32.1,M,,*5F
$GPRMC,143901.500,A,3554.8004,N,08403.5539,W,0.44,355.00,300721,,,A*7D
$GPGGA,143901.750,3554.8004,N,08403.5539,W,1,04,3.35,183.0,M,-32.1,M,,*5A
$GPRMC,143902.000,A,3554.8005,N,08403.5539,W,0.45,351.94,300721,,,A*72
$GPGGA,143902.250,3554.8005,N,08403.5539,W,1,04,3.35,183.0,M,-32.1,M,,*5D
$GPRMC,143902.500,A,3554.8005,N,08403.5539,W,0.41,348.35,300721,,,A*70
$GPGGA,143902.750,3554.8005,N,08403.5539,W,1,04,3.35,183.0,M,-32.1,M,,*58
$GPRMC,143903.000,A,3554.8006,N,08403.5539,W,0.34,338.54,300721,,,A*75
$GPGGA,143903.250,3554.8006,N,08403.5539,W,1,04,3.11,183.0,M,-32.1,M,,*59
$GPRMC,143903.500,A,3554.8006,N,08403.5539,W,0.29,340.91,300721,,,A*7A
$GPGGA,143903.750,3554.8006,N,08403.5539,W,1,04,3.11,183.0,M,-32.1,M,,*5C
$GPRMC,143904.000,A,3554.8006,N,08403.5540,W,0.27,350.58,300721,,,A*7C
$GPGGA,143904.250,3554.8007,N,08403.5540,W,1,04,3.35,183.0,M,-32.1,M,,*57
$GPRMC,143904.500,A,3554.8007,N,08403.5540,W,0.21,338.40,300721,,,A*79
$GPGGA,143904.750,3554.8007,N,08403.5540,W,1,04,3.11,183.0,M,-32.1,M,,*54
$GPRMC,143905.000,A,3554.8007,N,08403.5540,W,0.15,324.98,300721,,,A*72
$GPGGA,143905.250,3554.8007,N,08403.5540,W,1,04,3.11,183.0,M,-32.1,M,,*50
$GPRMC,143905.500,A,3554.8007,N,08403.5540,W,0.16,324.12,300721,,,A*76
$GPGGA,143905.750,3554.8007,N,08403.5540,W,1,04,3.11,183.0,M,-32.1,M,,*55
$GPRMC,143906.000,A,3554.8007,N,08403.5540,W,0.16,328.32,300721,,,A*7E
$GPGGA,143906.250,3554.8007,N,08403.5540,W,1,04,3.11,183.0,M,-32.1,M,,*53
$GPRMC,143906.500,A,3554.8008,N,08403.5540,W,0.17,341.69,300721,,,A*74
$GPGGA,143906.750,3554.8008,N,08403.5540,W,1,04,3.12,183.0,M,-32.1,M,,*5A
$GPRMC,143907.000,A,3554.8008,N,08403.5540,W,0.19,321.75,300721,,,A*75
$GPGGA,143907.250,3554.8008,N,08403.5540,W,1,04,3.12,183.0,M,-32.1,M,,*5E
$GPRMC,143907.500,A,3554.8008,N,08403.5541,W,0.19,314.72,300721,,,A*70
$GPGGA,143907.750,3554.8008,N,08403.5541,W,1,04,3.12,183.0,M,-32.1,M,,*5A
$GPRMC,143908.000,A,3554.8008,N,08403.5541,W,0.18,329.13,300721,,,A*72
$GPGGA,143908.250,3554.8008,N,08403.5541,W,1,04,3.12,183.0,M,-32.1,M,,*50
$GPRMC,143908.500,A,3554.8008,N,08403.5541,W,0.14,339.98,300721,,,A*79
$GPGGA,143908.750,3554.8008,N,08403.5541,W,1,04,3.12,183.0,M,-32.1,M,,*55
$GPRMC,143909.000,A,3554.8008,N,08403.5541,W,0.16,350.98,300721,,,A*70
$GPGGA,143909.250,3554.8008,N,08403.5541,W,1,04,3.36,183.0,M,-32.1,M,,*57
$GPRMC,143909.500,A,3554.8009,N,08403.5541,W,0.16,18.20,300721,,,A*48
$GPGGA,143909.750,3554.8009,N,08403.5541,W,1,04,3.12,183.0,M,-32.1,M,,*55
$GPRMC,143910.000,A,3554.8009,N,08403.5541,W,0.15,10.16,300721,,,A*4B
$GPGGA,143910.250,3554.8009,N,08403.5541,W,1,04,3.36,183.0,M,-32.1,M,,*5E
$GPRMC,143910.500,A,3554.8009,N,08403.5541,W,0.03,46.86,300721,,,A*43
$GPGGA,143910.750,3554.8009,N,08403.5541,W,1,04,3.12,183.0,M,-32.1,M,,*5D
$GPRMC,143911.000,A,3554.8009,N,08403.5541,W,0.05,216.77,300721,,,A*78
$GPGGA,143911.250,3554.8009,N,08403.5541,W,1,04,3.12,183.0,M,-32.1,M,,*59
$GPRMC,143911.500,A,3554.8009,N,08403.5541,W,0.11,236.45,300721,,,A*7B
$GPGGA,143911.750,3554.8009,N,08403.5541,W,1,04,3.12,183.0,M,-32.1,M,,*5C
$GPRMC,143912.000,A,3554.8009,N,08403.5541,W,0.10,262.90,300721,,,A*75
$GPGGA,143912.250,3554.8009,N,08403.5541,W,1,04,3.12,183.0,M,-32.1,M,,*5A
$GPRMC,143912.500,A,3554.8009,N,08403.5541,W,0.10,299.30,300721,,,A*7E
$GPGGA,143912.750,3554.8009,N,08403.5541,W,1,04,3.12,183.0,M,-32.1,M,,*5F
$GPRMC,143913.000,A,3554.8009,N,08403.5541,W,0.15,342.24,300721,,,A*7D
$GPGGA,143913.250,3554.8009,N,08403.5541,W,1,04,3.12,183.0,M,-32.1,M,,*5B
$GPRMC,143913.500,A,3554.8009,N,08403.5541,W,0.16,346.39,300721,,,A*73
$GPGGA,143913.750,3554.8009,N,08403.5541,W,1,04,3.36,183.0,M,-32.1,M,,*58
$GPRMC,143914.000,A,3554.8009,N,08403.5541,W,0.17,356.96,300721,,,A*74
$GPGGA,143914.250,3554.8009,N,08403.5541,W,1,04,3.36,183.0,M,-32.1,M,,*5A
$GPRMC,143914.500,A,3554.8009,N,08403.5541,W,0.08,66.91,300721,,,A*48
$GPGGA,143914.750,3554.8009,N,08403.5541,W,1,04,3.12,183.0,M,-32.1,M,,*59
$GPRMC,143915.000,A,3554.8009,N,08403.5541,W,0.12,125.95,300721,,,A*75
$GPGGA,143915.250,3554.8009,N,08403.5541,W,1,04,3.13,183.1,M,-32.1,M,,*5D
$GPRMC,143915.500,A,3554.8009,N,08403.5541,W,0.11,169.24,300721,,,A*71
$GPGGA,143915.750,3554.8009,N,08403.5541,W,1,04,3.13,183.1,M,-32.1,M,,*58
$GPRMC,143916.000,A,3554.8009,N,08403.5541,W,0.12,206.13,300721,,,A*7A
$GPGGA,143916.250,3554.8009,N,08403.5541,W,1,04,3.13,183.1,M,-32.1,M,,*5E
$GPRMC,143916.500,A,3554.8009,N,08403.5541,W,0.12,201.19,300721,,,A*72
$GPGGA,143916.750,3554.8008,N,08403.5541,W,1,04,3.13,183.1,M,-32.1,M,,*5A
$GPRMC,143917.000,A,3554.8008,N,08403.5541,W,0.08,218.19,300721,,,A*74
$GPGGA,143917.250,3554.8008,N,08403.5541,W,1,04,3.13,183.1,M,-32.1,M,,*5E
$GPRMC,143917.500,A,3554.8008,N,08403.5541,W,0.06,206.37,300721,,,A*7C
$GPGGA,143917.750,3554.8008,N,08403.5541,W,1,04,3.13,183.1,M,-32.1,M,,*5B
$GPRMC,143918.000,A,3554.8008,N,08403.5541,W,0.14,218.56,300721,,,A*7D
$GPGGA,143918.250,3554.8008,N,08403.5541,W,1,04,3.13,183.1,M,-32.1,M,,*51
$GPRMC,143918.500,A,3554.8008,N,08403.5541,W,0.19,193.38,300721,,,A*7D
$GPGGA,143918.750,3554.8008,N,08403.5542,W,1,04,3.13,183.1,M,-32.1,M,,*57
$GPRMC,143919.000,A,3554.8008,N,08403.5542,W,0.15,189.08,300721,,,A*7E
$GPGGA,143919.250,3554.8008,N,08403.5542,W,1,04,3.13,183.1,M,-32.1,M,,*53
$GPRMC,143919.500,A,3554.8007,N,08403.5542,W,0.10,191.93,300721,,,A*7A
$GPGGA,143919.750,3554.8007,N,08403.5542,W,1,04,3.13,183.1,M,-32.1,M,,*59
$GPRMC,143920.000,A,3554.8007,N,08403.5542,W,0.09,181.36,300721,,,A*73
$GPGGA,143920.250,3554.8007,N,08403.5542,W,1,04,3.13,183.1,M,-32.1,M,,*56
$GPRMC,143920.500,A,3554.8007,N,08403.5542,W,0.12,173.73,300721,,,A*70
$GPGGA,143920.750,3554.8007,N,08403.5542,W,1,04,3.13,183.1,M,-32.1,M,,*53
$GPRMC,143921.000,A,3554.8007,N,08403.5542,W,0.12,165.71,300721,,,A*71
$GPGGA,143921.250,3554.8007,N,08403.5541,W,1,04,3.13,183.1,M,-32.1,M,,*54
$GPRMC,143921.500,A,3554.8007,N,08403.5541,W,0.05,303.74,300721,,,A*76
$GPGGA,143921.750,3554.8007,N,08403.5542,W,1,04,3.13,183.1,M,-32.1,M,,*52
$GPRMC,143922.000,A,3554.8007,N,08403.5542,W,0.06,293.96,300721,,,A*74
$GPGGA,143922.250,3554.8007,N,08403.5542,W,1,04,3.13,183.1,M,-32.1,M,,*54
$GPRMC,143922.500,A,3554.8007,N,08403.5542,W,0.12,227.15,300721,,,A*70
$GPGGA,143922.750,3554.8007,N,08403.5542,W,1,04,3.13,183.1,M,-32.1,M,,*51
$GPRMC,143923.000,A,3554.8006,N,08403.5542,W,0.17,233.93,300721,,,A*7B
$GPGGA,143923.250,3554.8006,N,08403.5542,W,1,04,3.14,183.1,M,-32.1,M,,*53
$GPRMC,143923.500,A,3554.8006,N,08403.5542,W,0.19,223.82,300721,,,A*71
$GPGGA,143923.750,3554.8006,N,08403.5542,W,1,04,3.14,183.1,M,-32.1,M,,*56
$GPRMC,143924.000,A,3554.8006,N,08403.5542,W,0.10,226.49,300721,,,A*78
$GPGGA,143924.250,3554.8006,N,08403.5542,W,1,04,3.14,183.1,M,-32.1,M,,*54
$GPRMC,143924.500,A,3554.8006,N,08403.5542,W,0.03,118.15,300721,,,A*78
$GPGGA,143924.750,3554.8006,N,08403.5542,W,1,04,3.14,183.1,M,-32.1,M,,*51
$GPRMC,143925.000,A,3554.8006,N,08403.5542,W,0.04,348.87,300721,,,A*77
$GPGGA,143925.250,3554.8006,N,08403.5542,W,1,04,3.37,183.1,M,-32.1,M,,*54
$GPRMC,143925.500,A,3554.8006,N,08403.5542,W,0.11,331.11,300721,,,A*77
$GPGGA,143925.750,3554.8006,N,08403.5542,W,1,04,3.14,183.1,M,-32.1,M,,*50
$GPRMC,143926.000,A,3554.8006,N,08403.5542,W,0.13,355.29,300721,,,A*7A
$GPGGA,143926.250,3554.8006,N,08403.5542,W,1,04,3.37,183.1,M,-32.1,M,,*57
$GPRMC,143926.500,A,3554.8006,N,08403.5542,W,0.06,335.18,300721,,,A*7F
$GPGGA,143926.750,3554.8006,N,08403.5542,W,1,04,3.14,183.1,M,-32.1,M,,*53
$GPRMC,143927.000,A,3554.8006,N,08403.5542,W,0.10,288.81,300721,,,A*7B
$GPGGA,143927.250,3554.8006,N,08403.5542,W,1,04,3.14,183.1,M,-32.1,M,,*57
$GPRMC,143927.500,A,3554.8006,N,08403.5543,W,0.09,313.35,300721,,,A*7B
$GPGGA,143927.750,3554.8006,N,08403.5543,W,1,04,3.14,183.1,M,-32.1,M,,*53
$GPRMC,143928.000,A,3554.8006,N,08403.5543,W,0.10,232.34,300721,,,A*7A
$GPGGA,143928.250,3554.8006,N,08403.5543,W,1,04,3.14,183.1,M,-32.1,M,,*59
$GPRMC,143928.500,A,3554.8006,N,08403.5543,W,0.17,228.40,300721,,,A*70
$GPGGA,143928.750,3554.8006,N,08403.5543,W,1,04,3.14,183.1,M,-32.1,M,,*5C
$GPRMC,143929.000,A,3554.8006,N,08403.5543,W,0.11,237.45,300721,,,A*79
$GPGGA,143929.250,3554.8006,N,08403.5543,W,1,04,3.14,183.1,M,-32.1,M,,*58
$GPRMC,143929.500,A,3554.8006,N,08403.5543,W,0.10,163.95,300721,,,A*72
$GPGGA,143929.750,3554.8006,N,08403.5543,W,1,04,3.14,183.1,M,-32.1,M,,*5D
$GPRMC,143930.000,A,3554.8006,N,08403.5543,W,0.15,163.78,300721,,,A*79
$GPGGA,143930.250,3554.8005,N,08403.5543,W,1,04,3.14,183.1,M,-32.1,M,,*53
$GPRMC,143930.500,A,3554.8005,N,08403.5543,W,0.22,177.45,300721,,,A*70
$GPGGA,143930.750,3554.8005,N,08403.5543,W,1,04,3.14,183.1,M,-32.1,M,,*56
$GPRMC,143931.000,A,3554.8005,N,08403.5543,W,0.27,182.15,300721,,,A*7E
$GPGGA,143931.250,3554.8005,N,08403.5543,W,1,04,3.14,183.1,M,-32.1,M,,*52
$GPRMC,143931.500,A,3554.8005,N,08403.5543,W,0.12,155.98,300721,,,A*72
$GPGGA,143931.750,3554.8005,N,08403.5543,W,1,04,3.14,183.1,M,-32.1,M,,*57
$GPRMC,143932.000,A,3554.8004,N,08403.5543,W,0.11,175.61,300721,,,A*72
$GPGGA,143932.250,3554.8004,N,08403.5543,W,1,05,3.13,183.2,M,-32.1,M,,*55
$GPRMC,143932.500,A,3554.8004,N,08403.5543,W,0.13,166.21,300721,,,A*73
$GPGGA,143932.750,3554.8004,N,08403.5543,W,1,05,3.13,183.2,M,-32.1,M,,*50
$GPRMC,143933.000,A,3554.8004,N,08403.5543,W,0.16,147.43,300721,,,A*75
$GPGGA,143933.250,3554.8004,N,08403.5543,W,1,05,3.13,183.2,M,-32.1,M,,*54
$GPRMC,143933.500,A,3554.8004,N,08403.5543,W,0.09,146.77,300721,,,A*78
$GPGGA,143933.750,3554.8004,N,08403.5543,W,1,05,3.13,183.2,M,-32.1,M,,*51
$GPRMC,143934.000,A,3554.8004,N,08403.5543,W,0.05,127.76,300721,,,A*70
$GPGGA,143934.250,3554.8004,N,08403.5543,W,1,05,3.13,183.2,M,-32.1,M,,*53
$GPRMC,143934.500,A,3554.8004,N,08403.5543,W,0.02,164.11,300721,,,A*74
$GPGGA,143934.750,3554.8004,N,08403.5543,W,1,05,3.13,183.2,M,-32.1,M,,*56
$GPRMC,143935.000,A,3554.8004,N,08403.5543,W,0.07,307.06,300721,,,A*74
$GPGGA,143935.250,3554.8004,N,08403.5543,W,1,05,3.13,183.2,M,-32.1,M,,*52
$GPRMC,143935.500,A,3554.8004,N,08403.5543,W,0.11,305.25,300721,,,A*75
$GPGGA,143935.750,3554.8004,N,08403.5543,W,1,05,3.13,183.2,M,-32.1,M,,*57
$GPRMC,143936.000,A,3554.8004,N,08403.5543,W,0.16,306.31,300721,,,A*72
$GPGGA,143936.250,3554.8004,N,08403.5543,W,1,05,3.13,183.2,M,-32.1,M,,*51
$GPRMC,143936.500,A,3554.8004,N,08403.5543,W,0.16,317.68,300721,,,A*7B
$GPGGA,143936.750,3554.8004,N,08403.5543,W,1,05,3.14,183.2,M,-32.1,M,,*53
$GPRMC,143937.000,A,3554.8004,N,08403.5543,W,0.15,351.37,300721,,,A*74
$GPGGA,143937.250,3554.8004,N,08403.5543,W,1,05,3.30,183.2,M,-32.1,M,,*51
$GPRMC,143937.500,A,3554.8004,N,08403.5543,W,0.15,347.97,300721,,,A*7C
$GPGGA,143937.750,3554.8005,N,08403.5543,W,1,05,3.30,183.3,M,-32.1,M,,*54
$GPRMC,143938.000,A,3554.8005,N,08403.5544,W,0.20,349.34,300721,,,A*71
$GPGGA,143938.250,3554.8005,N,08403.5544,W,1,05,3.30,183.3,M,-32.1,M,,*59
$GPRMC,143938.500,A,3554.8005,N,08403.5544,W,0.24,353.92,300721,,,A*77
$GPGGA,143938.750,3554.8005,N,08403.5544,W,1,05,3.30,183.3,M,-32.1,M,,*5C
$GPRMC,143939.000,A,3554.8005,N,08403.5544,W,0.21,352.06,300721,,,A*7A
$GPGGA,143939.250,3554.8005,N,08403.5544,W,1,05,3.30,183.3,M,-32.1,M,,*58
$GPRMC,143939.500,A,3554.8006,N,08403.5544,W,0.22,329.21,300721,,,A*76
$GPGGA,143939.750,3554.8006,N,08403.5544,W,1,05,3.14,183.3,M,-32.1,M,,*58
$GPRMC,143940.000,A,3554.8006,N,08403.5544,W,0.25,321.07,300721,,,A*76
$GPGGA,143940.250,3554.8006,N,08403.5544,W,1,05,3.14,183.3,M,-32.1,M,,*53
$GPRMC,143940.500,A,3554.8006,N,08403.5544,W,0.23,339.16,300721,,,A*7C
$GPGGA,143940.750,3554.8006,N,08403.5544,W,1,05,3.14,183.3,M,-32.1,M,,*56
$GPRMC,143941.000,A,3554.8006,N,08403.5544,W,0.27,338.60,300721,,,A*7C
$GPGGA,143941.250,3554.8007,N,08403.5544,W,1,05,3.14,183.3,M,-32.1,M,,*53
$GPRMC,143941.500,A,3554.8007,N,08403.5545,W,0.22,317.96,300721,,,A*78
$GPGGA,143941.750,3554.8007,N,08403.5545,W,1,05,3.14,183.3,M,-32.1,M,,*57
$GPRMC,143942.000,A,3554.8007,N,08403.5545,W,0.23,310.11,300721,,,A*77
$GPGGA,143942.250,3554.8007,N,08403.5545,W,1,05,3.14,183.3,M,-32.1,M,,*51
$GPRMC,143942.500,A,3554.8007,N,08403.5545,W,0.18,291.99,300721,,,A*72
$GPGGA,143942.750,3554.8007,N,08403.5545,W,1,05,3.14,183.4,M,-32.1,M,,*53
$GPRMC,143943.000,A,3554.8007,N,08403.5545,W,0.19,293.15,300721,,,A*71
$GPGGA,143943.250,3554.8007,N,08403.5546,W,1,05,3.14,183.4,M,-32.1,M,,*54
$GPRMC,143943.500,A,3554.8007,N,08403.5546,W,0.24,300.02,300721,,,A*74
$GPGGA,143943.750,3554.8007,N,08403.5546,W,1,05,3.14,183.4,M,-32.1,M,,*51
$GPRMC,143944.000,A,3554.8007,N,08403.5546,W,0.21,304.75,300721,,,A*77
$GPGGA,143944.250,3554.8007,N,08403.5546,W,1,05,3.14,183.4,M,-32.1,M,,*53
$GPRMC,143944.500,A,3554.8007,N,08403.5546,W,0.18,297.26,300721,,,A*75
$GPGGA,143944.750,3554.8007,N,08403.5546,W,1,05,3.15,183.4,M,-32.1,M,,*57
$GPRMC,143945.000,A,3554.8007,N,08403.5547,W,0.14,315.33,300721,,,A*73
$GPGGA,143945.250,3554.8008,N,08403.5547,W,1,05,3.15,183.4,M,-32.1,M,,*5D
$GPRMC,143945.500,A,3554.8008,N,08403.5547,W,0.14,298.49,300721,,,A*70
$GPGGA,143945.750,3554.8008,N,08403.5547,W,1,05,3.15,183.4,M,-32.1,M,,*58
$GPRMC,143946.000,A,3554.8008,N,08403.5547,W,0.14,349.62,300721,,,A*72
$GPGGA,143946.250,3554.8008,N,08403.5547,W,1,05,3.31,183.4,M,-32.1,M,,*58
$GPRMC,143946.500,A,3554.8008,N,08403.5547,W,0.19,340.10,300721,,,A*76
$GPGGA,143946.750,3554.8008,N,08403.5547,W,1,05,3.15,183.4,M,-32.1,M,,*5B
$GPRMC,143947.000,A,3554.8008,N,08403.5547,W,0.09,355.98,300721,,,A*77
$GPGGA,143947.250,3554.8008,N,08403.5547,W,1,05,3.31,183.4,M,-32.1,M,,*59
$GPRMC,143947.500,A,3554.8008,N,08403.5547,W,0.11,345.52,300721,,,A*7C
$GPGGA,143947.750,3554.8008,N,08403.5547,W,1,05,3.31,183.5,M,-32.1,M,,*5D
$GPRMC,143948.000,A,3554.8008,N,08403.5547,W,0.16,348.38,300721,,,A*70
$GPGGA,143948.250,3554.8008,N,08403.5547,W,1,05,3.31,183.5,M,-32.1,M,,*57
$GPRMC,143948.500,A,3554.8009,N,08403.5547,W,0.27,4.07,300721,,,A*71
$GPGGA,143948.750,3554.8009,N,08403.5547,W,1,05,3.31,183.5,M,-32.1,M,,*53
$GPRMC,143949.000,A,3554.8009,N,08403.5547,W,0.25,359.21,300721,,,A*78
$GPGGA,143949.250,3554.8009,N,08403.5547,W,1,05,3.31,183.5,M,-32.1,M,,*57
$GPRMC,143949.500,A,3554.8009,N,08403.5547,W,0.21,349.22,300721,,,A*7B
$GPGGA,143949.750,3554.8009,N,08403.5547,W,1,05,3.31,183.5,M,-32.1,M,,*52
$GPRMC,143950.000,A,3554.8009,N,08403.5547,W,0.18,349.65,300721,,,A*7F
$GPGGA,143950.250,3554.8010,N,08403.5547,W,1,06,1.56,183.5,M,-32.1,M,,*57
$GPRMC,143950.500,A,3554.8007,N,08403.5546,W,0.09,24.23,300721,,,A*4F
$GPGGA,143950.750,3554.8005,N,08403.5544,W,1,06,1.34,183.7,M,-32.1,M,,*53
$GPRMC,143951.000,A,3554.8003,N,08403.5542,W,0.17,81.08,300721,,,A*42
$GPGGA,143951.250,3554.8001,N,08403.5541,W,1,06,1.34,183.9,M,-32.1,M,,*58
$GPRMC,143951.500,A,3554.8001,N,08403.5540,W,0.25,99.52,300721,,,A*40
$GPGGA,143951.750,3554.8001,N,08403.5540,W,1,06,1.34,184.0,M,-32.1,M,,*52
$GPRMC,143952.000,A,3554.8001,N,08403.5540,W,0.25,100.71,300721,,,A*76
$GPGGA,143952.250,3554.8001,N,08403.5540,W,1,06,1.34,184.0,M,-32.1,M,,*54
$GPRMC,143952.500,A,3554.8000,N,08403.5539,W,0.23,110.26,300721,,,A*79
$GPGGA,143952.750,3554.8000,N,08403.5539,W,1,06,1.34,184.0,M,-32.1,M,,*5E
$GPRMC,143953.000,A,3554.8000,N,08403.5539,W,0.23,116.79,300721,,,A*71
$GPGGA,143953.250,3554.8000,N,08403.5539,W,1,06,1.34,184.0,M,-32.1,M,,*5A
$GPRMC,143953.500,A,3554.8000,N,08403.5539,W,0.10,157.46,300721,,,A*7D
$GPGGA,143953.750,3554.8000,N,08403.5539,W,1,06,1.34,184.0,M,-32.1,M,,*5F
$GPRMC,143954.000,A,3554.8000,N,08403.5539,W,0.11,170.21,300721,,,A*7A
$GPGGA,143954.250,3554.8000,N,08403.5539,W,1,06,1.34,184.0,M,-32.1,M,,*5D
$GPRMC,143954.500,A,3554.8000,N,08403.5539,W,0.12,185.14,300721,,,A*70
$GPGGA,143954.750,3554.8000,N,08403.5539,W,1,06,1.34,184.0,M,-32.1,M,,*58
$GPRMC,143955.000,A,3554.8000,N,08403.5539,W,0.10,199.59,300721,,,A*72
$GPGGA,143955.250,3554.7999,N,08403.5539,W,1,06,1.34,184.0,M,-32.1,M,,*5A
$GPRMC,143955.500,A,3554.7999,N,08403.5539,W,0.04,237.27,300721,,,A*7A
$GPGGA,143955.750,3554.7999,N,08403.5539,W,1,06,1.34,184.0,M,-32.1,M,,*5F
$GPRMC,143956.000,A,3554.7999,N,08403.5539,W,0.07,194.53,300721,,,A*76
$GPGGA,143956.250,3554.7999,N,08403.5539,W,1,07,1.13,184.0,M,-32.1,M,,*5D
$GPRMC,143956.500,A,3554.7999,N,08403.5539,W,0.03,318.89,300721,,,A*76
$GPGGA,143956.750,3554.7999,N,08403.5539,W,1,07,1.13,184.1,M,-32.1,M,,*59
$GPRMC,143957.000,A,3554.7999,N,08403.5539,W,0.04,264.25,300721,,,A*79
$GPGGA,143957.250,3554.7999,N,08403.5539,W,1,07,1.13,184.1,M,-32.1,M,,*5D
$GPRMC,143957.500,A,3554.7999,N,08403.5539,W,0.08,295.35,300721,,,A*7F
$GPGGA,143957.750,3554.7999,N,08403.5539,W,1,07,1.13,184.1,M,-32.1,M,,*58
$GPRMC,143958.000,A,3554.7999,N,08403.5539,W,0.12,297.97,300721,,,A*74
$GPGGA,143958.250,3554.7999,N,08403.5539,W,1,07,1.13,184.1,M,-32.1,M,,*52
$GPRMC,143958.500,A,3554.7999,N,08403.5539,W,0.05,334.40,300721,,,A*75
$GPGGA,143958.750,3554.7999,N,08403.5539,W,1,07,1.13,184.1,M,-32.1,M,,*57
$GPRMC,143959.000,A,3554.7999,N,08403.5539,W,0.07,308.35,300721,,,A*7E
$GPGGA,143959.250,3554.7999,N,08403.5539,W,1,07,1.13,184.1,M,-32.1,M,,*53
$GPRMC,143959.500,A,3554.7999,N,08403.5539,W,0.13,278.26,300721,,,A*7A
$GPGGA,143959.750,3554.7999,N,08403.5539,W,1,07,1.13,184.1,M,-32.1,M,,*56
$GPRMC,144000.000,A,3554.7999,N,08403.5539,W,0.14,263.66,300721,,,A*74
$GPGGA,144000.250,3554.7999,N,08403.5540,W,1,07,1.13,184.2,M,-32.1,M,,*5C
$GPRMC,144000.500,A,3554.7999,N,08403.5540,W,0.19,226.51,300721,,,A*77
$GPGGA,144000.750,3554.7999,N,08403.5540,W,1,07,1.13,184.2,M,-32.1,M,,*59
$GPRMC,144001.000,A,3554.7999,N,08403.5540,W,0.15,197.76,300721,,,A*73
$GPGGA,144001.250,3554.7999,N,08403.5540,W,1,07,1.13,184.2,M,-32.1,M,,*5D
$GPRMC,144001.500,A,3554.7998,N,08403.5540,W,0.23,237.59,300721,,,A*76
$GPGGA,144001.750,3554.7998,N,08403.5540,W,1,07,1.13,184.2,M,-32.1,M,,*59
$GPRMC,144002.000,A,3554.7998,N,08403.5540,W,0.23,247.78,300721,,,A*74
$GPGGA,144002.250,3554.7998,N,08403.5540,W,1,07,1.13,184.2,M,-32.1,M,,*5F
$GPRMC,144002.500,A,3554.7998,N,08403.5541,W,0.20,265.95,300721,,,A*70
$GPGGA,144002.750,3554.7998,N,08403.5541,W,1,07,1.13,184.2,M,-32.1,M,,*5B
$GPRMC,144003.000,A,3554.7998,N,08403.5541,W,0.18,275.28,300721,,,A*78
$GPGGA,144003.250,3554.7998,N,08403.5541,W,1,07,1.13,184.2,M,-32.1,M,,*5F
$GPRMC,144003.500,A,3554.7998,N,08403.5541,W,0.12,285.47,300721,,,A*71
$GPGGA,144003.750,3554.7998,N,08403.5541,W,1,07,1.13,184.2,M,-32.1,M,,*5A
$GPRMC,144004.000,A,3554.7998,N,08403.5541,W,0.21,284.48,300721,,,A*7D
$GPGGA,144004.250,3554.7998,N,08403.5541,W,1,07,1.13,184.3,M,-32.1,M,,*59
$GPRMC,144004.500,A,3554.7998,N,08403.5542,W,0.20,264.95,300721,,,A*74
$GPGGA,144004.750,3554.7998,N,08403.5542,W,1,07,1.13,184.3,M,-32.1,M,,*5F
$GPRMC,144005.000,A,3554.7998,N,08403.5542,W,0.17,241.44,300721,,,A*7F
$GPGGA,144005.250,3554.7997,N,08403.5542,W,1,07,1.13,184.3,M,-32.1,M,,*54
$GPRMC,144005.500,A,3554.7997,N,08403.5542,W,0.12,232.05,300721,,,A*71
$GPGGA,144005.750,3554.7997,N,08403.5542,W,1,07,1.13,184.3,M,-32.1,M,,*51
$GPRMC,144006.000,A,3554.7997,N,08403.5542,W,0.07,192.52,300721,,,A*78
$GPGGA,144006.250,3554.7997,N,08403.5542,W,1,07,1.13,184.3,M,-32.1,M,,*57
$GPRMC,144006.500,A,3554.7997,N,08403.5542,W,0.05,190.86,300721,,,A*74
$GPGGA,144006.750,3554.7997,N,08403.5542,W,1,07,1.13,184.3,M,-32.1,M,,*52
$GPRMC,144007.000,A,3554.7997,N,08403.5542,W,0.06,128.74,300721,,,A*7D
$GPGGA,144007.250,3554.7997,N,08403.5542,W,1,07,1.13,184.3,M,-32.1,M,,*56
$GPRMC,144007.500,A,3554.7997,N,08403.5542,W,0.07,337.48,300721,,,A*7A
$GPGGA,144007.750,3554.7997,N,08403.5542,W,1,07,1.13,184.3,M,-32.1,M,,*53
$GPRMC,144008.000,A,3554.7997,N,08403.5542,W,0.09,330.41,300721,,,A*70
$GPGGA,144008.250,3554.7997,N,08403.5542,W,1,07,1.13,184.3,M,-32.1,M,,*59
$GPRMC,144008.500,A,3554.7997,N,08403.5542,W,0.11,296.60,300721,,,A*72
$GPGGA,144008.750,3554.7997,N,08403.5542,W,1,07,1.13,184.4,M,-32.1,M,,*5B
$GPRMC,144009.000,A,3554.7997,N,08403.5542,W,0.09,304.98,300721,,,A*72
$GPGGA,144009.250,3554.7997,N,08403.5542,W,1,07,1.13,184.4,M,-32.1,M,,*5F
$GPRMC,144009.500,A,3554.7997,N,08403.5542,W,0.09,315.40,300721,,,D*77
$GPGGA,144009.750,3554.7996,N,08403.5542,W,2,07,1.13,184.7,M,-32.1,M,0000,0000*5B
$GPRMC,144010.000,A,3554.7996,N,08403.5542,W,0.11,307.70,300721,,,D*72
$GPGGA,144010.250,3554.7995,N,08403.5542,W,2,07,1.13,185.0,M,-32.1,M,0000,0000*53
$GPRMC,144010.500,A,3554.7994,N,08403.5542,W,0.13,295.44,300721,,,D*7A
$GPGGA,144010.750,3554.7994,N,08403.5542,W,2,07,1.13,185.3,M,-32.1,M,0000,0000*54
$GPRMC,144011.000,A,3554.7993,N,08403.5542,W,0.13,281.39,300721,,,D*76
$GPGGA,144011.250,3554.7992,N,08403.5541,W,2,07,1.13,185.6,M,-32.1,M,0000,0000*50
$GPRMC,144011.500,A,3554.7991,N,08403.5541,W,0.11,262.94,300721,,,D*7A
$GPGGA,144011.750,3554.7991,N,08403.5541,W,2,07,1.13,185.9,M,-32.1,M,0000,0000*59
$GPRMC,144012.000,A,3554.7991,N,08403.5541,W,0.11,283.06,300721,,,D*78
$GPGGA,144012.250,3554.7990,N,08403.5541,W,2,07,1.13,186.2,M,-32.1,M,0000,0000*56
$GPRMC,144012.500,A,3554.7989,N,08403.5542,W,0.23,268.97,300721,,,D*7B
$GPGGA,144012.750,3554.7989,N,08403.5541,W,2,07,1.13,186.6,M,-32.1,M,0000,0000*5F
$GPRMC,144013.000,A,3554.7988,N,08403.5541,W,0.22,262.02,300721,,,D*7A
$GPGGA,144013.250,3554.7987,N,08403.5541,W,2,07,1.13,186.8,M,-32.1,M,0000,0000*5B
$GPRMC,144013.500,A,3554.7987,N,08403.5541,W,0.20,262.75,300721,,,D*72
$GPGGA,144013.750,3554.7986,N,08403.5541,W,2,07,1.13,187.1,M,-32.1,M,0000,0000*57
$GPRMC,144014.000,A,3554.7985,N,08403.5541,W,0.17,255.07,300721,,,D*77
$GPGGA,144014.250,3554.7985,N,08403.5540,W,2,07,1.13,187.4,M,-32.1,M,0000,0000*52
$GPRMC,144014.500,A,3554.7984,N,08403.5540,W,0.14,235.28,300721,,,D*7A
$GPGGA,144014.750,3554.7984,N,08403.5540,W,2,07,1.13,187.6,M,-32.1,M,0000,0000*54
$GPRMC,144015.000,A,3554.7983,N,08403.5539,W,0.06,233.11,300721,,,D*78
$GPGGA,144015.250,3554.7983,N,08403.5539,W,2,07,1.13,187.9,M,-32.1,M,0000,0000*56
$GPRMC,144015.500,A,3554.7983,N,08403.5539,W,0.02,333.21,300721,,,D*7B
$GPGGA,144015.750,3554.7983,N,08403.5539,W,2,07,1.13,188.2,M,-32.1,M,0000,0000*57
$GPRMC,144016.000,A,3554.7983,N,08403.5539,W,0.11,295.63,300721,,,D*74
$GPGGA,144016.250,3554.7982,N,08403.5539,W,2,07,1.13,188.4,M,-32.1,M,0000,0000*56
$GPRMC,144016.500,A,3554.7982,N,08403.5539,W,0.16,274.78,300721,,,D*72
$GPGGA,144016.750,3554.7981,N,08403.5539,W,2,07,1.13,188.7,M,-32.1,M,0000,0000*53
$GPRMC,144017.000,A,3554.7981,N,08403.5538,W,0.09,323.85,300721,,,D*7B
$GPGGA,144017.250,3554.7981,N,08403.5538,W,2,07,1.13,189.1,M,-32.1,M,0000,0000*51
$GPRMC,144017.500,A,3554.7980,N,08403.5537,W,0.09,354.23,300721,,,D*7C
$GPGGA,144017.750,3554.7979,N,08403.5536,W,2,07,1.35,189.4,M,-32.1,M,0000,0000*5C
$GPRMC,144018.000,A,3554.7979,N,08403.5535,W,0.08,345.72,300721,,,D*77
$GPGGA,144018.250,3554.7978,N,08403.5535,W,2,07,1.35,189.7,M,-32.1,M,0000,0000*57
$GPRMC,144018.500,A,3554.7977,N,08403.5534,W,0.07,354.25,300721,,,D*70
$GPGGA,144018.750,3554.7977,N,08403.5534,W,2,07,1.35,190.0,M,-32.1,M,0000,0000*53
$GPRMC,144019.000,A,3554.7976,N,08403.5533,W,0.09,19.90,300721,,,D*48
$GPGGA,144019.250,3554.7976,N,08403.5533,W,2,07,1.13,190.2,M,-32.1,M,0000,0000*57
$GPRMC,144019.500,A,3554.7975,N,08403.5532,W,0.12,35.28,300721,,,D*48
$GPGGA,144019.750,3554.7975,N,08403.5531,W,2,07,1.13,190.4,M,-32.1,M,0000,0000*55
$GPRMC,144020.000,A,3554.7974,N,08403.5531,W,0.10,20.35,300721,,,D*4F
$GPGGA,144020.250,3554.7974,N,08403.5531,W,2,07,1.13,190.7,M,-32.1,M,0000,0000*58
$GPRMC,144020.500,A,3554.7974,N,08403.5532,W,0.14,327.56,300721,,,D*7C
$GPGGA,144020.750,3554.7974,N,08403.5532,W,2,07,1.13,191.0,M,-32.1,M,0000,0000*58
$GPRMC,144021.000,A,3554.7974,N,08403.5532,W,0.21,329.30,300721,,,D*70
$GPGGA,144021.250,3554.7974,N,08403.5532,W,2,07,1.13,191.2,M,-32.1,M,0000,0000*5E
$GPRMC,144021.500,A,3554.7973,N,08403.5532,W,0.20,315.28,300721,,,D*75
$GPGGA,144021.750,3554.7973,N,08403.5531,W,2,07,1.13,191.5,M,-32.1,M,0000,0000*58
$GPRMC,144022.000,A,3554.7972,N,08403.5532,W,0.19,318.16,300721,,,D*78
$GPGGA,144022.250,3554.7972,N,08403.5531,W,2,07,1.13,191.7,M,-32.1,M,0000,0000*5D
$GPRMC,144022.500,A,3554.7971,N,08403.5531,W,0.17,309.25,300721,,,D*73
$GPGGA,144022.750,3554.7971,N,08403.5531,W,2,07,1.13,192.0,M,-32.1,M,0000,0000*5F
$GPRMC,144023.000,A,3554.7970,N,08403.5531,W,0.15,298.19,300721,,,D*72
$GPGGA,144023.250,3554.7969,N,08403.5531,W,2,07,1.13,192.2,M,-32.1,M,0000,0000*50
$GPRMC,144023.500,A,3554.7969,N,08403.5531,W,0.14,294.86,300721,,,D*74
$GPGGA,144023.750,3554.7969,N,08403.5531,W,2,07,1.13,192.5,M,-32.1,M,0000,0000*52
$GPRMC,144024.000,A,3554.7968,N,08403.5530,W,0.10,297.99,300721,,,D*7F
$GPGGA,144024.250,3554.7967,N,08403.5529,W,2,07,1.13,192.7,M,-32.1,M,0000,0000*55
$GPRMC,144024.500,A,3554.7966,N,08403.5529,W,0.03,60.57,300721,,,D*46
$GPGGA,144024.750,3554.7966,N,08403.5529,W,2,07,1.35,192.9,M,-32.1,M,0000,0000*5B
$GPRMC,144025.000,A,3554.7965,N,08403.5528,W,0.02,99.78,300721,,,D*4A
$GPGGA,144025.250,3554.7965,N,08403.5529,W,2,07,1.35,193.1,M,-32.1,M,0000,0000*55
$GPRMC,144025.500,A,3554.7965,N,08403.5529,W,0.04,281.09,300721,,,D*75
$GPGGA,144025.750,3554.7965,N,08403.5529,W,2,07,1.13,193.4,M,-32.1,M,0000,0000*51
$GPRMC,144026.000,A,3554.7966,N,08403.5529,W,0.03,355.45,300721,,,D*77
$GPGGA,144026.250,3554.7966,N,08403.5529,W,2,07,1.13,193.6,M,-32.1,M,0000,0000*56
$GPRMC,144026.500,A,3554.7965,N,08403.5529,W,0.01,325.69,300721,,,D*7A
$GPGGA,144026.750,3554.7965,N,08403.5529,W,2,07,1.13,193.9,M,-32.1,M,0000,0000*5F
$GPRMC,144027.000,A,3554.7965,N,08403.5528,W,0.02,141.52,300721,,,D*74
$GPGGA,144027.250,3554.7965,N,08403.5528,W,2,07,1.13,194.1,M,-32.1,M,0000,0000*55
$GPRMC,144027.500,A,3554.7965,N,08403.5528,W,0.02,356.33,300721,,,D*72
$GPGGA,144027.750,3554.7965,N,08403.5528,W,2,07,1.13,194.2,M,-32.1,M,0000,0000*53
$GPRMC,144028.000,A,3554.7965,N,08403.5528,W,0.01,352.72,300721,,,D*7A
$GPGGA,144028.250,3554.7964,N,08403.5528,W,2,07,1.13,194.4,M,-32.1,M,0000,0000*5E
$GPRMC,144028.500,A,3554.7964,N,08403.5528,W,0.01,25.09,300721,,,D*41
$GPGGA,144028.750,3554.7964,N,08403.5528,W,2,07,1.13,194.6,M,-32.1,M,0000,0000*59
$GPRMC,144029.000,A,3554.7964,N,08403.5528,W,0.02,303.93,300721,,,D*72
$GPGGA,144029.250,3554.7964,N,08403.5528,W,2,07,1.13,194.8,M,-32.1,M,0000,0000*53
$GPRMC,144029.500,A,3554.7963,N,08403.5528,W,0.01,160.28,300721,,,D*74
$GPGGA,144029.750,3554.7962,N,08403.5528,W,2,07,1.13,195.0,M,-32.1,M,0000,0000*59
$GPRMC,144030.000,A,3554.7961,N,08403.5528,W,0.01,161.75,300721,,,D*72
$GPGGA,144030.250,3554.7961,N,08403.5527,W,2,07,1.13,195.2,M,-32.1,M,0000,0000*5A
$GPRMC,144030.500,A,3554.7960,N,08403.5527,W,0.01,245.75,300721,,,D*7C
$GPGGA,144030.750,3554.7960,N,08403.5527,W,2,07,1.13,195.4,M,-32.1,M,0000,0000*58
$GPRMC,144031.000,A,3554.7960,N,08403.5526,W,0.01,64.99,300721,,,D*4A
$GPGGA,144031.250,3554.7959,N,08403.5526,W,2,07,1.13,195.6,M,-32.1,M,0000,0000*55
$GPRMC,144031.500,A,3554.7959,N,08403.5525,W,0.01,66.82,300721,,,D*4E
$GPGGA,144031.750,3554.7959,N,08403.5525,W,2,07,1.13,195.8,M,-32.1,M,0000,0000*5D
$GPRMC,144032.000,A,3554.7958,N,08403.5525,W,0.01,19.18,300721,,,D*42
$GPGGA,144032.250,3554.7958,N,08403.5524,W,2,07,1.13,196.0,M,-32.1,M,0000,0000*50
$GPRMC,144032.500,A,3554.7958,N,08403.5524,W,0.01,348.71,300721,,,D*7E
$GPGGA,144032.750,3554.7958,N,08403.5524,W,2,07,1.13,196.1,M,-32.1,M,0000,0000*54
$GPRMC,144033.000,A,3554.7958,N,08403.5524,W,0.00,44.90,300721,,,D*4B
$GPGGA,144033.250,3554.7957,N,08403.5523,W,2,07,1.13,196.3,M,-32.1,M,0000,0000*5A
$GPRMC,144033.500,A,3554.7956,N,08403.5523,W,0.02,173.12,300721,,,D*7A
$GPGGA,144033.750,3554.7955,N,08403.5522,W,2,07,1.13,196.5,M,-32.1,M,0000,0000*5A
$GPRMC,144034.000,A,3554.7954,N,08403.5522,W,0.01,132.80,300721,,,D*76
$GPGGA,144034.250,3554.7953,N,08403.5522,W,2,07,1.13,196.6,M,-32.1,M,0000,0000*5D
$GPRMC,144034.500,A,3554.7952,N,08403.5521,W,0.02,190.82,300721,,,D*7F
$GPGGA,144034.750,3554.7952,N,08403.5521,W,2,07,1.13,196.8,M,-32.1,M,0000,0000*54
$GPRMC,144035.000,A,3554.7951,N,08403.5521,W,0.01,126.73,300721,,,D*78
$GPGGA,144035.250,3554.7951,N,08403.5521,W,2,07,1.13,197.0,M,-32.1,M,0000,0000*5A
$GPRMC,144035.500,A,3554.7951,N,08403.5521,W,0.01,290.47,300721,,,D*74
$GPGGA,144035.750,3554.7951,N,08403.5521,W,2,07,1.13,197.1,M,-32.1,M,0000,0000*5E
$GPRMC,144036.000,A,3554.7951,N,08403.5522,W,0.00,244.00,300721,,,D*7A
$GPGGA,144036.250,3554.7951,N,08403.5522,W,2,07,1.13,197.3,M,-32.1,M,0000,0000*59
$GPRMC,144036.500,A,3554.7950,N,08403.5522,W,0.01,269.59,300721,,,D*7C
$GPGGA,144036.750,3554.7950,N,08403.5522,W,2,07,1.13,197.4,M,-32.1,M,0000,0000*5A
$GPRMC,144037.000,A,3554.7950,N,08403.5523,W,0.01,255.52,300721,,,D*7D
$GPGGA,144037.250,3554.7950,N,08403.5523,W,2,07,1.13,197.5,M,-32.1,M,0000,0000*5E
$GPRMC,144037.500,A,3554.7949,N,08403.5523,W,0.01,126.50,300721,,,D*75
$GPGGA,144037.750,3554.7949,N,08403.5523,W,2,07,1.13,197.7,M,-32.1,M,0000,0000*51
$GPRMC,144038.000,A,3554.7948,N,08403.5523,W,0.01,192.48,300721,,,D*78
$GPGGA,144038.250,3554.7948,N,08403.5522,W,2,07,1.13,197.8,M,-32.1,M,0000,0000*54
$GPRMC,144038.500,A,3554.7948,N,08403.5522,W,0.01,113.44,300721,,,D*79
$GPGGA,144038.750,3554.7947,N,08403.5522,W,2,07,1.13,197.9,M,-32.1,M,0000,0000*5F
$GPRMC,144039.000,A,3554.7947,N,08403.5521,W,0.00,97.77,300721,,,D*4D
$GPGGA,144039.250,3554.7947,N,08403.5521,W,2,07,1.13,198.0,M,-32.1,M,0000,0000*5E
$GPRMC,144039.500,A,3554.7946,N,08403.5521,W,0.01,162.29,300721,,,D*78
$GPGGA,144039.750,3554.7946,N,08403.5521,W,2,07,1.13,198.1,M,-32.1,M,0000,0000*5B
$GPRMC,144040.000,A,3554.7946,N,08403.5521,W,0.01,301.26,300721,,,D*7B
$GPGGA,144040.250,3554.7946,N,08403.5521,W,2,07,1.13,198.2,M,-32.1,M,0000,0000*53
$GPRMC,144040.500,A,3554.7945,N,08403.5521,W,0.01,150.18,300721,,,D*76
$GPGGA,144040.750,3554.7944,N,08403.5520,W,2,07,1.13,198.3,M,-32.1,M,0000,0000*54
$GPRMC,144041.000,A,3554.7944,N,08403.5520,W,0.01,157.80,300721,,,D*74
$GPGGA,144041.250,3554.7943,N,08403.5520,W,2,07,1.13,198.4,M,-32.1,M,0000,0000*50
$GPRMC,144041.500,A,3554.7943,N,08403.5520,W,0.01,170.81,300721,,,D*72
$GPGGA,144041.750,3554.7942,N,08403.5520,W,2,07,1.13,198.4,M,-32.1,M,0000,0000*54
$GPRMC,144042.000,A,3554.7941,N,08403.5519,W,0.01,145.78,300721,,,D*7C
$GPGGA,144042.250,3554.7941,N,08403.5519,W,2,07,1.13,198.5,M,-32.1,M,0000,0000*5A
$GPRMC,144042.500,A,3554.7941,N,08403.5519,W,0.01,247.01,300721,,,D*76
$GPGGA,144042.750,3554.7940,N,08403.5519,W,2,07,1.13,198.6,M,-32.1,M,0000,0000*5D
$GPRMC,144043.000,A,3554.7939,N,08403.5519,W,0.01,187.84,300721,,,D*7F
$GPGGA,144043.250,3554.7938,N,08403.5519,W,2,07,1.13,198.6,M,-32.1,M,0000,0000*56
$GPRMC,144043.500,A,3554.7938,N,08403.5519,W,0.01,151.65,300721,,,D*7F
$GPGGA,144043.750,3554.7938,N,08403.5519,W,2,07,1.13,198.6,M,-32.1,M,0000,0000*53
$GPRMC,144044.000,A,3554.7937,N,08403.5519,W,0.00,192.40,300721,,,D*7B
$GPGGA,144044.250,3554.7937,N,08403.5518,W,2,07,1.13,198.7,M,-32.1,M,0000,0000*5E
$GPRMC,144044.500,A,3554.7937,N,08403.5518,W,0.01,136.64,300721,,,D*76
$GPGGA,144044.750,3554.7936,N,08403.5518,W,2,07,1.13,198.7,M,-32.1,M,0000,0000*5A
$GPRMC,144045.000,A,3554.7928,N,08403.5514,W,0.08,157.13,300721,,,D*7E
$GPGGA,144045.250,3554.7922,N,08403.5510,W,2,07,1.13,199.1,M,-32.1,M,0000,0000*54
$GPRMC,144045.500,A,3554.7921,N,08403.5509,W,0.03,145.61,300721,,,D*73
$GPGGA,144045.750,3554.7921,N,08403.5509,W,2,07,1.13,199.1,M,-32.1,M,0000,0000*5A
$GPRMC,144046.000,A,3554.7920,N,08403.5510,W,0.01,200.32,300721,,,D*7A
$GPGGA,144046.250,3554.7921,N,08403.5510,W,2,07,1.13,199.1,M,-32.1,M,0000,0000*54
$GPRMC,144046.500,A,3554.7921,N,08403.5510,W,0.00,281.80,300721,,,D*7F
$GPGGA,144046.750,3554.7920,N,08403.5511,W,2,07,1.13,199.1,M,-32.1,M,0000,0000*51
$GPRMC,144047.000,A,3554.7920,N,08403.5511,W,0.01,172.53,300721,,,D*7B
$GPGGA,144047.250,3554.7919,N,08403.5511,W,2,07,1.13,199.1,M,-32.1,M,0000,0000*5F
$GPRMC,144047.500,A,3554.7920,N,08403.5511,W,0.01,342.97,300721,,,D*77
$GPGGA,144047.750,3554.7919,N,08403.5511,W,2,07,1.13,199.1,M,-32.1,M,0000,0000*5A
$GPRMC,144048.000,A,3554.7918,N,08403.5511,W,0.01,154.99,300721,,,D*7D
$GPGGA,144048.250,3554.7917,N,08403.5511,W,2,07,1.13,199.2,M,-32.1,M,0000,0000*5D
$GPRMC,144048.500,A,3554.7917,N,08403.5512,W,0.01,247.10,300721,,,D*74
$GPGGA,144048.750,3554.7917,N,08403.5512,W,2,07,1.13,199.2,M,-32.1,M,0000,0000*5B
$GPRMC,144049.000,A,3554.7917,N,08403.5512,W,0.01,191.49,300721,,,D*74
$GPGGA,144049.250,3554.7916,N,08403.5512,W,2,07,1.13,199.2,M,-32.1,M,0000,0000*5E
$GPRMC,144049.500,A,3554.7916,N,08403.5513,W,0.01,230.44,300721,,,D*74
$GPGGA,144049.750,3554.7916,N,08403.5513,W,2,07,1.13,199.3,M,-32.1,M,0000,0000*5B
$GPRMC,144050.000,A,3554.7916,N,08403.5513,W,0.00,286.11,300721,,,D*75
$GPGGA,144050.250,3554.7915,N,08403.5513,W,2,07,1.13,199.3,M,-32.1,M,0000,0000*55
$GPRMC,144050.500,A,3554.7915,N,08403.5514,W,0.01,210.65,300721,,,D*79
$GPGGA,144050.750,3554.7914,N,08403.5514,W,2,07,1.13,199.4,M,-32.1,M,0000,0000*51
$GPRMC,144051.000,A,3554.7914,N,08403.5514,W,0.01,220.96,300721,,,D*73
$GPGGA,144051.250,3554.7912,N,08403.5514,W,2,07,1.13,199.4,M,-32.1,M,0000,0000*53
$GPRMC,144051.500,A,3554.7911,N,08403.5513,W,0.02,160.98,300721,,,D*7E
$GPGGA,144051.750,3554.7911,N,08403.5513,W,2,07,1.13,199.5,M,-32.1,M,0000,0000*53
$GPRMC,144052.000,A,3554.7911,N,08403.5514,W,0.00,318.74,300721,,,D*72
$GPGGA,144052.250,3554.7911,N,08403.5514,W,2,07,1.13,199.5,M,-32.1,M,0000,0000*52
$GPRMC,144052.500,A,3554.7910,N,08403.5515,W,0.01,276.28,300721,,,D*76
$GPGGA,144052.750,3554.7910,N,08403.5515,W,2,07,1.13,199.5,M,-32.1,M,0000,0000*57
$GPRMC,144053.000,A,3554.7910,N,08403.5515,W,0.00,65.32,300721,,,D*48
$GPGGA,144053.250,3554.7910,N,08403.5515,W,2,07,1.13,199.5,M,-32.1,M,0000,0000*53
$GPRMC,144053.500,A,3554.7910,N,08403.5515,W,0.01,180.03,300721,,,D*74
$GPGGA,144053.750,3554.7910,N,08403.5515,W,2,07,1.13,199.5,M,-32.1,M,0000,0000*56
$GPRMC,144054.000,A,3554.7910,N,08403.5515,W,0.00,246.55,300721,,,D*7D
$GPGGA,144054.250,3554.7910,N,08403.5515,W,2,07,1.13,199.5,M,-32.1,M,0000,0000*54
$GPRMC,144054.500,A,3554.7910,N,08403.5515,W,0.01,317.32,300721,,,D*7D
$GPGGA,144054.750,3554.7910,N,08403.5515,W,2,07,1.13,199.5,M,-32.1,M,0000,0000*51
$GPRMC,144055.000,A,3554.7910,N,08403.5515,W,0.00,69.40,300721,,,D*47
$GPGGA,144055.250,3554.7910,N,08403.5515,W,2,07,1.13,199.5,M,-32.1,M,0000,0000*55
$GPRMC,144055.500,A,3554.7910,N,08403.5515,W,0.02,157.04,300721,,,D*7C
$GPGGA,144055.750,3554.7910,N,08403.5515,W,2,07,1.13,199.6,M,-32.1,M,0000,0000*53
$GPRMC,144056.000,A,3554.7910,N,08403.5515,W,0.02,170.62,300721,,,D*7F
$GPGGA,144056.250,3554.7910,N,08403.5515,W,2,07,1.13,199.6,M,-32.1,M,0000,0000*55
$GPRMC,144056.500,A,3554.7910,N,08403.5515,W,0.02,183.53,300721,,,D*74
$GPGGA,144056.750,3554.7910,N,08403.5515,W,2,07,1.13,199.6,M,-32.1,M,0000,0000*50
$GPRMC,144057.000,A,3554.7910,N,08403.5515,W,0.01,197.15,300721,,,D*74
$GPGGA,144057.250,3554.7910,N,08403.5515,W,2,07,1.13,199.6,M,-32.1,M,0000,0000*54
$GPRMC,144057.500,A,3554.7910,N,08403.5515,W,0.01,164.75,300721,,,D*7B
$GPGGA,144057.750,3554.7910,N,08403.5515,W,2,07,1.13,199.6,M,-32.1,M,0000,0000*51
$GPRMC,144058.000,A,3554.7910,N,08403.5515,W,0.01,215.35,300721,,,D*70
$GPGGA,144058.250,3554.7910,N,08403.5515,W,2,07,1.13,199.6,M,-32.1,M,0000,0000*5B
$GPRMC,144058.500,A,3554.7910,N,08403.5515,W,0.01,173.65,300721,,,D*73
$GPGGA,144058.750,3554.7910,N,08403.5515,W,2,07,1.13,199.6,M,-32.1,M,0000,0000*5E
$GPRMC,144059.000,A,3554.7910,N,08403.5515,W,0.02,187.55,300721,,,D*7C
$GPGGA,144059.250,3554.7910,N,08403.5515,W,2,07,1.13,199.6,M,-32.1,M,0000,0000*5A
$GPRMC,144059.500,A,3554.7910,N,08403.5515,W,0.02,156.05,300721,,,D*70
$GPGGA,144059.750,3554.7910,N,08403.5515,W,2,07,1.13,199.6,M,-32.1,M,0000,0000*5F
$GPRMC,144100.000,A,3554.7910,N,08403.5515,W,0.01,200.56,300721,,,D*7D
$GPGGA,144100.250,3554.7910,N,08403.5515,W,2,07,1.13,199.6,M,-32.1,M,0000,0000*57
$GPRMC,144100.500,A,3554.7910,N,08403.5515,W,0.01,219.33,300721,,,D*73
$GPGGA,144100.750,3554.7910,N,08403.5515,W,2,07,1.13,199.6,M,-32.1,M,0000,0000*52
$GPRMC,144101.000,A,3554.7910,N,08403.5515,W,0.01,211.34,300721,,,D*78
$GPGGA,144101.250,3554.7910,N,08403.5515,W,2,07,1.13,199.6,M,-32.1,M,0000,0000*56
$GPRMC,144101.500,A,3554.7910,N,08403.5515,W,0.03,168.30,300721,,,D*76
$GPGGA,144101.750,3554.7910,N,08403.5515,W,2,07,1.13,199.6,M,-32.1,M,0000,0000*53
$GPRMC,144102.000,A,3554.7910,N,08403.5515,W,0.00,170.36,300721,,,D*7C
$GPGGA,144102.250,3554.7910,N,08403.5515,W,2,07,1.13,199.6,M,-32.1,M,0000,0000*55
$GPRMC,144102.500,A,3554.7909,N,08403.5515,W,0.08,153.78,300721,,,D*72
$GPGGA,144102.750,3554.7909,N,08403.5515,W,2,07,1.13,199.6,M,-32.1,M,0000,0000*58
$GPRMC,144103.000,A,3554.7909,N,08403.5515,W,0.01,193.99,300721,,,D*7C
$GPGGA,144103.250,3554.7909,N,08403.5515,W,2,07,1.13,199.6,M,-32.1,M,0000,0000*5C
$GPRMC,144103.500,A,3554.7909,N,08403.5515,W,0.01,140.77,300721,,,D*77
$GPGGA,144103.750,3554.7909,N,08403.5515,W,2,07,1.13,199.6,M,-32.1,M,0000,0000*59
$GPRMC,144104.000,A,3554.7909,N,08403.5515,W,0.01,116.62,300721,,,D*72
$GPGGA,144104.250,3554.7909,N,08403.5514,W,2,07,1.13,199.6,M,-32.1,M,0000,0000*5A
$GPRMC,144104.500,A,3554.7909,N,08403.5514,W,0.07,150.75,300721,,,D*74
$GPGGA,144104.750,3554.7909,N,08403.5514,W,2,07,1.13,199.6,M,-32.1,M,0000,0000*5F
$GPRMC,144105.000,A,3554.7908,N,08403.5514,W,0.06,161.62,300721,,,D*74
$GPGGA,144105.250,3554.7908,N,08403.5514,W,2,07,1.13,199.6,M,-32.1,M,0000,0000*5A
$GPRMC,144105.500,A,3554.7908,N,08403.5514,W,0.07,151.21,300721,,,D*74
$GPGGA,144105.750,3554.7908,N,08403.5514,W,2,07,1.13,199.6,M,-32.1,M,0000,0000*5F
$GPRMC,144106.000,A,3554.7908,N,08403.5514,W,0.05,156.72,300721,,,D*71
$GPGGA,144106.250,3554.7908,N,08403.5514,W,2,07,1.13,199.6,M,-32.1,M,0000,0000*59
$GPRMC,144106.500,A,3554.7908,N,08403.5514,W,0.05,172.00,300721,,,D*77
$GPGGA,144106.750,3554.7908,N,08403.5514,W,2,07,1.13,199.6,M,-32.1,M,0000,0000*5C
$GPRMC,144107.000,A,3554.7907,N,08403.5514,W,0.04,162.05,300721,,,D*79
$GPGGA,144107.250,3554.7907,N,08403.5514,W,2,07,1.13,199.6,M,-32.1,M,0000,0000*57
$GPRMC,144107.500,A,3554.7907,N,08403.5514,W,0.05,162.22,300721,,,D*78
$GPGGA,144107.750,3554.7907,N,08403.5514,W,2,07,1.13,199.6,M,-32.1,M,0000,0000*52
$GPRMC,144108.000,A,3554.7907,N,08403.5514,W,0.00,5.52,300721,,,D*70
$GPGGA,144108.250,3554.7907,N,08403.5513,W,2,07,1.13,199.6,M,-32.1,M,0000,0000*5F
$GPRMC,144108.500,A,3554.7907,N,08403.5513,W,0.03,167.54,300721,,,D*72
$GPGGA,144108.750,3554.7907,N,08403.5513,W,2,07,1.13,199.6,M,-32.1,M,0000,0000*5A
$GPRMC,144109.000,A,3554.7907,N,08403.5513,W,0.03,172.43,300721,,,D*74
$GPGGA,144109.250,3554.7907,N,08403.5513,W,2,07,1.13,199.6,M,-32.1,M,0000,0000*5E
$GPRMC,144109.500,A,3554.7907,N,08403.5513,W,0.01,156.50,300721,,,D*77
$GPGGA,144109.750,3554.7907,N,08403.5513,W,2,07,1.13,199.6,M,-32.1,M,0000,0000*5B
$GPRMC,144110.000,A,3554.7907,N,08403.5513,W,0.01,246.01,300721,,,D*7C
$GPGGA,144110.250,3554.7907,N,08403.5513,W,2,07,1.13,199.6,M,-32.1,M,0000,0000*56
$GPRMC,144110.500,A,3554.7907,N,08403.5513,W,0.02,190.74,300721,,,D*70
$GPGGA,144110.750,3554.7906,N,08403.5513,W,2,07,1.13,199.7,M,-32.1,M,0000,0000*53
$GPRMC,144111.000,A,3554.7906,N,08403.5513,W,0.03,164.20,300721,,,D*7E
$GPGGA,144111.250,3554.7906,N,08403.5513,W,2,07,1.13,199.7,M,-32.1,M,0000,0000*57
$GPRMC,144111.500,A,3554.7906,N,08403.5513,W,0.04,160.59,300721,,,D*76
$GPGGA,144111.750,3554.7906,N,08403.5513,W,2,07,1.13,199.7,M,-32.1,M,0000,0000*52
$GPRMC,144112.000,A,3554.7906,N,08403.5513,W,0.03,165.97,300721,,,D*70
$GPGGA,144112.250,3554.7906,N,08403.5513,W,2,07,1.13,199.7,M,-32.1,M,0000,0000*54
$GPRMC,144112.500,A,3554.7906,N,08403.5513,W,0.02,164.31,300721,,,D*79
$GPGGA,144112.750,3554.7906,N,08403.5513,W,2,07,1.13,199.7,M,-32.1,M,0000,0000*51
$GPRMC,144113.000,A,3554.7906,N,08403.5513,W,0.03,177.24,300721,,,D*7A
$GPGGA,144113.250,3554.7906,N,08403.5513,W,2,07,1.13,199.7,M,-32.1,M,0000,0000*55
$GPRMC,144113.500,A,3554.7902,N,08403.5511,W,0.02,154.64,300721,,,D*7D
$GPGGA,144113.750,3554.7898,N,08403.5508,W,2,07,1.13,200.1,M,-32.1,M,0000,0000*59
$GPRMC,144114.000,A,3554.7894,N,08403.5506,W,0.02,139.10,300721,,,D*7F
$GPGGA,144114.250,3554.7890,N,08403.5504,W,2,07,1.13,200.4,M,-32.1,M,0000,0000*5A
$GPRMC,144114.500,A,3554.7887,N,08403.5502,W,0.03,155.39,300721,,,D*7C
$GPGGA,144114.750,3554.7883,N,08403.5499,W,2,07,1.13,200.7,M,-32.1,M,0000,0000*5B
$GPRMC,144115.000,A,3554.7879,N,08403.5497,W,0.04,159.18,300721,,,D*7C
$GPGGA,144115.250,3554.7876,N,08403.5496,W,2,07,1.13,201.0,M,-32.1,M,0000,0000*5C
$GPRMC,144115.500,A,3554.7873,N,08403.5493,W,0.03,136.81,300721,,,D*79
$GPGGA,144115.750,3554.7869,N,08403.5491,W,2,07,1.13,201.3,M,-32.1,M,0000,0000*53
$GPRMC,144116.000,A,3554.7869,N,08403.5491,W,0.01,166.04,300721,,,D*7C
$GPGGA,144116.250,3554.7866,N,08403.5490,W,2,07,1.13,201.4,M,-32.1,M,0000,0000*5C
$GPRMC,144116.500,A,3554.7863,N,08403.5488,W,0.02,153.68,300721,,,D*74
$GPGGA,144116.750,3554.7861,N,08403.5486,W,2,07,1.13,201.7,M,-32.1,M,0000,0000*5A
$GPRMC,144117.000,A,3554.7858,N,08403.5484,W,0.02,153.90,300721,,,D*73
$GPGGA,144117.250,3554.7855,N,08403.5483,W,2,07,1.13,202.0,M,-32.1,M,0000,0000*58
$GPRMC,144117.500,A,3554.7853,N,08403.5481,W,0.02,139.22,300721,,,D*7D
$GPGGA,144117.750,3554.7853,N,08403.5481,W,2,07,1.13,202.2,M,-32.1,M,0000,0000*5B
$GPRMC,144118.000,A,3554.7852,N,08403.5480,W,0.00,223.22,300721,,,D*7D
$GPGGA,144118.250,3554.7851,N,08403.5480,W,2,07,1.13,202.4,M,-32.1,M,0000,0000*54
$GPRMC,144118.500,A,3554.7850,N,08403.5479,W,0.01,202.65,300721,,,D*7D
$GPGGA,144118.750,3554.7850,N,08403.5479,W,2,07,1.13,202.6,M,-32.1,M,0000,0000*54
$GPRMC,144119.000,A,3554.7850,N,08403.5479,W,0.01,291.01,300721,,,D*71
$GPGGA,144119.250,3554.7849,N,08403.5479,W,2,07,1.13,202.7,M,-32.1,M,0000,0000*59
$GPRMC,144119.500,A,3554.7848,N,08403.5478,W,0.01,183.95,300721,,,D*71
$GPGGA,144119.750,3554.7847,N,08403.5477,W,2,07,1.13,202.9,M,-32.1,M,0000,0000*52
$GPRMC,144120.000,A,3554.7847,N,08403.5477,W,0.01,141.54,300721,,,D*7D
$GPGGA,144120.250,3554.7846,N,08403.5476,W,2,07,1.13,203.0,M,-32.1,M,0000,0000*55
$GPRMC,144120.500,A,3554.7845,N,08403.5475,W,0.01,134.55,300721,,,D*7B
$GPGGA,144120.750,3554.7845,N,08403.5474,W,2,07,1.13,203.2,M,-32.1,M,0000,0000*53
$GPRMC,144121.000,A,3554.7845,N,08403.5474,W,0.00,31.96,300721,,,D*44
$GPGGA,144121.250,3554.7844,N,08403.5473,W,2,07,1.13,203.3,M,-32.1,M,0000,0000*50
$GPRMC,144121.500,A,3554.7842,N,08403.5472,W,0.01,153.31,300721,,,D*79
$GPGGA,144121.750,3554.7842,N,08403.5472,W,2,07,1.13,203.5,M,-32.1,M,0000,0000*54
$GPRMC,144122.000,A,3554.7842,N,08403.5471,W,0.00,68.81,300721,,,D*4F
$GPGGA,144122.250,3554.7841,N,08403.5470,W,2,07,1.13,203.6,M,-32.1,M,0000,0000*50
$GPRMC,144122.500,A,3554.7840,N,08403.5469,W,0.01,130.10,300721,,,D*74
$GPGGA,144122.750,3554.7839,N,08403.5468,W,2,07,1.13,203.8,M,-32.1,M,0000,0000*5D
$GPRMC,144123.000,A,3554.7838,N,08403.5467,W,0.01,133.75,300721,,,D*71
$GPGGA,144123.250,3554.7837,N,08403.5467,W,2,07,1.13,204.0,M,-32.1,M,0000,0000*57
$GPRMC,144123.500,A,3554.7835,N,08403.5465,W,0.01,151.55,300721,,,D*7D
$GPGGA,144123.750,3554.7835,N,08403.5465,W,2,07,1.13,204.2,M,-32.1,M,0000,0000*50
$GPRMC,144124.000,A,3554.7835,N,08403.5465,W,0.01,21.02,300721,,,D*4B
$GPGGA,144124.250,3554.7834,N,08403.5464,W,2,07,1.13,204.3,M,-32.1,M,0000,0000*53
$GPRMC,144124.500,A,3554.7834,N,08403.5463,W,0.01,119.63,300721,,,D*74
$GPGGA,144124.750,3554.7834,N,08403.5463,W,2,07,1.13,204.4,M,-32.1,M,0000,0000*56
$GPRMC,144125.000,A,3554.7833,N,08403.5463,W,0.00,252.82,300721,,,D*75
$GPGGA,144125.250,3554.7833,N,08403.5462,W,2,07,1.13,204.6,M,-32.1,M,0000,0000*56
$GPRMC,144125.500,A,3554.7831,N,08403.5461,W,0.01,142.49,300721,,,D*74
$GPGGA,144125.750,3554.7831,N,08403.5461,W,2,07,1.13,204.7,M,-32.1,M,0000,0000*53
$GPRMC,144126.000,A,3554.7831,N,08403.5461,W,0.00,215.21,300721,,,D*7C
$GPGGA,144126.250,3554.7831,N,08403.5461,W,2,07,1.13,204.8,M,-32.1,M,0000,0000*5A
$GPRMC,144126.500,A,3554.7830,N,08403.5460,W,0.01,165.60,300721,,,D*79
$GPGGA,144126.750,3554.7830,N,08403.5460,W,2,07,1.13,204.9,M,-32.1,M,0000,0000*5E
$GPRMC,144127.000,A,3554.7830,N,08403.5460,W,0.01,153.65,300721,,,D*7D
$GPGGA,144127.250,3554.7830,N,08403.5460,W,2,07,1.13,204.9,M,-32.1,M,0000,0000*5A
$GPRMC,144127.500,A,3554.7830,N,08403.5460,W,0.01,147.14,300721,,,D*7B
$GPGGA,144127.750,3554.7830,N,08403.5460,W,2,07,1.13,204.9,M,-32.1,M,0000,0000*5F
$GPRMC,144128.000,A,3554.7830,N,08403.5460,W,0.00,18.54,300721,,,D*4F
$GPGGA,144128.250,3554.7830,N,08403.5460,W,2,07,1.13,204.9,M,-32.1,M,0000,0000*55
$GPRMC,144128.500,A,3554.7830,N,08403.5460,W,0.01,150.47,300721,,,D*74
$GPGGA,144128.750,3554.7830,N,08403.5460,W,2,07,1.13,204.9,M,-32.1,M,0000,0000*50
$GPRMC,144129.000,A,3554.7830,N,08403.5460,W,0.00,0.00,300721,,,D*76
$GPGGA,144129.250,3554.7829,N,08403.5459,W,2,07,1.13,205.0,M,-32.1,M,0000,0000*5E
$GPRMC,144129.500,A,3554.7828,N,08403.5459,W,0.01,152.76,300721,,,D*76
$GPGGA,144129.750,3554.7828,N,08403.5458,W,2,07,1.13,205.1,M,-32.1,M,0000,0000*5A
$GPRMC,144130.000,A,3554.7828,N,08403.5458,W,0.00,266.44,300721,,,D*7E
$GPGGA,144130.250,3554.7828,N,08403.5459,W,2,07,1.13,205.2,M,-32.1,M,0000,0000*55
$GPRMC,144130.500,A,3554.7827,N,08403.5458,W,0.01,56.69,300721,,,D*4B
$GPGGA,144130.750,3554.7828,N,08403.5458,W,2,07,1.13,205.4,M,-32.1,M,0000,0000*57
$GPRMC,144131.000,A,3554.7827,N,08403.5457,W,0.01,107.06,300721,,,D*7C
$GPGGA,144131.250,3554.7826,N,08403.5456,W,2,07,1.13,205.5,M,-32.1,M,0000,0000*52
$GPRMC,144131.500,A,3554.7825,N,08403.5456,W,0.01,129.12,300721,,,D*73
$GPGGA,144131.750,3554.7825,N,08403.5456,W,2,07,1.13,205.7,M,-32.1,M,0000,0000*56
$GPRMC,144132.000,A,3554.7825,N,08403.5456,W,0.01,240.67,300721,,,D*7B
$GPGGA,144132.250,3554.7825,N,08403.5456,W,2,07,1.13,205.8,M,-32.1,M,0000,0000*5F
$GPRMC,144132.500,A,3554.7825,N,08403.5455,W,0.01,67.05,300721,,,D*4E
$GPGGA,144132.750,3554.7825,N,08403.5455,W,2,07,1.13,205.9,M,-32.1,M,0000,0000*58
$GPRMC,144133.000,A,3554.7825,N,08403.5456,W,0.00,141.04,300721,,,D*7C
$GPGGA,144133.250,3554.7824,N,08403.5456,W,2,07,1.13,206.0,M,-32.1,M,0000,0000*54
$GPRMC,144133.500,A,3554.7823,N,08403.5455,W,0.01,182.15,300721,,,D*72
$GPGGA,144133.750,3554.7823,N,08403.5455,W,2,07,1.13,206.1,M,-32.1,M,0000,0000*54
$GPRMC,144134.000,A,3554.7823,N,08403.5455,W,0.00,55.82,300721,,,D*44
$GPGGA,144134.250,3554.7822,N,08403.5455,W,2,07,1.13,206.3,M,-32.1,M,0000,0000*55
$GPRMC,144134.500,A,3554.7821,N,08403.5455,W,0.01,187.26,300721,,,D*72
$GPGGA,144134.750,3554.7821,N,08403.5455,W,2,07,1.13,206.4,M,-32.1,M,0000,0000*54
$GPRMC,144135.000,A,3554.7821,N,08403.5455,W,0.01,248.49,300721,,,D*7F
$GPGGA,144135.250,3554.7820,N,08403.5455,W,2,07,1.13,206.6,M,-32.1,M,0000,0000*53
$GPRMC,144135.500,A,3554.7819,N,08403.5455,W,0.01,197.77,300721,,,D*7D
$GPGGA,144135.750,3554.7819,N,08403.5455,W,2,07,1.13,206.7,M,-32.1,M,0000,0000*5D
$GPRMC,144136.000,A,3554.7818,N,08403.5455,W,0.01,200.47,300721,,,D*74
$GPGGA,144136.250,3554.7818,N,08403.5455,W,2,07,1.13,206.9,M,-32.1,M,0000,0000*54
$GPRMC,144136.500,A,3554.7817,N,08403.5455,W,0.00,251.12,300721,,,D*7B
$GPGGA,144136.750,3554.7817,N,08403.5455,W,2,07,1.13,207.0,M,-32.1,M,0000,0000*56
$GPRMC,144137.000,A,3554.7817,N,08403.5455,W,0.00,186.39,300721,,,D*7F
$GPGGA,144137.250,3554.7816,N,08403.5455,W,2,07,1.13,207.1,M,-32.1,M,0000,0000*52
$GPRMC,144137.500,A,3554.7815,N,08403.5454,W,0.00,145.12,300721,,,D*7F
$GPGGA,144137.750,3554.7815,N,08403.5455,W,2,07,1.13,207.3,M,-32.1,M,0000,0000*56
$GPRMC,144138.000,A,3554.7815,N,08403.5455,W,0.00,267.00,300721,,,D*74
$GPGGA,144138.250,3554.7815,N,08403.5455,W,2,07,1.13,207.4,M,-32.1,M,0000,0000*5B
$GPRMC,144138.500,A,3554.7815,N,08403.5455,W,0.01,206.59,300721,,,D*7B
$GPGGA,144138.750,3554.7814,N,08403.5455,W,2,07,1.13,207.5,M,-32.1,M,0000,0000*5E
$GPRMC,144139.000,A,3554.7813,N,08403.5455,W,0.01,184.33,300721,,,D*7C
$GPGGA,144139.250,3554.7813,N,08403.5455,W,2,07,1.13,207.7,M,-32.1,M,0000,0000*5F
$GPRMC,144139.500,A,3554.7812,N,08403.5455,W,0.01,256.58,300721,,,D*79
$GPGGA,144139.750,3554.7812,N,08403.5455,W,2,07,1.13,207.8,M,-32.1,M,0000,0000*54
$GPRMC,144140.000,A,3554.7812,N,08403.5455,W,0.01,240.08,300721,,,D*70
$GPGGA,144140.250,3554.7811,N,08403.5455,W,2,07,1.13,207.9,M,-32.1,M,0000,0000*5D
$GPRMC,144140.500,A,3554.7810,N,08403.5454,W,0.01,154.95,300721,,,D*74
$GPGGA,144140.750,3554.7810,N,08403.5454,W,2,07,1.13,208.1,M,-32.1,M,0000,0000*5F
$GPRMC,144141.000,A,3554.7809,N,08403.5454,W,0.01,190.39,300721,,,D*76
$GPGGA,144141.250,3554.7808,N,08403.5454,W,2,07,1.13,208.3,M,-32.1,M,0000,0000*50
$GPRMC,144141.500,A,3554.7808,N,08403.5453,W,0.01,135.11,300721,,,D*70
$GPGGA,144141.750,3554.7808,N,08403.5453,W,2,07,1.13,208.4,M,-32.1,M,0000,0000*55
$GPRMC,144142.000,A,3554.7807,N,08403.5453,W,0.01,80.24,300721,,,D*40
$GPGGA,144142.250,3554.7807,N,08403.5452,W,2,07,1.13,208.5,M,-32.1,M,0000,0000*5C
$GPRMC,144142.500,A,3554.7806,N,08403.5453,W,0.01,250.21,300721,,,D*7E
$GPGGA,144142.750,3554.7806,N,08403.5453,W,2,07,1.13,208.6,M,-32.1,M,0000,0000*5A
$GPRMC,144143.000,A,3554.7806,N,08403.5453,W,0.01,268.02,300721,,,D*70
$GPGGA,144143.250,3554.7806,N,08403.5453,W,2,07,1.13,208.6,M,-32.1,M,0000,0000*5E
$GPRMC,144143.500,A,3554.7805,N,08403.5453,W,0.01,152.40,300721,,,D*7A
$GPGGA,144143.750,3554.7805,N,08403.5453,W,2,07,1.13,208.8,M,-32.1,M,0000,0000*56
$GPRMC,144144.000,A,3554.7804,N,08403.5453,W,0.01,174.61,300721,,,D*7E
$GPGGA,144144.250,3554.7804,N,08403.5452,W,2,07,1.13,209.0,M,-32.1,M,0000,0000*5D
$GPRMC,144144.500,A,3554.7803,N,08403.5452,W,0.01,177.55,300721,,,D*79
$GPGGA,144144.750,3554.7803,N,08403.5452,W,2,07,1.13,209.1,M,-32.1,M,0000,0000*5E
$GPRMC,144145.000,A,3554.7803,N,08403.5453,W,0.01,295.43,300721,,,D*74
$GPGGA,144145.250,3554.7802,N,08403.5453,W,2,07,1.13,209.2,M,-32.1,M,0000,0000*59
$GPRMC,144145.500,A,3554.7802,N,08403.5453,W,0.01,276.54,300721,,,D*7B
