Vers 81
USE_SERIAL_FEEDBACK=true
DEVELOPMENT_MODE=false
USE_RMC_ONLY=false

$GPRMC,181902.250,A,4308.2984,N,07726.2587,W,0.01,76.32,190821,,,A*4E
$GPGGA,181902.500,4308.2983,N,07726.2587,W,1,05,2.08,150.4,M,-34.4,M,,*5A
$GPRMC,181902.750,A,4308.2983,N,07726.2587,W,0.06,109.49,190821,,,A*7E
$GPGGA,181903.000,4308.2983,N,07726.2587,W,1,05,2.08,150.0,M,-34.4,M,,*5A
$GPRMC,181903.250,A,4308.2983,N,07726.2587,W,0.06,228.45,190821,,,A*76
$GPGGA,181903.500,4308.2984,N,07726.2588,W,1,05,2.08,150.1,M,-34.4,M,,*56
$GPRMC,181903.750,A,4308.2985,N,07726.2588,W,0.02,79.92,190821,,,A*42
$GPGGA,181904.000,4308.2985,N,07726.2588,W,1,05,2.08,150.2,M,-34.4,M,,*56
$GPRMC,181904.250,A,4308.2986,N,07726.2589,W,0.06,18.77,190821,,,A*4A
$GPGGA,181904.500,4308.2987,N,07726.2589,W,1,05,2.08,150.5,M,-34.4,M,,*57
$GPRMC,181904.750,A,4308.2987,N,07726.2589,W,0.04,6.79,190821,,,A*7D
$GPGGA,181905.000,4308.2988,N,07726.2590,W,1,05,2.25,149.9,M,-34.4,M,,*5F
$GPRMC,181905.250,A,4308.2988,N,07726.2590,W,0.02,223.68,190821,,,A*7D
$GPGGA,181905.500,4308.2989,N,07726.2591,W,1,05,2.08,149.5,M,-34.4,M,,*59
$GPRMC,181905.750,A,4308.2989,N,07726.2591,W,0.02,231.83,190821,,,A*7E
$GPGGA,181906.000,4308.2990,N,07726.2591,W,1,05,2.08,149.0,M,-34.4,M,,*52
$GPRMC,181906.250,A,4308.2990,N,07726.2591,W,0.03,70.79,190821,,,A*43
$GPGGA,181906.500,4308.2990,N,07726.2591,W,1,05,2.08,148.8,M,-34.4,M,,*5E
$GPRMC,181906.750,A,4308.2990,N,07726.2591,W,0.01,297.05,190821,,,A*74
$GPGGA,181907.000,4308.2991,N,07726.2591,W,1,05,2.08,148.5,M,-34.4,M,,*56
$GPRMC,181907.250,A,4308.2991,N,07726.2591,W,0.03,87.90,190821,,,A*4C
$GPGGA,181907.500,4308.2991,N,07726.2591,W,1,05,2.08,148.2,M,-34.4,M,,*54
$GPRMC,181907.750,A,4308.2991,N,07726.2591,W,0.05,321.01,190821,,,A*78
$GPGGA,181908.000,4308.2992,N,07726.2591,W,1,05,2.08,147.8,M,-34.4,M,,*58
$GPRMC,181908.250,A,4308.2992,N,07726.2591,W,0.04,321.76,190821,,,A*70
$GPGGA,181908.500,4308.2992,N,07726.2591,W,1,05,2.08,147.6,M,-34.4,M,,*53
$GPRMC,181908.750,A,4308.2992,N,07726.2591,W,0.03,108.56,190821,,,A*79
$GPGGA,181909.000,4308.2992,N,07726.2591,W,1,05,2.08,147.3,M,-34.4,M,,*52
$GPRMC,181909.250,A,4308.2992,N,07726.2591,W,0.08,323.93,190821,,,A*74
$GPGGA,181909.500,4308.2991,N,07726.2591,W,1,05,2.08,147.0,M,-34.4,M,,*57
$GPRMC,181909.750,A,4308.2991,N,07726.2592,W,0.04,100.86,190821,,,A*7A
$GPGGA,181910.000,4308.2992,N,07726.2592,W,1,05,2.08,146.7,M,-34.4,M,,*5C
$GPRMC,181910.250,A,4308.2992,N,07726.2592,W,0.16,83.26,190821,,,A*47
$GPGGA,181910.500,4308.2992,N,07726.2592,W,1,05,2.08,146.3,M,-34.4,M,,*5D
$GPRMC,181910.750,A,4308.2992,N,07726.2593,W,0.12,97.54,190821,,,A*47
$GPGGA,181911.000,4308.2992,N,07726.2594,W,1,05,2.08,145.8,M,-34.4,M,,*57
$GPRMC,181911.250,A,4308.2992,N,07726.2594,W,0.08,92.31,190821,,,A*49
$GPGGA,181911.500,4308.2992,N,07726.2595,W,1,05,2.08,145.2,M,-34.4,M,,*59
$GPRMC,181911.750,A,4308.2992,N,07726.2595,W,0.16,119.53,190821,,,A*74
$GPGGA,181912.000,4308.2992,N,07726.2595,W,1,05,2.09,144.9,M,-34.4,M,,*54
$GPRMC,181912.250,A,4308.2992,N,07726.2596,W,0.22,158.18,190821,,,A*7C
$GPGGA,181912.500,4308.2992,N,07726.2596,W,1,05,2.09,144.5,M,-34.4,M,,*5E
$GPRMC,181912.750,A,4308.2992,N,07726.2597,W,0.21,176.79,190821,,,A*70
$GPGGA,181913.000,4308.2992,N,07726.2597,W,1,05,2.09,144.2,M,-34.4,M,,*5C
$GPRMC,181913.250,A,4308.2993,N,07726.2598,W,0.17,165.86,190821,,,A*7D
$GPGGA,181913.500,4308.2993,N,07726.2599,W,1,05,2.09,143.9,M,-34.4,M,,*5A
$GPRMC,181913.750,A,4308.2993,N,07726.2599,W,0.14,170.53,190821,,,A*76
$GPGGA,181914.000,4308.2993,N,07726.2600,W,1,05,2.09,143.7,M,-34.4,M,,*55
$GPRMC,181914.250,A,4308.2993,N,07726.2600,W,0.16,160.03,190821,,,A*71
$GPGGA,181914.500,4308.2993,N,07726.2600,W,1,05,2.09,143.6,M,-34.4,M,,*51
$GPRMC,181914.750,A,4308.2994,N,07726.2600,W,0.11,164.88,190821,,,A*73
$GPGGA,181915.000,4308.2994,N,07726.2601,W,1,05,2.09,143.6,M,-34.4,M,,*53
$GPRMC,181915.250,A,4308.2994,N,07726.2601,W,0.19,182.57,190821,,,A*74
$GPGGA,181915.500,4308.2994,N,07726.2601,W,1,05,2.09,143.6,M,-34.4,M,,*56
$GPRMC,181915.750,A,4308.2994,N,07726.2601,W,0.21,207.74,190821,,,A*75
$GPGGA,181916.000,4308.2994,N,07726.2601,W,1,05,2.09,143.7,M,-34.4,M,,*51
$GPRMC,181916.250,A,4308.2994,N,07726.2601,W,0.24,209.87,190821,,,A*74
$GPGGA,181916.500,4308.2993,N,07726.2601,W,1,05,2.09,143.8,M,-34.4,M,,*5C
$GPRMC,181916.750,A,4308.2993,N,07726.2600,W,0.21,178.00,190821,,,A*78
$GPGGA,181917.000,4308.2993,N,07726.2599,W,1,05,2.09,144.2,M,-34.4,M,,*57
$GPRMC,181917.250,A,4308.2994,N,07726.2599,W,0.14,160.40,190821,,,A*73
$GPGGA,181917.500,4308.2994,N,07726.2598,W,1,05,2.09,144.7,M,-34.4,M,,*51
$GPRMC,181917.750,A,4308.2994,N,07726.2598,W,0.07,139.40,190821,,,A*79
$GPGGA,181918.000,4308.2994,N,07726.2598,W,1,05,2.09,144.9,M,-34.4,M,,*55
$GPRMC,181918.250,A,4308.2994,N,07726.2598,W,0.04,169.29,190821,,,A*7A
$GPGGA,181918.500,4308.2994,N,07726.2598,W,1,05,2.09,145.2,M,-34.4,M,,*5A
$GPRMC,181918.750,A,4308.2994,N,07726.2598,W,0.15,269.06,190821,,,A*71
$GPGGA,181919.000,4308.2994,N,07726.2598,W,1,05,2.09,145.5,M,-34.4,M,,*59
$GPRMC,181919.250,A,4308.2994,N,07726.2597,W,0.10,282.85,190821,,,A*71
$GPGGA,181919.500,4308.2993,N,07726.2596,W,1,05,2.09,145.7,M,-34.4,M,,*57
$GPRMC,181919.750,A,4308.2992,N,07726.2595,W,0.16,149.38,190821,,,A*74
$GPGGA,181920.000,4308.2991,N,07726.2594,W,1,05,2.09,145.9,M,-34.4,M,,*56
$GPRMC,181920.250,A,4308.2991,N,07726.2593,W,0.25,138.59,190821,,,A*7F
$GPGGA,181920.500,4308.2991,N,07726.2593,W,1,05,2.09,146.1,M,-34.4,M,,*5F
$GPRMC,181920.750,A,4308.2991,N,07726.2592,W,0.20,150.46,190821,,,A*7E
$GPGGA,181921.000,4308.2990,N,07726.2592,W,1,05,2.09,146.2,M,-34.4,M,,*58
$GPRMC,181921.250,A,4308.2990,N,07726.2592,W,0.23,167.08,190821,,,A*76
$GPGGA,181921.500,4308.2990,N,07726.2591,W,1,05,2.09,146.4,M,-34.4,M,,*58
$GPRMC,181921.750,A,4308.2990,N,07726.2591,W,0.22,159.18,190821,,,A*7D
$GPGGA,181922.000,4308.2990,N,07726.2592,W,1,05,2.09,146.5,M,-34.4,M,,*5C
$GPRMC,181922.250,A,4308.2990,N,07726.2592,W,0.12,184.39,190821,,,A*78
$GPGGA,181922.500,4308.2991,N,07726.2592,W,1,05,2.09,146.5,M,-34.4,M,,*58
$GPRMC,181922.750,A,4308.2991,N,07726.2592,W,0.09,204.39,190821,,,A*7D
$GPGGA,181923.000,4308.2991,N,07726.2592,W,1,05,2.09,146.7,M,-34.4,M,,*5E
$GPRMC,181923.250,A,4308.2991,N,07726.2592,W,0.09,227.77,190821,,,A*72
$GPGGA,181923.500,4308.2991,N,07726.2592,W,1,05,2.09,146.8,M,-34.4,M,,*54
$GPRMC,181923.750,A,4308.2991,N,07726.2592,W,0.12,239.10,190821,,,A*73
$GPGGA,181924.000,4308.2991,N,07726.2592,W,1,05,2.09,146.9,M,-34.4,M,,*57
$GPRMC,181924.250,A,4308.2991,N,07726.2592,W,0.11,252.90,190821,,,A*77
$GPGGA,181924.500,4308.2992,N,07726.2592,W,1,05,2.09,147.0,M,-34.4,M,,*59
$GPRMC,181924.750,A,4308.2992,N,07726.2592,W,0.10,304.11,190821,,,A*7B
$GPGGA,181925.000,4308.2992,N,07726.2592,W,1,05,2.09,147.1,M,-34.4,M,,*5C
$GPRMC,181925.250,A,4308.2992,N,07726.2592,W,0.04,331.60,190821,,,A*7A
$GPGGA,181925.500,4308.2991,N,07726.2591,W,1,05,2.09,147.1,M,-34.4,M,,*59
$GPRMC,181925.750,A,4308.2991,N,07726.2591,W,0.06,139.40,190821,,,A*75
$GPGGA,181926.000,4308.2991,N,07726.2591,W,1,05,2.09,147.2,M,-34.4,M,,*5C
$GPRMC,181926.250,A,4308.2991,N,07726.2591,W,0.09,208.55,190821,,,A*79
$GPGGA,181926.500,4308.2990,N,07726.2591,W,1,05,2.09,147.3,M,-34.4,M,,*59
$GPRMC,181926.750,A,4308.2990,N,07726.2591,W,0.20,205.51,190821,,,A*7F
$GPGGA,181927.000,4308.2990,N,07726.2591,W,1,05,2.10,147.4,M,-34.4,M,,*52
$GPRMC,181927.250,A,4308.2990,N,07726.2591,W,0.13,205.16,190821,,,A*78
$GPGGA,181927.500,4308.2991,N,07726.2591,W,1,05,2.09,147.6,M,-34.4,M,,*5C
$GPRMC,181927.750,A,4308.2992,N,07726.2591,W,0.05,220.69,190821,,,A*77
$GPGGA,181928.000,4308.2992,N,07726.2591,W,1,05,2.10,147.7,M,-34.4,M,,*5C
$GPRMC,181928.250,A,4308.2992,N,07726.2591,W,0.04,197.98,190821,,,A*7D
$GPGGA,181928.500,4308.2991,N,07726.2590,W,1,05,2.10,147.8,M,-34.4,M,,*54
$GPRMC,181928.750,A,4308.2991,N,07726.2590,W,0.13,160.47,190821,,,A*76
$GPGGA,181929.000,4308.2991,N,07726.2590,W,1,05,2.10,147.8,M,-34.4,M,,*50
$GPRMC,181929.250,A,4308.2991,N,07726.2590,W,0.09,169.15,190821,,,A*77
$GPGGA,181929.500,4308.2991,N,07726.2590,W,1,05,2.10,147.9,M,-34.4,M,,*54
$GPRMC,181929.750,A,4308.2991,N,07726.2589,W,0.16,141.90,190821,,,A*73
$GPGGA,181930.000,4308.2991,N,07726.2589,W,1,05,2.10,148.0,M,-34.4,M,,*57
$GPRMC,181930.250,A,4308.2993,N,07726.2590,W,0.09,144.41,190821,,,A*73
$GPGGA,181930.500,4308.2994,N,07726.2591,W,1,06,1.26,147.8,M,-34.4,M,,*5C
$GPRMC,181930.750,A,4308.2997,N,07726.2592,W,0.09,8.64,190821,,,A*7E
$GPGGA,181931.000,4308.2999,N,07726.2593,W,1,06,1.60,147.8,M,-34.4,M,,*55
$GPRMC,181931.250,A,4308.3000,N,07726.2594,W,0.27,339.62,190821,,,A*71
$GPGGA,181931.500,4308.3002,N,07726.2595,W,1,06,1.26,147.7,M,-34.4,M,,*51
$GPRMC,181931.750,A,4308.3004,N,07726.2596,W,0.51,331.96,190821,,,A*70
$GPGGA,181932.000,4308.3006,N,07726.2598,W,1,06,1.26,147.7,M,-34.4,M,,*5E
$GPRMC,181932.250,A,4308.3008,N,07726.2598,W,0.75,334.37,190821,,,A*7C
$GPGGA,181932.500,4308.3010,N,07726.2598,W,1,06,1.26,147.9,M,-34.4,M,,*52
$GPRMC,181932.750,A,4308.3013,N,07726.2598,W,1.01,341.62,190821,,,A*73
$GPGGA,181933.000,4308.3016,N,07726.2598,W,1,06,1.26,148.1,M,-34.4,M,,*57
$GPRMC,181933.250,A,4308.3020,N,07726.2598,W,1.33,348.60,190821,,,A*7D
$GPGGA,181933.500,4308.3023,N,07726.2597,W,1,06,1.60,148.3,M,-34.4,M,,*5B
$GPRMC,181933.750,A,4308.3028,N,07726.2596,W,1.81,358.86,190821,,,A*7E
$GPGGA,181934.000,4308.3030,N,07726.2595,W,1,06,1.60,148.4,M,-34.4,M,,*5E
$GPRMC,181934.250,A,4308.3034,N,07726.2595,W,2.02,1.11,190821,,,A*7B
$GPGGA,181934.500,4308.3037,N,07726.2594,W,1,06,1.60,148.5,M,-34.4,M,,*5C
$GPRMC,181934.750,A,4308.3041,N,07726.2594,W,2.93,3.27,190821,,,A*72
$GPGGA,181935.000,4308.3044,N,07726.2594,W,1,06,1.60,148.6,M,-34.4,M,,*5F
$GPRMC,181935.250,A,4308.3048,N,07726.2595,W,3.40,357.41,190821,,,A*73
$GPGGA,181935.500,4308.3052,N,07726.2595,W,1,06,1.60,148.6,M,-34.4,M,,*5C
$GPRMC,181935.750,A,4308.3056,N,07726.2596,W,3.87,359.31,190821,,,A*78
$GPGGA,181936.000,4308.3060,N,07726.2597,W,1,06,1.60,148.5,M,-34.4,M,,*5A
$GPRMC,181936.250,A,4308.3065,N,07726.2597,W,4.43,0.23,190821,,,A*7C
$GPGGA,181936.500,4308.3070,N,07726.2597,W,1,06,1.60,148.3,M,-34.4,M,,*58
$GPRMC,181936.750,A,4308.3074,N,07726.2597,W,4.70,6.18,190821,,,A*77
$GPGGA,181937.000,4308.3078,N,07726.2597,W,1,06,1.60,148.5,M,-34.4,M,,*52
$GPRMC,181937.250,A,4308.3081,N,07726.2597,W,4.56,6.46,190821,,,A*76
$GPGGA,181937.500,4308.3085,N,07726.2597,W,1,06,1.60,148.7,M,-34.4,M,,*57
$GPRMC,181937.750,A,4308.3088,N,07726.2597,W,4.06,8.11,190821,,,A*73
$GPGGA,181938.000,4308.3091,N,07726.2597,W,1,06,1.60,148.8,M,-34.4,M,,*57
$GPRMC,181938.250,A,4308.3093,N,07726.2596,W,3.48,11.16,190821,,,A*40
$GPGGA,181938.500,4308.3095,N,07726.2596,W,1,06,1.60,148.9,M,-34.4,M,,*56
$GPRMC,181938.750,A,4308.3096,N,07726.2595,W,2.20,19.17,190821,,,A*45
$GPGGA,181939.000,4308.3097,N,07726.2595,W,1,06,1.26,149.1,M,-34.4,M,,*58
$GPRMC,181939.250,A,4308.3098,N,07726.2595,W,1.20,2.24,190821,,,A*76
$GPGGA,181939.500,4308.3098,N,07726.2596,W,1,06,1.60,149.4,M,-34.4,M,,*56
$GPRMC,181939.750,A,4308.3099,N,07726.2596,W,0.88,1.99,190821,,,A*77
$GPGGA,181940.000,4308.3101,N,07726.2596,W,1,06,1.60,149.6,M,-34.4,M,,*5E
$GPRMC,181940.250,A,4308.3103,N,07726.2595,W,1.23,8.81,190821,,,A*7D
$GPGGA,181940.500,4308.3105,N,07726.2595,W,1,06,1.60,149.6,M,-34.4,M,,*5C
$GPRMC,181940.750,A,4308.3107,N,07726.2595,W,1.54,7.57,190821,,,A*78
$GPGGA,181941.000,4308.3109,N,07726.2595,W,1,06,1.60,149.6,M,-34.4,M,,*54
$GPRMC,181941.250,A,4308.3111,N,07726.2595,W,1.82,11.36,190821,,,A*40
$GPGGA,181941.500,4308.3113,N,07726.2595,W,1,06,1.60,149.8,M,-34.4,M,,*54
$GPRMC,181941.750,A,4308.3116,N,07726.2595,W,2.15,12.23,190821,,,A*48
$GPGGA,181942.000,4308.3118,N,07726.2595,W,1,06,1.60,149.8,M,-34.4,M,,*59
$GPRMC,181942.250,A,4308.3120,N,07726.2595,W,2.22,21.02,190821,,,A*4C
$GPGGA,181942.500,4308.3122,N,07726.2594,W,1,06,1.26,149.6,M,-34.4,M,,*58
$GPRMC,181942.750,A,4308.3124,N,07726.2594,W,2.19,25.72,190821,,,A*47
$GPGGA,181943.000,4308.3126,N,07726.2594,W,1,06,1.26,149.6,M,-34.4,M,,*58
$GPRMC,181943.250,A,4308.3127,N,07726.2594,W,1.46,22.21,190821,,,A*48
$GPGGA,181943.500,4308.3127,N,07726.2595,W,1,06,1.26,149.5,M,-34.4,M,,*5E
$GPRMC,181943.750,A,4308.3128,N,07726.2595,W,0.84,33.96,190821,,,A*40
$GPGGA,181944.000,4308.3129,N,07726.2595,W,1,06,1.26,149.4,M,-34.4,M,,*53
$GPRMC,181944.250,A,4308.3129,N,07726.2596,W,0.64,30.93,190821,,,A*48
$GPGGA,181944.500,4308.3130,N,07726.2597,W,1,06,1.26,149.4,M,-34.4,M,,*5C
$GPRMC,181944.750,A,4308.3131,N,07726.2597,W,0.57,19.16,190821,,,A*43
$GPGGA,181945.000,4308.3132,N,07726.2598,W,1,06,1.26,149.3,M,-34.4,M,,*52
$GPRMC,181945.250,A,4308.3133,N,07726.2598,W,0.59,20.80,190821,,,A*41
$GPGGA,181945.500,4308.3134,N,07726.2598,W,1,06,1.26,149.3,M,-34.4,M,,*51
$GPRMC,181945.750,A,4308.3133,N,07726.2599,W,0.33,12.59,190821,,,A*4C
$GPGGA,181946.000,4308.3133,N,07726.2600,W,1,06,1.60,149.3,M,-34.4,M,,*50
$GPRMC,181946.250,A,4308.3132,N,07726.2601,W,0.13,254.35,190821,,,A*71
$GPGGA,181946.500,4308.3130,N,07726.2603,W,1,06,1.26,149.4,M,-34.4,M,,*50
$GPRMC,181946.750,A,4308.3128,N,07726.2604,W,0.68,210.53,190821,,,A*76
$GPGGA,181947.000,4308.3126,N,07726.2605,W,1,06,1.26,149.5,M,-34.4,M,,*54
$GPRMC,181947.250,A,4308.3126,N,07726.2606,W,0.93,210.52,190821,,,A*7B
$GPGGA,181947.500,4308.3124,N,07726.2607,W,1,06,1.26,149.5,M,-34.4,M,,*51
$GPRMC,181947.750,A,4308.3123,N,07726.2608,W,1.15,208.74,190821,,,A*77
$GPGGA,181948.000,4308.3122,N,07726.2608,W,1,06,1.26,149.6,M,-34.4,M,,*51
$GPRMC,181948.250,A,4308.3119,N,07726.2609,W,1.33,201.08,190821,,,A*73
$GPGGA,181948.500,4308.3116,N,07726.2610,W,1,07,1.21,149.6,M,-34.4,M,,*5C
$GPRMC,181948.750,A,4308.3113,N,07726.2611,W,1.73,196.96,190821,,,A*7B
$GPGGA,181949.000,4308.3111,N,07726.2611,W,1,07,1.21,149.6,M,-34.4,M,,*5E
$GPRMC,181949.250,A,4308.3109,N,07726.2612,W,1.88,194.59,190821,,,A*72
$GPGGA,181949.500,4308.3107,N,07726.2612,W,1,07,1.21,149.5,M,-34.4,M,,*5C
$GPRMC,181949.750,A,4308.3106,N,07726.2613,W,1.89,188.32,190821,,,A*78
$GPGGA,181950.000,4308.3104,N,07726.2613,W,1,07,1.21,149.5,M,-34.4,M,,*53
$GPRMC,181950.250,A,4308.3103,N,07726.2613,W,2.14,178.10,190821,,,A*78
$GPGGA,181950.500,4308.3103,N,07726.2613,W,1,07,1.21,149.5,M,-34.4,M,,*51
$GPRMC,181950.750,A,4308.3103,N,07726.2613,W,1.12,171.90,190821,,,A*79
$GPGGA,181951.000,4308.3103,N,07726.2614,W,1,07,1.21,149.5,M,-34.4,M,,*52
$GPRMC,181951.250,A,4308.3103,N,07726.2615,W,0.60,186.14,190821,,,A*7B
$GPGGA,181951.500,4308.3104,N,07726.2615,W,1,07,1.21,149.5,M,-34.4,M,,*51
$GPRMC,181951.750,A,4308.3105,N,07726.2615,W,0.29,191.17,190821,,,A*70
$GPGGA,181952.000,4308.3105,N,07726.2615,W,1,07,1.21,149.6,M,-34.4,M,,*55
$GPRMC,181952.250,A,4308.3106,N,07726.2615,W,0.09,126.90,190821,,,A*74
$GPGGA,181952.500,4308.3107,N,07726.2614,W,1,07,1.21,149.6,M,-34.4,M,,*53
$GPRMC,181952.750,A,4308.3109,N,07726.2614,W,0.39,21.30,190821,,,A*40
$GPGGA,181953.000,4308.3111,N,07726.2615,W,1,07,1.21,149.6,M,-34.4,M,,*51
$GPRMC,181953.250,A,4308.3113,N,07726.2615,W,0.93,7.23,190821,,,A*78
$GPGGA,181953.500,4308.3115,N,07726.2615,W,1,07,1.31,149.6,M,-34.4,M,,*51
$GPRMC,181953.750,A,4308.3118,N,07726.2616,W,1.36,359.26,190821,,,A*76
$GPGGA,181954.000,4308.3119,N,07726.2617,W,1,07,1.31,149.6,M,-34.4,M,,*5D
$GPRMC,181954.250,A,4308.3121,N,07726.2617,W,1.52,357.15,190821,,,A*73
$GPGGA,181954.500,4308.3123,N,07726.2618,W,1,07,1.31,149.7,M,-34.4,M,,*5F
$GPRMC,181954.750,A,4308.3124,N,07726.2618,W,1.62,355.30,190821,,,A*7A
$GPGGA,181955.000,4308.3125,N,07726.2619,W,1,07,1.31,149.8,M,-34.4,M,,*53
$GPRMC,181955.250,A,4308.3126,N,07726.2619,W,1.56,351.86,190821,,,A*73
$GPGGA,181955.500,4308.3126,N,07726.2620,W,1,07,1.31,149.8,M,-34.4,M,,*5F
$GPRMC,181955.750,A,4308.3127,N,07726.2620,W,1.43,350.49,190821,,,A*7B
$GPGGA,181956.000,4308.3127,N,07726.2620,W,1,07,1.31,149.8,M,-34.4,M,,*58
$GPRMC,181956.250,A,4308.3128,N,07726.2620,W,1.28,348.69,190821,,,A*74
$GPGGA,181956.500,4308.3128,N,07726.2621,W,1,07,1.31,149.9,M,-34.4,M,,*52
$GPRMC,181956.750,A,4308.3128,N,07726.2621,W,1.13,344.83,190821,,,A*70
$GPGGA,181957.000,4308.3129,N,07726.2621,W,1,07,1.21,150.1,M,-34.4,M,,*56
$GPRMC,181957.250,A,4308.3129,N,07726.2621,W,1.03,345.00,190821,,,A*7E
$GPGGA,181957.500,4308.3129,N,07726.2621,W,1,07,1.31,150.1,M,-34.4,M,,*52
$GPRMC,181957.750,A,4308.3130,N,07726.2621,W,1.00,344.59,190821,,,A*7D
$GPGGA,181958.000,4308.3130,N,07726.2621,W,1,07,1.21,150.2,M,-34.4,M,,*52
$GPRMC,181958.250,A,4308.3131,N,07726.2621,W,1.01,346.58,190821,,,A*74
$GPGGA,181958.500,4308.3132,N,07726.2622,W,1,07,1.31,150.3,M,-34.4,M,,*56
$GPRMC,181958.750,A,4308.3133,N,07726.2622,W,0.97,347.09,190821,,,A*7B
$GPGGA,181959.000,4308.3133,N,07726.2622,W,1,07,1.31,150.3,M,-34.4,M,,*53
$GPRMC,181959.250,A,4308.3134,N,07726.2623,W,0.90,343.78,190821,,,A*7C
$GPGGA,181959.500,4308.3134,N,07726.2624,W,1,07,1.21,150.5,M,-34.4,M,,*50
$GPRMC,181959.750,A,4308.3133,N,07726.2625,W,0.69,337.67,190821,,,A*73
$GPGGA,182000.000,4308.3133,N,07726.2625,W,1,07,1.21,150.6,M,-34.4,M,,*56
$GPRMC,182000.250,A,4308.3134,N,07726.2627,W,0.64,331.27,190821,,,A*7A
$GPGGA,182000.500,4308.3134,N,07726.2628,W,1,07,1.21,150.8,M,-34.4,M,,*57
$GPRMC,182000.750,A,4308.3135,N,07726.2629,W,0.72,329.76,190821,,,A*7A
$GPGGA,182001.000,4308.3136,N,07726.2629,W,1,07,1.31,150.8,M,-34.4,M,,*51
$GPRMC,182001.250,A,4308.3137,N,07726.2630,W,0.81,330.31,190821,,,A*73
$GPGGA,182001.500,4308.3138,N,07726.2630,W,1,07,1.31,150.8,M,-34.4,M,,*52
$GPRMC,182001.750,A,4308.3138,N,07726.2631,W,0.90,331.38,190821,,,A*70
$GPGGA,182002.000,4308.3139,N,07726.2631,W,1,07,1.31,150.8,M,-34.4,M,,*54
$GPRMC,182002.250,A,4308.3140,N,07726.2632,W,0.94,332.40,190821,,,A*72
$GPGGA,182002.500,4308.3141,N,07726.2632,W,1,07,1.31,150.9,M,-34.4,M,,*5C
$GPRMC,182002.750,A,4308.3142,N,07726.2632,W,0.94,333.83,190821,,,A*7B
$GPGGA,182003.000,4308.3143,N,07726.2632,W,1,07,1.31,150.9,M,-34.4,M,,*5A
$GPRMC,182003.250,A,4308.3145,N,07726.2632,W,1.07,335.83,190821,,,A*75
$GPGGA,182003.500,4308.3146,N,07726.2632,W,1,07,1.31,150.9,M,-34.4,M,,*5A
$GPRMC,182003.750,A,4308.3147,N,07726.2631,W,1.16,338.46,190821,,,A*75
$GPGGA,182004.000,4308.3148,N,07726.2630,W,1,07,1.31,151.0,M,-34.4,M,,*5C
$GPRMC,182004.250,A,4308.3149,N,07726.2629,W,1.15,341.31,190821,,,A*7D
$GPGGA,182004.500,4308.3149,N,07726.2629,W,1,07,1.31,151.0,M,-34.4,M,,*50
$GPRMC,182004.750,A,4308.3150,N,07726.2628,W,1.11,0.82,190821,,,A*7B
$GPGGA,182005.000,4308.3151,N,07726.2627,W,1,07,1.31,151.0,M,-34.4,M,,*53
$GPRMC,182005.250,A,4308.3152,N,07726.2627,W,1.17,3.32,190821,,,A*7C
$GPGGA,182005.500,4308.3153,N,07726.2626,W,1,07,1.31,151.0,M,-34.4,M,,*55
$GPRMC,182005.750,A,4308.3154,N,07726.2626,W,1.15,6.20,190821,,,A*7A
$GPGGA,182006.000,4308.3154,N,07726.2625,W,1,07,1.31,151.0,M,-34.4,M,,*57
$GPRMC,182006.250,A,4308.3154,N,07726.2624,W,1.07,12.41,190821,,,A*4F
$GPGGA,182006.500,4308.3154,N,07726.2623,W,1,07,1.31,150.9,M,-34.4,M,,*5C
$GPRMC,182006.750,A,4308.3155,N,07726.2623,W,1.02,15.51,190821,,,A*4F
$GPGGA,182007.000,4308.3155,N,07726.2623,W,1,07,1.21,150.9,M,-34.4,M,,*58
$GPRMC,182007.250,A,4308.3155,N,07726.2623,W,0.90,14.93,190821,,,A*4E
$GPGGA,182007.500,4308.3155,N,07726.2624,W,1,07,1.31,150.8,M,-34.4,M,,*5A
$GPRMC,182007.750,A,4308.3155,N,07726.2625,W,0.72,4.55,190821,,,A*7A
$GPGGA,182008.000,4308.3155,N,07726.2625,W,1,07,1.31,150.8,M,-34.4,M,,*51
$GPRMC,182008.250,A,4308.3156,N,07726.2627,W,0.68,347.52,190821,,,A*79
$GPGGA,182008.500,4308.3156,N,07726.2628,W,1,07,1.31,150.8,M,-34.4,M,,*5A
$GPRMC,182008.750,A,4308.3157,N,07726.2630,W,0.78,320.84,190821,,,A*70
$GPGGA,182009.000,4308.3156,N,07726.2632,W,1,07,1.21,150.8,M,-34.4,M,,*54
$GPRMC,182009.250,A,4308.3155,N,07726.2636,W,1.04,290.53,190821,,,A*7A
$GPGGA,182009.500,4308.3155,N,07726.2639,W,1,07,1.21,150.8,M,-34.4,M,,*59
$GPRMC,182009.750,A,4308.3155,N,07726.2641,W,1.33,281.22,190821,,,A*7D
$GPGGA,182010.000,4308.3154,N,07726.2644,W,1,07,1.21,150.8,M,-34.4,M,,*5F
$GPRMC,182010.250,A,4308.3152,N,07726.2649,W,1.81,267.71,190821,,,A*78
$GPGGA,182010.500,4308.3151,N,07726.2654,W,1,07,1.21,150.8,M,-34.4,M,,*5E
$GPRMC,182010.750,A,4308.3151,N,07726.2658,W,3.70,262.47,190821,,,A*72
$GPGGA,182011.000,4308.3150,N,07726.2663,W,1,07,1.21,150.8,M,-34.4,M,,*5F
$GPRMC,182011.250,A,4308.3150,N,07726.2668,W,4.47,267.39,190821,,,A*7B
$GPGGA,182011.500,4308.3151,N,07726.2673,W,1,07,1.31,150.8,M,-34.4,M,,*5B
$GPRMC,182011.750,A,4308.3151,N,07726.2679,W,5.34,277.54,190821,,,A*70
$GPGGA,182012.000,4308.3151,N,07726.2683,W,1,07,1.31,150.7,M,-34.4,M,,*5D
$GPRMC,182012.250,A,4308.3151,N,07726.2688,W,4.94,280.38,190821,,,A*71
$GPGGA,182012.500,4308.3151,N,07726.2694,W,1,07,1.31,150.6,M,-34.4,M,,*5F
$GPRMC,182012.750,A,4308.3151,N,07726.2699,W,5.29,279.23,190821,,,A*7F
$GPGGA,182013.000,4308.3152,N,07726.2705,W,1,07,1.31,150.6,M,-34.4,M,,*51
$GPRMC,182013.250,A,4308.3152,N,07726.2711,W,5.74,280.26,190821,,,A*72
$GPGGA,182013.500,4308.3153,N,07726.2717,W,1,07,1.31,150.6,M,-34.4,M,,*56
$GPRMC,182013.750,A,4308.3153,N,07726.2722,W,5.79,282.16,190821,,,A*7A
$GPGGA,182014.000,4308.3154,N,07726.2728,W,1,07,1.31,150.5,M,-34.4,M,,*5C
$GPRMC,182014.250,A,4308.3155,N,07726.2733,W,5.62,284.80,190821,,,A*7D
$GPGGA,182014.500,4308.3156,N,07726.2739,W,1,07,1.31,150.5,M,-34.4,M,,*5B
$GPRMC,182014.750,A,4308.3157,N,07726.2745,W,5.87,286.31,190821,,,A*78
$GPGGA,182015.000,4308.3158,N,07726.2751,W,1,07,1.31,150.4,M,-34.4,M,,*5E
$GPRMC,182015.250,A,4308.3160,N,07726.2756,W,5.97,291.12,190821,,,A*7C
$GPGGA,182015.500,4308.3161,N,07726.2762,W,1,07,1.31,150.3,M,-34.4,M,,*56
$GPRMC,182015.750,A,4308.3163,N,07726.2767,W,5.88,293.01,190821,,,A*76
$GPGGA,182016.000,4308.3164,N,07726.2773,W,1,07,1.31,150.2,M,-34.4,M,,*54
$GPRMC,182016.250,A,4308.3165,N,07726.2780,W,6.34,290.02,190821,,,A*7B
$GPGGA,182016.500,4308.3166,N,07726.2788,W,1,07,1.31,150.4,M,-34.4,M,,*51
$GPRMC,182016.750,A,4308.3168,N,07726.2795,W,6.81,288.03,190821,,,A*71
$GPGGA,182017.000,4308.3169,N,07726.2801,W,1,07,1.31,150.4,M,-34.4,M,,*54
$GPRMC,182017.250,A,4308.3171,N,07726.2808,W,6.78,291.43,190821,,,A*7C
$GPGGA,182017.500,4308.3173,N,07726.2815,W,1,07,1.31,150.4,M,-34.4,M,,*5F
$GPRMC,182017.750,A,4308.3174,N,07726.2822,W,6.84,290.03,190821,,,A*72
$GPGGA,182018.000,4308.3176,N,07726.2828,W,1,07,1.31,150.6,M,-34.4,M,,*5C
$GPRMC,182018.250,A,4308.3178,N,07726.2836,W,7.37,292.17,190821,,,A*7F
$GPGGA,182018.500,4308.3180,N,07726.2844,W,1,07,1.31,150.7,M,-34.4,M,,*5B
$GPRMC,182018.750,A,4308.3182,N,07726.2851,W,7.94,293.48,190821,,,A*7C
$GPGGA,182019.000,4308.3185,N,07726.2858,W,1,07,1.31,150.8,M,-34.4,M,,*58
$GPRMC,182019.250,A,4308.3187,N,07726.2866,W,8.37,294.42,190821,,,A*72
$GPGGA,182019.500,4308.3190,N,07726.2874,W,1,07,1.31,150.8,M,-34.4,M,,*57
$GPRMC,182019.750,A,4308.3193,N,07726.2881,W,8.87,295.88,190821,,,A*77
$GPGGA,182020.000,4308.3196,N,07726.2889,W,1,07,1.31,150.8,M,-34.4,M,,*5C
$GPRMC,182020.250,A,4308.3198,N,07726.2896,W,8.56,296.42,190821,,,A*7C
$GPGGA,182020.500,4308.3201,N,07726.2903,W,1,07,1.31,150.9,M,-34.4,M,,*56
$GPRMC,182020.750,A,4308.3205,N,07726.2910,W,8.70,299.51,190821,,,A*78
$GPGGA,182021.000,4308.3208,N,07726.2917,W,1,07,1.31,150.9,M,-34.4,M,,*5E
$GPRMC,182021.250,A,4308.3211,N,07726.2925,W,8.75,299.61,190821,,,A*79
$GPGGA,182021.500,4308.3214,N,07726.2933,W,1,07,1.31,150.9,M,-34.4,M,,*50
$GPRMC,182021.750,A,4308.3218,N,07726.2942,W,9.59,298.79,190821,,,A*73
$GPGGA,182022.000,4308.3221,N,07726.2950,W,1,07,1.31,150.9,M,-34.4,M,,*55
$GPRMC,182022.250,A,4308.3224,N,07726.2958,W,9.54,299.13,190821,,,A*71
$GPGGA,182022.500,4308.3228,N,07726.2966,W,1,07,1.31,150.8,M,-34.4,M,,*5D
$GPRMC,182022.750,A,4308.3232,N,07726.2974,W,9.68,300.80,190821,,,A*79
$GPGGA,182023.000,4308.3235,N,07726.2982,W,1,07,1.31,150.8,M,-34.4,M,,*5F
$GPRMC,182023.250,A,4308.3239,N,07726.2991,W,10.51,301.91,190821,,,A*4E
$GPGGA,182023.500,4308.3244,N,07726.3001,W,1,07,1.31,150.8,M,-34.4,M,,*5F
$GPRMC,182023.750,A,4308.3249,N,07726.3010,W,11.36,303.69,190821,,,A*48
$GPGGA,182024.000,4308.3254,N,07726.3020,W,1,07,1.21,150.8,M,-34.4,M,,*5E
$GPRMC,182024.250,A,4308.3259,N,07726.3030,W,11.90,302.94,190821,,,A*46
$GPGGA,182024.500,4308.3265,N,07726.3039,W,1,07,1.31,150.9,M,-34.4,M,,*51
$GPRMC,182024.750,A,4308.3270,N,07726.3048,W,12.15,303.05,190821,,,A*40
$GPGGA,182025.000,4308.3275,N,07726.3057,W,1,07,1.31,150.9,M,-34.4,M,,*5C
$GPRMC,182025.250,A,4308.3281,N,07726.3067,W,12.39,303.99,190821,,,A*4C
$GPGGA,182025.500,4308.3287,N,07726.3077,W,1,07,1.32,151.0,M,-34.4,M,,*5D
$GPRMC,182025.750,A,4308.3292,N,07726.3089,W,12.63,303.69,190821,,,A*4B
$GPGGA,182026.000,4308.3297,N,07726.3099,W,1,07,1.31,151.1,M,-34.4,M,,*58
$GPRMC,182026.250,A,4308.3302,N,07726.3111,W,13.11,303.22,190821,,,A*4E
$GPGGA,182026.500,4308.3307,N,07726.3123,W,1,07,1.31,151.4,M,-34.4,M,,*50
$GPRMC,182026.750,A,4308.3312,N,07726.3134,W,13.54,302.54,190821,,,A*4C
$GPGGA,182027.000,4308.3318,N,07726.3145,W,1,07,1.31,151.6,M,-34.4,M,,*58
$GPRMC,182027.250,A,4308.3323,N,07726.3156,W,13.92,302.12,190821,,,A*46
$GPGGA,182027.500,4308.3329,N,07726.3169,W,1,07,1.32,151.8,M,-34.4,M,,*5C
$GPRMC,182027.750,A,4308.3334,N,07726.3181,W,14.37,302.47,190821,,,A*47
$GPGGA,182028.000,4308.3340,N,07726.3193,W,1,07,1.32,151.9,M,-34.4,M,,*5D
$GPRMC,182028.250,A,4308.3345,N,07726.3205,W,14.50,301.65,190821,,,A*46
$GPGGA,182028.500,4308.3350,N,07726.3217,W,1,07,1.32,152.0,M,-34.4,M,,*5C
$GPRMC,182028.750,A,4308.3355,N,07726.3230,W,14.53,300.74,190821,,,A*46
$GPGGA,182029.000,4308.3361,N,07726.3242,W,1,07,1.32,152.2,M,-34.4,M,,*58
$GPRMC,182029.250,A,4308.3367,N,07726.3255,W,14.55,301.06,190821,,,A*42
$GPGGA,182029.500,4308.3373,N,07726.3268,W,1,07,1.32,152.4,M,-34.4,M,,*50
$GPRMC,182029.750,A,4308.3379,N,07726.3281,W,14.52,301.34,190821,,,A*47
$GPGGA,182030.000,4308.3385,N,07726.3294,W,1,07,1.32,152.6,M,-34.4,M,,*55
$GPRMC,182030.250,A,4308.3390,N,07726.3306,W,14.76,301.42,190821,,,A*44
$GPGGA,182030.500,4308.3396,N,07726.3319,W,1,08,1.18,153.0,M,-34.4,M,,*56
$GPRMC,182030.750,A,4308.3403,N,07726.3330,W,14.82,302.75,190821,,,A*45
$GPGGA,182031.000,4308.3409,N,07726.3342,W,1,08,1.18,153.1,M,-34.4,M,,*5C
$GPRMC,182031.250,A,4308.3416,N,07726.3352,W,14.78,303.91,190821,,,A*4F
$GPGGA,182031.500,4308.3423,N,07726.3362,W,1,08,1.18,153.1,M,-34.4,M,,*53
$GPRMC,182031.750,A,4308.3429,N,07726.3372,W,14.71,305.00,190821,,,A*43
$GPGGA,182032.000,4308.3435,N,07726.3385,W,1,08,1.18,153.2,M,-34.4,M,,*58
$GPRMC,182032.250,A,4308.3441,N,07726.3396,W,14.62,305.26,190821,,,A*47
$GPGGA,182032.500,4308.3448,N,07726.3407,W,1,08,1.18,153.3,M,-34.4,M,,*5B
$GPRMC,182032.750,A,4308.3455,N,07726.3418,W,14.60,304.77,190821,,,A*41
$GPGGA,182033.000,4308.3462,N,07726.3430,W,1,08,1.18,153.5,M,-34.4,M,,*55
$GPRMC,182033.250,A,4308.3468,N,07726.3441,W,14.63,304.98,190821,,,A*45
$GPGGA,182033.500,4308.3474,N,07726.3453,W,1,08,1.18,153.7,M,-34.4,M,,*50
$GPRMC,182033.750,A,4308.3480,N,07726.3465,W,14.88,304.55,190821,,,A*44
$GPGGA,182034.000,4308.3486,N,07726.3477,W,1,08,1.18,153.9,M,-34.4,M,,*57
$GPRMC,182034.250,A,4308.3492,N,07726.3489,W,14.65,303.58,190821,,,A*4E
$GPGGA,182034.500,4308.3497,N,07726.3501,W,1,08,1.18,154.0,M,-34.4,M,,*5C
$GPRMC,182034.750,A,4308.3502,N,07726.3513,W,14.67,303.08,190821,,,A*46
$GPGGA,182035.000,4308.3508,N,07726.3525,W,1,08,1.18,154.0,M,-34.4,M,,*59
$GPRMC,182035.250,A,4308.3513,N,07726.3536,W,14.79,303.40,190821,,,A*46
$GPGGA,182035.500,4308.3519,N,07726.3548,W,1,08,1.18,154.1,M,-34.4,M,,*56
$GPRMC,182035.750,A,4308.3526,N,07726.3560,W,15.16,305.49,190821,,,A*41
$GPGGA,182036.000,4308.3533,N,07726.3571,W,1,08,1.18,154.5,M,-34.4,M,,*56
$GPRMC,182036.250,A,4308.3540,N,07726.3582,W,15.28,309.91,190821,,,A*4F
$GPGGA,182036.500,4308.3547,N,07726.3593,W,1,08,1.18,154.9,M,-34.4,M,,*50
$GPRMC,182036.750,A,4308.3554,N,07726.3603,W,15.47,311.69,190821,,,A*42
$GPGGA,182037.000,4308.3561,N,07726.3614,W,1,08,1.18,155.0,M,-34.4,M,,*54
$GPRMC,182037.250,A,4308.3567,N,07726.3625,W,15.51,312.06,190821,,,A*4F
$GPGGA,182037.500,4308.3574,N,07726.3636,W,1,08,1.18,155.2,M,-34.4,M,,*57
$GPRMC,182037.750,A,4308.3582,N,07726.3646,W,15.54,314.02,190821,,,A*43
$GPGGA,182038.000,4308.3589,N,07726.3656,W,1,08,1.18,155.5,M,-34.4,M,,*5E
$GPRMC,182038.250,A,4308.3598,N,07726.3666,W,15.56,318.38,190821,,,A*47
$GPGGA,182038.500,4308.3607,N,07726.3675,W,1,08,1.18,155.8,M,-34.4,M,,*52
$GPRMC,182038.750,A,4308.3616,N,07726.3683,W,15.83,324.32,190821,,,A*41
$GPGGA,182039.000,4308.3624,N,07726.3690,W,1,08,1.18,156.2,M,-34.4,M,,*55
$GPRMC,182039.250,A,4308.3634,N,07726.3698,W,15.87,326.60,190821,,,A*4E
$GPGGA,182039.500,4308.3644,N,07726.3705,W,1,08,1.18,156.6,M,-34.4,M,,*5F
$GPRMC,182039.750,A,4308.3653,N,07726.3710,W,15.79,329.06,190821,,,A*45
$GPGGA,182040.000,4308.3662,N,07726.3716,W,1,08,1.18,156.9,M,-34.4,M,,*5D
$GPRMC,182040.250,A,4308.3671,N,07726.3720,W,15.37,331.66,190821,,,A*48
$GPGGA,182040.500,4308.3680,N,07726.3725,W,1,08,1.18,157.2,M,-34.4,M,,*5E
$GPRMC,182040.750,A,4308.3689,N,07726.3730,W,15.03,335.33,190821,,,A*48
$GPGGA,182041.000,4308.3699,N,07726.3735,W,1,08,1.18,157.5,M,-34.4,M,,*54
$GPRMC,182041.250,A,4308.3709,N,07726.3739,W,15.04,340.08,190821,,,A*41
$GPGGA,182041.500,4308.3718,N,07726.3742,W,1,08,1.18,157.7,M,-34.4,M,,*5B
$GPRMC,182041.750,A,4308.3727,N,07726.3746,W,15.24,343.28,190821,,,A*43
$GPGGA,182042.000,4308.3737,N,07726.3749,W,1,08,1.18,157.9,M,-34.4,M,,*55
$GPRMC,182042.250,A,4308.3748,N,07726.3752,W,15.61,346.07,190821,,,A*40
$GPGGA,182042.500,4308.3759,N,07726.3754,W,1,08,1.18,158.2,M,-34.4,M,,*50
$GPRMC,182042.750,A,4308.3770,N,07726.3757,W,15.68,349.02,190821,,,A*48
$GPGGA,182043.000,4308.3780,N,07726.3759,W,1,08,1.18,158.5,M,-34.4,M,,*5A
$GPRMC,182043.250,A,4308.3791,N,07726.3762,W,15.90,349.69,190821,,,A*4F
$GPGGA,182043.500,4308.3802,N,07726.3764,W,1,08,1.18,158.8,M,-34.4,M,,*59
$GPRMC,182043.750,A,4308.3813,N,07726.3765,W,15.84,351.68,190821,,,A*45
$GPGGA,182044.000,4308.3824,N,07726.3767,W,1,08,1.18,159.0,M,-34.4,M,,*55
$GPRMC,182044.250,A,4308.3835,N,07726.3767,W,15.84,354.97,190821,,,A*44
$GPGGA,182044.500,4308.3847,N,07726.3767,W,1,08,1.18,159.3,M,-34.4,M,,*56
$GPRMC,182044.750,A,4308.3858,N,07726.3767,W,16.32,359.46,190821,,,A*45
$GPGGA,182045.000,4308.3870,N,07726.3766,W,1,08,1.18,159.6,M,-34.4,M,,*52
$GPRMC,182045.250,A,4308.3882,N,07726.3765,W,16.88,2.37,190821,,,A*4E
$GPGGA,182045.500,4308.3894,N,07726.3764,W,1,08,1.18,160.0,M,-34.4,M,,*53
$GPRMC,182045.750,A,4308.3906,N,07726.3761,W,17.43,4.58,190821,,,A*4B
$GPGGA,182046.000,4308.3919,N,07726.3759,W,1,08,1.18,160.3,M,-34.4,M,,*5C
$GPRMC,182046.250,A,4308.3931,N,07726.3756,W,17.84,6.37,190821,,,A*4D
$GPGGA,182046.500,4308.3944,N,07726.3753,W,1,08,1.18,160.4,M,-34.4,M,,*5C
$GPRMC,182046.750,A,4308.3956,N,07726.3750,W,18.13,8.20,190821,,,A*46
$GPGGA,182047.000,4308.3969,N,07726.3747,W,1,08,1.18,160.6,M,-34.4,M,,*50
$GPRMC,182047.250,A,4308.3982,N,07726.3743,W,18.50,10.12,190821,,,A*76
$GPGGA,182047.500,4308.3995,N,07726.3739,W,1,08,1.18,160.8,M,-34.4,M,,*51
$GPRMC,182047.750,A,4308.4008,N,07726.3735,W,18.58,10.59,190821,,,A*79
$GPGGA,182048.000,4308.4021,N,07726.3732,W,1,08,1.18,160.9,M,-34.4,M,,*50
$GPRMC,182048.250,A,4308.4034,N,07726.3728,W,18.78,10.88,190821,,,A*7E
$GPGGA,182048.500,4308.4047,N,07726.3724,W,1,08,1.18,161.1,M,-34.4,M,,*5B
$GPRMC,182048.750,A,4308.4060,N,07726.3720,W,18.87,11.84,190821,,,A*7F
$GPGGA,182049.000,4308.4073,N,07726.3716,W,1,08,1.18,161.3,M,-34.4,M,,*5B
$GPRMC,182049.250,A,4308.4086,N,07726.3713,W,18.96,12.10,190821,,,A*7D
$GPGGA,182049.500,4308.4100,N,07726.3709,W,1,08,1.18,161.4,M,-34.4,M,,*52
$GPRMC,182049.750,A,4308.4113,N,07726.3705,W,19.06,11.82,190821,,,A*72
$GPGGA,182050.000,4308.4126,N,07726.3701,W,1,08,1.18,161.6,M,-34.4,M,,*51
$GPRMC,182050.250,A,4308.4140,N,07726.3697,W,19.13,11.77,190821,,,A*7D
$GPGGA,182050.500,4308.4153,N,07726.3694,W,1,08,1.18,161.8,M,-34.4,M,,*55
$GPRMC,182050.750,A,4308.4167,N,07726.3690,W,19.38,10.93,190821,,,A*78
$GPGGA,182051.000,4308.4180,N,07726.3687,W,1,08,1.18,161.9,M,-34.4,M,,*5C
$GPRMC,182051.250,A,4308.4193,N,07726.3684,W,19.34,10.27,190821,,,A*71
$GPGGA,182051.500,4308.4207,N,07726.3681,W,1,08,1.18,162.0,M,-34.4,M,,*59
$GPRMC,182051.750,A,4308.4220,N,07726.3678,W,19.24,9.65,190821,,,A*43
$GPGGA,182052.000,4308.4233,N,07726.3675,W,1,08,1.18,162.1,M,-34.4,M,,*52
$GPRMC,182052.250,A,4308.4245,N,07726.3672,W,18.74,9.44,190821,,,A*4B
$GPGGA,182052.500,4308.4258,N,07726.3669,W,1,08,1.18,162.1,M,-34.4,M,,*57
$GPRMC,182052.750,A,4308.4271,N,07726.3666,W,18.61,9.16,190821,,,A*4F
$GPGGA,182053.000,4308.4284,N,07726.3663,W,1,08,1.18,162.0,M,-34.4,M,,*59
$GPRMC,182053.250,A,4308.4297,N,07726.3660,W,18.86,9.02,190821,,,A*49
$GPGGA,182053.500,4308.4311,N,07726.3657,W,1,08,1.18,161.9,M,-34.4,M,,*5C
$GPRMC,182053.750,A,4308.4324,N,07726.3654,W,19.07,8.78,190821,,,A*46
$GPGGA,182054.000,4308.4338,N,07726.3651,W,1,08,1.18,162.1,M,-34.4,M,,*58
$GPRMC,182054.250,A,4308.4351,N,07726.3648,W,19.09,8.69,190821,,,A*45
$GPGGA,182054.500,4308.4364,N,07726.3645,W,1,08,1.18,162.2,M,-34.4,M,,*52
$GPRMC,182054.750,A,4308.4378,N,07726.3643,W,18.82,8.29,190821,,,A*46
$GPGGA,182055.000,4308.4391,N,07726.3640,W,1,08,1.18,162.5,M,-34.4,M,,*5E
$GPRMC,182055.250,A,4308.4404,N,07726.3637,W,18.71,8.18,190821,,,A*43
$GPGGA,182055.500,4308.4416,N,07726.3634,W,1,08,1.18,162.6,M,-34.4,M,,*53
$GPRMC,182055.750,A,4308.4428,N,07726.3630,W,17.91,9.76,190821,,,A*47
$GPGGA,182056.000,4308.4440,N,07726.3627,W,1,08,1.18,162.6,M,-34.4,M,,*54
$GPRMC,182056.250,A,4308.4452,N,07726.3623,W,17.25,10.43,190821,,,A*7F
$GPGGA,182056.500,4308.4464,N,07726.3620,W,1,08,1.18,162.9,M,-34.4,M,,*5F
$GPRMC,182056.750,A,4308.4477,N,07726.3616,W,16.26,10.21,190821,,,A*7D
$GPGGA,182057.000,4308.4490,N,07726.3613,W,1,08,1.18,163.1,M,-34.4,M,,*59
$GPRMC,182057.250,A,4308.4501,N,07726.3611,W,15.42,8.87,190821,,,A*4A
$GPGGA,182057.500,4308.4511,N,07726.3607,W,1,08,1.18,163.3,M,-34.4,M,,*53
$GPRMC,182057.750,A,4308.4519,N,07726.3604,W,13.85,9.14,190821,,,A*44
$GPGGA,182058.000,4308.4526,N,07726.3601,W,1,08,1.18,163.3,M,-34.4,M,,*5B
$GPRMC,182058.250,A,4308.4534,N,07726.3599,W,12.13,9.53,190821,,,A*4B
$GPGGA,182058.500,4308.4541,N,07726.3596,W,1,08,1.18,163.5,M,-34.4,M,,*54
$GPRMC,182058.750,A,4308.4549,N,07726.3594,W,10.85,9.60,190821,,,A*44
$GPGGA,182059.000,4308.4555,N,07726.3592,W,1,08,1.18,163.7,M,-34.4,M,,*53
$GPRMC,182059.250,A,4308.4561,N,07726.3590,W,9.26,10.21,190821,,,A*42
$GPGGA,182059.500,4308.4565,N,07726.3588,W,1,08,1.18,163.9,M,-34.4,M,,*50
$GPRMC,182059.750,A,4308.4569,N,07726.3587,W,7.17,8.86,190821,,,A*71
$GPGGA,182100.000,4308.4572,N,07726.3587,W,1,08,1.18,164.0,M,-34.4,M,,*5F
$GPRMC,182100.250,A,4308.4576,N,07726.3586,W,5.86,5.64,190821,,,A*7D
$GPGGA,182100.500,4308.4578,N,07726.3586,W,1,08,1.18,164.1,M,-34.4,M,,*50
$GPRMC,182100.750,A,4308.4580,N,07726.3587,W,4.49,0.39,190821,,,A*7F
$GPGGA,182101.000,4308.4583,N,07726.3588,W,1,08,1.18,163.9,M,-34.4,M,,*51
$GPRMC,182101.250,A,4308.4586,N,07726.3590,W,4.25,355.67,190821,,,A*79
$GPGGA,182101.500,4308.4589,N,07726.3591,W,1,08,1.18,163.8,M,-34.4,M,,*57
$GPRMC,182101.750,A,4308.4593,N,07726.3592,W,4.32,353.35,190821,,,A*7D
$GPGGA,182102.000,4308.4597,N,07726.3593,W,1,08,1.18,164.0,M,-34.4,M,,*53
$GPRMC,182102.250,A,4308.4601,N,07726.3596,W,5.18,345.38,190821,,,A*74
$GPGGA,182102.500,4308.4605,N,07726.3598,W,1,08,1.18,164.0,M,-34.4,M,,*55
$GPRMC,182102.750,A,4308.4609,N,07726.3600,W,6.32,340.67,190821,,,A*71
$GPGGA,182103.000,4308.4614,N,07726.3602,W,1,08,1.18,164.2,M,-34.4,M,,*53
$GPRMC,182103.250,A,4308.4618,N,07726.3607,W,7.45,330.76,190821,,,A*74
$GPGGA,182103.500,4308.4624,N,07726.3612,W,1,08,1.18,164.0,M,-34.4,M,,*56
$GPRMC,182103.750,A,4308.4628,N,07726.3619,W,9.10,320.66,190821,,,A*73
$GPGGA,182104.000,4308.4633,N,07726.3625,W,1,08,1.11,163.9,M,-34.4,M,,*51
$GPRMC,182104.250,A,4308.4637,N,07726.3633,W,9.73,314.73,190821,,,A*71
$GPGGA,182104.500,4308.4639,N,07726.3642,W,1,08,1.18,163.8,M,-34.4,M,,*57
$GPRMC,182104.750,A,4308.4642,N,07726.3653,W,11.04,306.14,190821,,,A*4B
$GPGGA,182105.000,4308.4646,N,07726.3664,W,1,08,1.18,164.0,M,-34.4,M,,*50
$GPRMC,182105.250,A,4308.4650,N,07726.3675,W,11.88,298.25,190821,,,A*48
$GPGGA,182105.500,4308.4653,N,07726.3687,W,1,08,1.18,163.8,M,-34.4,M,,*53
$GPRMC,182105.750,A,4308.4654,N,07726.3699,W,12.55,289.13,190821,,,A*4D
$GPGGA,182106.000,4308.4655,N,07726.3714,W,1,08,1.18,163.3,M,-34.4,M,,*53
$GPRMC,182106.250,A,4308.4657,N,07726.3729,W,13.36,284.73,190821,,,A*4D
$GPGGA,182106.500,4308.4658,N,07726.3744,W,1,08,1.18,162.6,M,-34.4,M,,*5A
$GPRMC,182106.750,A,4308.4659,N,07726.3759,W,13.87,280.76,190821,,,A*4A
$GPGGA,182107.000,4308.4659,N,07726.3775,W,1,08,1.18,162.2,M,-34.4,M,,*59
$GPRMC,182107.250,A,4308.4659,N,07726.3790,W,13.99,278.17,190821,,,A*44
$GPGGA,182107.500,4308.4659,N,07726.3805,W,1,08,1.18,161.8,M,-34.4,M,,*5D
$GPRMC,182107.750,A,4308.4659,N,07726.3820,W,14.09,276.57,190821,,,A*41
$GPGGA,182108.000,4308.4659,N,07726.3834,W,1,08,1.18,161.6,M,-34.4,M,,*5B
$GPRMC,182108.250,A,4308.4660,N,07726.3849,W,14.19,275.73,190821,,,A*4A
$GPGGA,182108.500,4308.4660,N,07726.3864,W,1,08,1.18,161.3,M,-34.4,M,,*54
$GPRMC,182108.750,A,4308.4659,N,07726.3879,W,14.27,275.32,190821,,,A*4E
$GPGGA,182109.000,4308.4660,N,07726.3894,W,1,08,1.18,161.0,M,-34.4,M,,*5C
$GPRMC,182109.250,A,4308.4660,N,07726.3909,W,14.66,275.61,190821,,,A*45
$GPGGA,182109.500,4308.4660,N,07726.3925,W,1,08,1.18,160.8,M,-34.4,M,,*5B
$GPRMC,182109.750,A,4308.4661,N,07726.3940,W,15.22,275.53,190821,,,A*4C
$GPGGA,182110.000,4308.4662,N,07726.3956,W,1,08,1.11,160.7,M,-34.4,M,,*56
$GPRMC,182110.250,A,4308.4663,N,07726.3972,W,16.05,275.59,190821,,,A*4E
$GPGGA,182110.500,4308.4664,N,07726.3990,W,1,08,1.18,160.5,M,-34.4,M,,*54
$GPRMC,182110.750,A,4308.4666,N,07726.4008,W,17.51,276.25,190821,,,A*45
$GPGGA,182111.000,4308.4666,N,07726.4026,W,1,08,1.11,160.2,M,-34.4,M,,*5F
$GPRMC,182111.250,A,4308.4667,N,07726.4046,W,18.88,275.29,190821,,,A*4E
$GPGGA,182111.500,4308.4669,N,07726.4066,W,1,08,1.18,159.9,M,-34.4,M,,*59
$GPRMC,182111.750,A,4308.4669,N,07726.4087,W,20.05,274.96,190821,,,A*43
$GPGGA,182112.000,4308.4671,N,07726.4107,W,1,08,1.11,159.7,M,-34.4,M,,*57
$GPRMC,182112.250,A,4308.4671,N,07726.4128,W,20.85,274.92,190821,,,A*44
$GPGGA,182112.500,4308.4673,N,07726.4151,W,1,08,1.18,159.6,M,-34.4,M,,*5B
$GPRMC,182112.750,A,4308.4674,N,07726.4173,W,21.98,275.86,190821,,,A*43
$GPGGA,182113.000,4308.4676,N,07726.4197,W,1,08,1.11,159.8,M,-34.4,M,,*57
$GPRMC,182113.250,A,4308.4678,N,07726.4219,W,22.80,276.52,190821,,,A*44
$GPGGA,182113.500,4308.4680,N,07726.4242,W,1,08,1.18,159.8,M,-34.4,M,,*59
$GPRMC,182113.750,A,4308.4682,N,07726.4265,W,23.35,277.24,190821,,,A*40
$GPGGA,182114.000,4308.4685,N,07726.4288,W,1,08,1.18,159.9,M,-34.4,M,,*59
$GPRMC,182114.250,A,4308.4687,N,07726.4312,W,23.79,278.09,190821,,,A*4E
$GPGGA,182114.500,4308.4690,N,07726.4336,W,1,08,1.18,160.1,M,-34.4,M,,*5E
$GPRMC,182114.750,A,4308.4693,N,07726.4361,W,24.55,278.48,190821,,,A*46
$GPGGA,182115.000,4308.4694,N,07726.4388,W,1,08,1.11,160.7,M,-34.4,M,,*54
$GPRMC,182115.250,A,4308.4696,N,07726.4414,W,25.36,278.89,190821,,,A*4B
$GPGGA,182115.500,4308.4699,N,07726.4439,W,1,08,1.18,160.9,M,-34.4,M,,*56
$GPRMC,182115.750,A,4308.4701,N,07726.4465,W,26.04,278.36,190821,,,A*41
$GPGGA,182116.000,4308.4703,N,07726.4490,W,1,08,1.18,161.1,M,-34.4,M,,*58
$GPRMC,182116.250,A,4308.4706,N,07726.4515,W,26.67,277.30,190821,,,A*4A
$GPGGA,182116.500,4308.4708,N,07726.4541,W,1,08,1.18,161.3,M,-34.4,M,,*59
$GPRMC,182116.750,A,4308.4710,N,07726.4566,W,26.57,277.32,190821,,,A*4D
$GPGGA,182117.000,4308.4712,N,07726.4591,W,1,08,1.18,161.5,M,-34.4,M,,*5D
$GPRMC,182117.250,A,4308.4714,N,07726.4616,W,26.56,276.92,190821,,,A*43
$GPGGA,182117.500,4308.4716,N,07726.4642,W,1,08,1.18,161.6,M,-34.4,M,,*52
$GPRMC,182117.750,A,4308.4718,N,07726.4668,W,27.01,276.32,190821,,,A*4A
$GPGGA,182118.000,4308.4720,N,07726.4694,W,1,08,1.11,161.7,M,-34.4,M,,*5E
$GPRMC,182118.250,A,4308.4722,N,07726.4720,W,27.27,275.88,190821,,,A*42
$GPGGA,182118.500,4308.4723,N,07726.4746,W,1,08,1.18,161.8,M,-34.4,M,,*50
$GPRMC,182118.750,A,4308.4725,N,07726.4773,W,27.34,275.30,190821,,,A*47
$GPGGA,182119.000,4308.4727,N,07726.4800,W,1,08,1.18,161.9,M,-34.4,M,,*5C
$GPRMC,182119.250,A,4308.4729,N,07726.4827,W,27.89,274.77,190821,,,A*45
$GPGGA,182119.500,4308.4731,N,07726.4854,W,1,08,1.18,161.9,M,-34.4,M,,*5F
$GPRMC,182119.750,A,4308.4733,N,07726.4881,W,28.28,274.73,190821,,,A*47
$GPGGA,182120.000,4308.4734,N,07726.4909,W,1,08,1.18,162.0,M,-34.4,M,,*56
$GPRMC,182120.250,A,4308.4736,N,07726.4936,W,28.25,274.99,190821,,,A*49
$GPGGA,182120.500,4308.4738,N,07726.4964,W,1,08,1.18,162.1,M,-34.4,M,,*55
$GPRMC,182120.750,A,4308.4740,N,07726.4991,W,28.35,275.59,190821,,,A*4C
$GPGGA,182121.000,4308.4742,N,07726.5019,W,1,08,1.11,162.3,M,-34.4,M,,*55
$GPRMC,182121.250,A,4308.4745,N,07726.5046,W,28.45,276.48,190821,,,A*4B
$GPGGA,182121.500,4308.4747,N,07726.5074,W,1,08,1.18,162.3,M,-34.4,M,,*57
$GPRMC,182121.750,A,4308.4750,N,07726.5101,W,28.53,277.34,190821,,,A*45
$GPGGA,182122.000,4308.4752,N,07726.5129,W,1,08,1.18,162.3,M,-34.4,M,,*5C
$GPRMC,182122.250,A,4308.4755,N,07726.5156,W,28.58,276.99,190821,,,A*49
$GPGGA,182122.500,4308.4757,N,07726.5184,W,1,08,1.18,162.2,M,-34.4,M,,*5A
$GPRMC,182122.750,A,4308.4758,N,07726.5212,W,29.11,275.83,190821,,,A*46
$GPGGA,182123.000,4308.4759,N,07726.5241,W,1,08,1.18,161.8,M,-34.4,M,,*53
$GPRMC,182123.250,A,4308.4760,N,07726.5270,W,29.50,274.52,190821,,,A*45
$GPGGA,182123.500,4308.4760,N,07726.5299,W,1,08,1.18,161.4,M,-34.4,M,,*55
$GPRMC,182123.750,A,4308.4760,N,07726.5328,W,29.92,273.22,190821,,,A*42
$GPGGA,182124.000,4308.4760,N,07726.5358,W,1,08,1.18,160.8,M,-34.4,M,,*56
$GPRMC,182124.250,A,4308.4760,N,07726.5388,W,30.14,272.61,190821,,,A*4A
$GPGGA,182124.500,4308.4760,N,07726.5417,W,1,08,1.18,160.4,M,-34.4,M,,*53
$GPRMC,182124.750,A,4308.4760,N,07726.5447,W,30.13,272.40,190821,,,A*4F
$GPGGA,182125.000,4308.4761,N,07726.5476,W,1,08,1.18,160.0,M,-34.4,M,,*55
$GPRMC,182125.250,A,4308.4761,N,07726.5506,W,29.96,272.01,190821,,,A*4E
$GPGGA,182125.500,4308.4762,N,07726.5535,W,1,08,1.18,159.7,M,-34.4,M,,*58
$GPRMC,182125.750,A,4308.4762,N,07726.5564,W,29.43,272.73,190821,,,A*41
$GPGGA,182126.000,4308.4763,N,07726.5592,W,1,08,1.11,159.5,M,-34.4,M,,*59
$GPRMC,182126.250,A,4308.4764,N,07726.5621,W,29.35,273.23,190821,,,A*46
$GPGGA,182126.500,4308.4765,N,07726.5649,W,1,08,1.18,159.2,M,-34.4,M,,*51
$GPRMC,182126.750,A,4308.4766,N,07726.5677,W,29.10,273.56,190821,,,A*47
$GPGGA,182127.000,4308.4767,N,07726.5705,W,1,08,1.18,158.8,M,-34.4,M,,*55
$GPRMC,182127.250,A,4308.4768,N,07726.5733,W,28.43,273.78,190821,,,A*47
$GPGGA,182127.500,4308.4770,N,07726.5760,W,1,08,1.18,158.5,M,-34.4,M,,*58
$GPRMC,182127.750,A,4308.4771,N,07726.5788,W,28.17,273.41,190821,,,A*41
$GPGGA,182128.000,4308.4772,N,07726.5815,W,1,08,1.18,158.4,M,-34.4,M,,*5C
$GPRMC,182128.250,A,4308.4774,N,07726.5842,W,28.15,273.04,190821,,,A*44
$GPGGA,182128.500,4308.4775,N,07726.5869,W,1,08,1.18,158.3,M,-34.4,M,,*52
$GPRMC,182128.750,A,4308.4776,N,07726.5896,W,27.91,272.61,190821,,,A*4B
$GPGGA,182129.000,4308.4777,N,07726.5923,W,1,08,1.18,158.2,M,-34.4,M,,*5A
$GPRMC,182129.250,A,4308.4778,N,07726.5949,W,27.63,272.02,190821,,,A*4A
$GPGGA,182129.500,4308.4779,N,07726.5976,W,1,08,1.18,158.2,M,-34.4,M,,*51
$GPRMC,182129.750,A,4308.4780,N,07726.6002,W,27.43,271.22,190821,,,A*4E
$GPGGA,182130.000,4308.4780,N,07726.6029,W,1,08,1.18,158.2,M,-34.4,M,,*5A
$GPRMC,182130.250,A,4308.4781,N,07726.6056,W,27.50,271.12,190821,,,A*42
$GPGGA,182130.500,4308.4781,N,07726.6082,W,1,08,1.18,158.2,M,-34.4,M,,*5F
$GPRMC,182130.750,A,4308.4781,N,07726.6109,W,27.56,270.41,190821,,,A*4D
$GPGGA,182131.000,4308.4781,N,07726.6135,W,1,08,1.18,158.2,M,-34.4,M,,*56
$GPRMC,182131.250,A,4308.4781,N,07726.6162,W,27.63,269.51,190821,,,A*4B
$GPGGA,182131.500,4308.4781,N,07726.6189,W,1,08,1.18,158.1,M,-34.4,M,,*57
$GPRMC,182131.750,A,4308.4781,N,07726.6216,W,27.68,269.51,190821,,,A*45
$GPGGA,182132.000,4308.4781,N,07726.6242,W,1,08,1.18,157.9,M,-34.4,M,,*52
$GPRMC,182132.250,A,4308.4781,N,07726.6269,W,27.72,269.89,190821,,,A*45
$GPGGA,182132.500,4308.4781,N,07726.6297,W,1,08,1.18,157.7,M,-34.4,M,,*51
$GPRMC,182132.750,A,4308.4782,N,07726.6323,W,27.83,270.20,190821,,,A*49
$GPGGA,182133.000,4308.4782,N,07726.6351,W,1,08,1.18,157.6,M,-34.4,M,,*5C
$GPRMC,182133.250,A,4308.4782,N,07726.6378,W,27.89,269.87,190821,,,A*4C
$GPGGA,182133.500,4308.4782,N,07726.6406,W,1,08,1.18,157.2,M,-34.4,M,,*58
$GPRMC,182133.750,A,4308.4781,N,07726.6435,W,28.30,268.66,190821,,,A*47
$GPGGA,182134.000,4308.4781,N,07726.6464,W,1,08,1.18,156.9,M,-34.4,M,,*57
$GPRMC,182134.250,A,4308.4780,N,07726.6492,W,29.30,268.23,190821,,,A*49
$GPGGA,182134.500,4308.4779,N,07726.6521,W,1,08,1.18,156.6,M,-34.4,M,,*5A
$GPRMC,182134.750,A,4308.4778,N,07726.6550,W,29.39,268.05,190821,,,A*49
$GPGGA,182135.000,4308.4777,N,07726.6579,W,1,08,1.18,156.1,M,-34.4,M,,*5A
$GPRMC,182135.250,A,4308.4776,N,07726.6608,W,29.62,267.65,190821,,,A*4A
$GPGGA,182135.500,4308.4775,N,07726.6637,W,1,08,1.18,155.4,M,-34.4,M,,*52
$GPRMC,182135.750,A,4308.4773,N,07726.6666,W,29.80,267.01,190821,,,A*4C
$GPGGA,182136.000,4308.4772,N,07726.6695,W,1,08,1.18,154.8,M,-34.4,M,,*56
$GPRMC,182136.250,A,4308.4771,N,07726.6724,W,29.78,266.37,190821,,,A*4C
$GPGGA,182136.500,4308.4769,N,07726.6753,W,1,08,1.18,154.4,M,-34.4,M,,*5E
$GPRMC,182136.750,A,4308.4767,N,07726.6782,W,29.77,265.51,190821,,,A*4E
$GPGGA,182137.000,4308.4765,N,07726.6810,W,1,08,1.18,154.1,M,-34.4,M,,*5B
$GPRMC,182137.250,A,4308.4763,N,07726.6839,W,29.79,265.28,190821,,,A*41
$GPGGA,182137.500,4308.4761,N,07726.6868,W,1,08,1.18,153.8,M,-34.4,M,,*5B
$GPRMC,182137.750,A,4308.4760,N,07726.6897,W,30.39,265.46,190821,,,A*47
$GPGGA,182138.000,4308.4758,N,07726.6927,W,1,08,1.18,153.6,M,-34.4,M,,*5F
$GPRMC,182138.250,A,4308.4756,N,07726.6956,W,30.38,265.25,190821,,,A*40
$GPGGA,182138.500,4308.4754,N,07726.6985,W,1,08,1.18,153.4,M,-34.4,M,,*5C
$GPRMC,182138.750,A,4308.4752,N,07726.7014,W,30.41,265.25,190821,,,A*41
$GPGGA,182139.000,4308.4751,N,07726.7042,W,1,08,1.18,153.4,M,-34.4,M,,*5E
$GPRMC,182139.250,A,4308.4749,N,07726.7071,W,30.49,265.62,190821,,,A*47
$GPGGA,182139.500,4308.4748,N,07726.7100,W,1,08,1.18,153.4,M,-34.4,M,,*54
$GPRMC,182139.750,A,4308.4746,N,07726.7129,W,30.58,265.92,190821,,,A*4E
$GPGGA,182140.000,4308.4745,N,07726.7158,W,1,08,1.18,153.4,M,-34.4,M,,*5F
$GPRMC,182140.250,A,4308.4743,N,07726.7187,W,30.18,265.87,190821,,,A*44
$GPGGA,182140.500,4308.4742,N,07726.7216,W,1,08,1.18,153.5,M,-34.4,M,,*55
$GPRMC,182140.750,A,4308.4740,N,07726.7244,W,30.09,265.94,190821,,,A*4C
$GPGGA,182141.000,4308.4738,N,07726.7273,W,1,08,1.11,153.5,M,-34.4,M,,*56
$GPRMC,182141.250,A,4308.4737,N,07726.7301,W,30.07,265.67,190821,,,A*4A
$GPGGA,182141.500,4308.4735,N,07726.7330,W,1,08,1.18,153.7,M,-34.4,M,,*53
$GPRMC,182141.750,A,4308.4733,N,07726.7358,W,30.00,265.39,190821,,,A*4B
$GPGGA,182142.000,4308.4732,N,07726.7386,W,1,08,1.11,153.7,M,-34.4,M,,*56
$GPRMC,182142.250,A,4308.4730,N,07726.7415,W,29.80,265.04,190821,,,A*4E
$GPGGA,182142.500,4308.4728,N,07726.7444,W,1,08,1.11,153.7,M,-34.4,M,,*51
$GPRMC,182142.750,A,4308.4726,N,07726.7473,W,30.52,265.05,190821,,,A*4A
$GPGGA,182143.000,4308.4724,N,07726.7502,W,1,08,1.11,153.8,M,-34.4,M,,*55
$GPRMC,182143.250,A,4308.4721,N,07726.7531,W,30.59,264.65,190821,,,A*42
$GPGGA,182143.500,4308.4719,N,07726.7560,W,1,08,1.18,154.0,M,-34.4,M,,*5C
$GPRMC,182143.750,A,4308.4716,N,07726.7589,W,30.61,264.68,190821,,,A*46
$GPGGA,182144.000,4308.4714,N,07726.7618,W,1,08,1.11,154.1,M,-34.4,M,,*57
$GPRMC,182144.250,A,4308.4712,N,07726.7647,W,30.55,264.84,190821,,,A*44
$GPGGA,182144.500,4308.4709,N,07726.7676,W,1,08,1.18,154.3,M,-34.4,M,,*5D
$GPRMC,182144.750,A,4308.4707,N,07726.7705,W,30.49,264.89,190821,,,A*42
$GPGGA,182145.000,4308.4704,N,07726.7733,W,1,08,1.11,154.5,M,-34.4,M,,*5B
$GPRMC,182145.250,A,4308.4702,N,07726.7762,W,30.84,265.05,190821,,,A*46
$GPGGA,182145.500,4308.4700,N,07726.7791,W,1,08,1.18,154.6,M,-34.4,M,,*58
$GPRMC,182145.750,A,4308.4698,N,07726.7820,W,30.87,265.44,190821,,,A*4E
$GPGGA,182146.000,4308.4697,N,07726.7849,W,1,08,1.11,154.7,M,-34.4,M,,*53
$GPRMC,182146.250,A,4308.4695,N,07726.7877,W,30.87,265.85,190821,,,A*4A
$GPGGA,182146.500,4308.4693,N,07726.7905,W,1,08,1.18,155.0,M,-34.4,M,,*54
$GPRMC,182146.750,A,4308.4692,N,07726.7934,W,31.06,266.29,190821,,,A*43
$GPGGA,182147.000,4308.4690,N,07726.7964,W,1,08,1.18,155.0,M,-34.4,M,,*54
$GPRMC,182147.250,A,4308.4688,N,07726.7994,W,31.54,265.75,190821,,,A*4B
$GPGGA,182147.500,4308.4687,N,07726.8024,W,1,08,1.18,154.9,M,-34.4,M,,*5D
$GPRMC,182147.750,A,4308.4686,N,07726.8055,W,32.00,266.25,190821,,,A*4F
$GPGGA,182148.000,4308.4685,N,07726.8085,W,1,08,1.18,154.7,M,-34.4,M,,*50
$GPRMC,182148.250,A,4308.4683,N,07726.8116,W,32.15,266.11,190821,,,A*45
$GPGGA,182148.500,4308.4682,N,07726.8147,W,1,08,1.18,154.7,M,-34.4,M,,*5D
$GPRMC,182148.750,A,4308.4681,N,07726.8178,W,32.61,266.33,190821,,,A*49
$GPGGA,182149.000,4308.4679,N,07726.8209,W,1,08,1.18,154.6,M,-34.4,M,,*55
$GPRMC,182149.250,A,4308.4678,N,07726.8241,W,32.71,266.13,190821,,,A*41
$GPGGA,182149.500,4308.4676,N,07726.8273,W,1,08,1.18,154.4,M,-34.4,M,,*50
$GPRMC,182149.750,A,4308.4675,N,07726.8305,W,33.06,265.75,190821,,,A*4A
$GPGGA,182150.000,4308.4674,N,07726.8337,W,1,08,1.18,154.2,M,-34.4,M,,*58
$GPRMC,182150.250,A,4308.4672,N,07726.8369,W,33.28,265.45,190821,,,A*45
$GPGGA,182150.500,4308.4671,N,07726.8401,W,1,08,1.18,153.9,M,-34.4,M,,*56
$GPRMC,182150.750,A,4308.4669,N,07726.8433,W,33.62,265.35,190821,,,A*4B
$GPGGA,182151.000,4308.4667,N,07726.8465,W,1,08,1.18,153.6,M,-34.4,M,,*58
$GPRMC,182151.250,A,4308.4666,N,07726.8498,W,34.20,265.18,190821,,,A*4F
$GPGGA,182151.500,4308.4664,N,07726.8531,W,1,08,1.18,153.3,M,-34.4,M,,*5B
$GPRMC,182151.750,A,4308.4662,N,07726.8564,W,34.74,265.02,190821,,,A*46
$GPGGA,182152.000,4308.4660,N,07726.8598,W,1,08,1.18,153.1,M,-34.4,M,,*58
$GPRMC,182152.250,A,4308.4657,N,07726.8632,W,35.09,264.71,190821,,,A*48
$GPGGA,182152.500,4308.4655,N,07726.8666,W,1,08,1.18,152.9,M,-34.4,M,,*50
$GPRMC,182152.750,A,4308.4653,N,07726.8701,W,35.40,264.84,190821,,,A*4F
$GPGGA,182153.000,4308.4651,N,07726.8735,W,1,08,1.18,152.6,M,-34.4,M,,*58
$GPRMC,182153.250,A,4308.4648,N,07726.8770,W,35.60,264.93,190821,,,A*43
$GPGGA,182153.500,4308.4646,N,07726.8804,W,1,08,1.18,152.4,M,-34.4,M,,*54
$GPRMC,182153.750,A,4308.4644,N,07726.8838,W,35.99,265.02,190821,,,A*46
$GPGGA,182154.000,4308.4642,N,07726.8873,W,1,08,1.18,152.2,M,-34.4,M,,*54
$GPRMC,182154.250,A,4308.4640,N,07726.8907,W,35.61,265.17,190821,,,A*4E
$GPGGA,182154.500,4308.4638,N,07726.8940,W,1,08,1.18,152.0,M,-34.4,M,,*5F
$GPRMC,182154.750,A,4308.4636,N,07726.8974,W,35.35,265.44,190821,,,A*49
$GPGGA,182155.000,4308.4634,N,07726.9008,W,1,08,1.18,151.8,M,-34.4,M,,*58
$GPRMC,182155.250,A,4308.4632,N,07726.9041,W,35.16,265.42,190821,,,A*40
$GPGGA,182155.500,4308.4631,N,07726.9074,W,1,08,1.18,151.6,M,-34.4,M,,*5D
$GPRMC,182155.750,A,4308.4629,N,07726.9107,W,34.69,265.45,190821,,,A*42
$GPGGA,182156.000,4308.4628,N,07726.9139,W,1,08,1.18,151.3,M,-34.4,M,,*5E
$GPRMC,182156.250,A,4308.4626,N,07726.9172,W,34.39,265.63,190821,,,A*48
$GPGGA,182156.500,4308.4624,N,07726.9204,W,1,08,1.18,151.0,M,-34.4,M,,*59
$GPRMC,182156.750,A,4308.4623,N,07726.9236,W,34.31,265.43,190821,,,A*41
$GPGGA,182157.000,4308.4621,N,07726.9269,W,1,08,1.18,150.6,M,-34.4,M,,*54
$GPRMC,182157.250,A,4308.4619,N,07726.9301,W,34.26,265.34,190821,,,A*4F
$GPGGA,182157.500,4308.4617,N,07726.9334,W,1,08,1.18,150.4,M,-34.4,M,,*5F
$GPRMC,182157.750,A,4308.4615,N,07726.9367,W,34.25,265.21,190821,,,A*41
$GPGGA,182158.000,4308.4613,N,07726.9399,W,1,08,1.18,150.1,M,-34.4,M,,*53
$GPRMC,182158.250,A,4308.4612,N,07726.9432,W,34.23,265.03,190821,,,A*4D
$GPGGA,182158.500,4308.4610,N,07726.9464,W,1,08,1.18,149.9,M,-34.4,M,,*50
$GPRMC,182158.750,A,4308.4608,N,07726.9496,W,33.72,264.87,190821,,,A*43
$GPGGA,182159.000,4308.4606,N,07726.9528,W,1,08,1.18,149.7,M,-34.4,M,,*54
$GPRMC,182159.250,A,4308.4604,N,07726.9560,W,33.69,265.27,190821,,,A*42
$GPGGA,182159.500,4308.4602,N,07726.9592,W,1,08,1.18,149.4,M,-34.4,M,,*57
$GPRMC,182159.750,A,4308.4600,N,07726.9624,W,33.56,265.48,190821,,,A*45
$GPGGA,182200.000,4308.4599,N,07726.9656,W,1,08,1.18,149.1,M,-34.4,M,,*52
$GPRMC,182200.250,A,4308.4597,N,07726.9688,W,33.45,265.76,190821,,,A*4B
$GPGGA,182200.500,4308.4595,N,07726.9720,W,1,08,1.18,148.6,M,-34.4,M,,*5D
$GPRMC,182200.750,A,4308.4594,N,07726.9752,W,33.20,265.76,190821,,,A*48
$GPGGA,182201.000,4308.4592,N,07726.9784,W,1,08,1.18,148.1,M,-34.4,M,,*57
$GPRMC,182201.250,A,4308.4590,N,07726.9815,W,32.96,265.74,190821,,,A*4A
$GPGGA,182201.500,4308.4588,N,07726.9847,W,1,08,1.18,147.5,M,-34.4,M,,*52
$GPRMC,182201.750,A,4308.4587,N,07726.9878,W,32.92,265.67,190821,,,A*44
$GPGGA,182202.000,4308.4585,N,07726.9910,W,1,08,1.18,147.1,M,-34.4,M,,*5E
$GPRMC,182202.250,A,4308.4583,N,07726.9942,W,33.40,265.41,190821,,,A*44
$GPGGA,182202.500,4308.4581,N,07726.9974,W,1,08,1.18,146.8,M,-34.4,M,,*55
$GPRMC,182202.750,A,4308.4580,N,07727.0006,W,33.67,265.41,190821,,,A*46
$GPGGA,182203.000,4308.4578,N,07727.0038,W,1,08,1.18,146.5,M,-34.4,M,,*53
$GPRMC,182203.250,A,4308.4576,N,07727.0070,W,33.79,265.35,190821,,,A*46
$GPGGA,182203.500,4308.4574,N,07727.0102,W,1,08,1.18,146.4,M,-34.4,M,,*53
$GPRMC,182203.750,A,4308.4572,N,07727.0135,W,33.89,265.37,190821,,,A*4A
$GPGGA,182204.000,4308.4571,N,07727.0168,W,1,08,1.18,146.2,M,-34.4,M,,*5E
$GPRMC,182204.250,A,4308.4569,N,07727.0201,W,34.45,265.99,190821,,,A*45
$GPGGA,182204.500,4308.4568,N,07727.0234,W,1,08,1.18,146.1,M,-34.4,M,,*5A
$GPRMC,182204.750,A,4308.4566,N,07727.0267,W,34.49,266.46,190821,,,A*42
$GPGGA,182205.000,4308.4565,N,07727.0301,W,1,08,1.18,145.9,M,-34.4,M,,*5F
$GPRMC,182205.250,A,4308.4564,N,07727.0335,W,35.33,266.72,190821,,,A*49
$GPGGA,182205.500,4308.4562,N,07727.0369,W,1,08,1.18,145.7,M,-34.4,M,,*5D
$GPRMC,182205.750,A,4308.4561,N,07727.0403,W,35.74,267.49,190821,,,A*41
$GPGGA,182206.000,4308.4561,N,07727.0437,W,1,08,1.11,145.7,M,-34.4,M,,*5D
$GPRMC,182206.250,A,4308.4560,N,07727.0472,W,35.97,268.39,190821,,,A*45
$GPGGA,182206.500,4308.4559,N,07727.0507,W,1,08,1.18,145.6,M,-34.4,M,,*59
$GPRMC,182206.750,A,4308.4559,N,07727.0541,W,36.07,269.52,190821,,,A*4D
$GPGGA,182207.000,4308.4559,N,07727.0576,W,1,08,1.18,145.5,M,-34.4,M,,*58
$GPRMC,182207.250,A,4308.4559,N,07727.0610,W,36.01,270.91,190821,,,A*4F
$GPGGA,182207.500,4308.4560,N,07727.0645,W,1,08,1.18,145.4,M,-34.4,M,,*55
$GPRMC,182207.750,A,4308.4561,N,07727.0680,W,35.98,271.36,190821,,,A*47
$GPGGA,182208.000,4308.4562,N,07727.0714,W,1,08,1.18,145.1,M,-34.4,M,,*5D
$GPRMC,182208.250,A,4308.4563,N,07727.0748,W,36.01,272.50,190821,,,A*4A
$GPGGA,182208.500,4308.4565,N,07727.0783,W,1,08,1.18,145.0,M,-34.4,M,,*50
$GPRMC,182208.750,A,4308.4567,N,07727.0817,W,36.07,273.09,190821,,,A*45
$GPGGA,182209.000,4308.4569,N,07727.0851,W,1,08,1.18,144.8,M,-34.4,M,,*51
$GPRMC,182209.250,A,4308.4571,N,07727.0886,W,36.15,273.88,190821,,,A*44
$GPGGA,182209.500,4308.4574,N,07727.0920,W,1,08,1.18,144.6,M,-34.4,M,,*51
$GPRMC,182209.750,A,4308.4576,N,07727.0955,W,36.37,274.58,190821,,,A*43
$GPGGA,182210.000,4308.4579,N,07727.0989,W,1,08,1.11,144.5,M,-34.4,M,,*58
$GPRMC,182210.250,A,4308.4582,N,07727.1024,W,36.33,275.33,190821,,,A*43
$GPGGA,182210.500,4308.4585,N,07727.1058,W,1,08,1.18,144.3,M,-34.4,M,,*55
$GPRMC,182210.750,A,4308.4589,N,07727.1091,W,35.83,276.63,190821,,,A*4D
$GPGGA,182211.000,4308.4592,N,07727.1125,W,1,08,1.18,144.2,M,-34.4,M,,*5D
$GPRMC,182211.250,A,4308.4596,N,07727.1158,W,35.27,277.46,190821,,,A*4B
$GPGGA,182211.500,4308.4600,N,07727.1190,W,1,08,1.18,144.2,M,-34.4,M,,*5E
$GPRMC,182211.750,A,4308.4604,N,07727.1223,W,34.94,278.16,190821,,,A*4A
$GPGGA,182212.000,4308.4608,N,07727.1256,W,1,08,1.18,144.4,M,-34.4,M,,*5F
$GPRMC,182212.250,A,4308.4612,N,07727.1289,W,34.72,278.01,190821,,,A*45
$GPGGA,182212.500,4308.4615,N,07727.1321,W,1,08,1.18,144.6,M,-34.4,M,,*55
$GPRMC,182212.750,A,4308.4618,N,07727.1354,W,34.36,278.20,190821,,,A*48
$GPGGA,182213.000,4308.4622,N,07727.1386,W,1,08,1.18,144.5,M,-34.4,M,,*5B
$GPRMC,182213.250,A,4308.4626,N,07727.1419,W,34.40,278.26,190821,,,A*48
$GPGGA,182213.500,4308.4629,N,07727.1451,W,1,08,1.18,144.6,M,-34.4,M,,*5B
$GPRMC,182213.750,A,4308.4633,N,07727.1483,W,34.31,278.19,190821,,,A*40
$GPGGA,182214.000,4308.4637,N,07727.1515,W,1,08,1.18,144.6,M,-34.4,M,,*57
$GPRMC,182214.250,A,4308.4640,N,07727.1547,W,34.03,278.70,190821,,,A*41
$GPGGA,182214.500,4308.4645,N,07727.1579,W,1,08,1.18,144.7,M,-34.4,M,,*5C
$GPRMC,182214.750,A,4308.4648,N,07727.1611,W,33.91,278.92,190821,,,A*4C
$GPGGA,182215.000,4308.4652,N,07727.1643,W,1,08,1.18,144.8,M,-34.4,M,,*5B
$GPRMC,182215.250,A,4308.4656,N,07727.1674,W,33.57,279.20,190821,,,A*46
$GPGGA,182215.500,4308.4661,N,07727.1705,W,1,08,1.18,144.9,M,-34.4,M,,*5C
$GPRMC,182215.750,A,4308.4665,N,07727.1736,W,33.31,279.62,190821,,,A*42
$GPGGA,182216.000,4308.4669,N,07727.1768,W,1,08,1.18,145.2,M,-34.4,M,,*53
$GPRMC,182216.250,A,4308.4674,N,07727.1799,W,33.40,279.46,190821,,,A*41
$GPGGA,182216.500,4308.4678,N,07727.1830,W,1,08,1.18,145.3,M,-34.4,M,,*55
$GPRMC,182216.750,A,4308.4682,N,07727.1861,W,33.34,279.80,190821,,,A*4C
$GPGGA,182217.000,4308.4686,N,07727.1893,W,1,08,1.11,145.5,M,-34.4,M,,*56
$GPRMC,182217.250,A,4308.4690,N,07727.1924,W,32.97,280.21,190821,,,A*4E
$GPGGA,182217.500,4308.4694,N,07727.1955,W,1,08,1.18,145.6,M,-34.4,M,,*51
$GPRMC,182217.750,A,4308.4697,N,07727.1986,W,32.71,279.78,190821,,,A*46
$GPGGA,182218.000,4308.4701,N,07727.2016,W,1,08,1.18,145.7,M,-34.4,M,,*5A
$GPRMC,182218.250,A,4308.4704,N,07727.2047,W,32.50,279.53,190821,,,A*4A
$GPGGA,182218.500,4308.4708,N,07727.2077,W,1,08,1.18,145.8,M,-34.4,M,,*5E
$GPRMC,182218.750,A,4308.4711,N,07727.2108,W,32.46,279.42,190821,,,A*46
$GPGGA,182219.000,4308.4715,N,07727.2138,W,1,08,1.18,145.9,M,-34.4,M,,*5D
$GPRMC,182219.250,A,4308.4719,N,07727.2168,W,32.42,279.93,190821,,,A*44
$GPGGA,182219.500,4308.4723,N,07727.2198,W,1,08,1.18,146.0,M,-34.4,M,,*5D
$GPRMC,182219.750,A,4308.4727,N,07727.2228,W,32.45,280.02,190821,,,A*42
$GPGGA,182220.000,4308.4731,N,07727.2258,W,1,08,1.18,146.2,M,-34.4,M,,*5C
$GPRMC,182220.250,A,4308.4735,N,07727.2289,W,32.66,279.65,190821,,,A*43
$GPGGA,182220.500,4308.4739,N,07727.2320,W,1,08,1.18,146.5,M,-34.4,M,,*58
$GPRMC,182220.750,A,4308.4742,N,07727.2350,W,32.67,278.83,190821,,,A*4B
$GPGGA,182221.000,4308.4745,N,07727.2380,W,1,08,1.11,146.8,M,-34.4,M,,*59
$GPRMC,182221.250,A,4308.4749,N,07727.2411,W,32.37,278.50,190821,,,A*4D
$GPGGA,182221.500,4308.4752,N,07727.2441,W,1,08,1.18,147.0,M,-34.4,M,,*50
$GPRMC,182221.750,A,4308.4755,N,07727.2472,W,32.46,278.17,190821,,,A*45
$GPGGA,182222.000,4308.4758,N,07727.2503,W,1,08,1.18,147.2,M,-34.4,M,,*59
$GPRMC,182222.250,A,4308.4762,N,07727.2533,W,32.45,278.41,190821,,,A*43
$GPGGA,182222.500,4308.4765,N,07727.2564,W,1,08,1.18,147.4,M,-34.4,M,,*55
$GPRMC,182222.750,A,4308.4768,N,07727.2595,W,32.66,278.61,190821,,,A*43
$GPGGA,182223.000,4308.4772,N,07727.2626,W,1,08,1.18,147.5,M,-34.4,M,,*53
$GPRMC,182223.250,A,4308.4776,N,07727.2657,W,32.88,279.19,190821,,,A*4B
$GPGGA,182223.500,4308.4779,N,07727.2687,W,1,08,1.18,147.7,M,-34.4,M,,*54
$GPRMC,182223.750,A,4308.4783,N,07727.2718,W,32.75,279.22,190821,,,A*44
$GPGGA,182224.000,4308.4786,N,07727.2749,W,1,08,1.18,147.9,M,-34.4,M,,*5B
$GPRMC,182224.250,A,4308.4790,N,07727.2780,W,33.02,279.50,190821,,,A*41
$GPGGA,182224.500,4308.4794,N,07727.2811,W,1,08,1.18,148.0,M,-34.4,M,,*59
$GPRMC,182224.750,A,4308.4798,N,07727.2842,W,32.91,278.94,190821,,,A*4F
$GPGGA,182225.000,4308.4802,N,07727.2873,W,1,08,1.18,148.0,M,-34.4,M,,*59
$GPRMC,182225.250,A,4308.4807,N,07727.2904,W,32.94,280.01,190821,,,A*4F
$GPGGA,182225.500,4308.4812,N,07727.2935,W,1,08,1.18,148.1,M,-34.4,M,,*5F
$GPRMC,182225.750,A,4308.4817,N,07727.2967,W,33.17,280.15,190821,,,A*41
$GPGGA,182226.000,4308.4821,N,07727.2998,W,1,08,1.18,148.2,M,-34.4,M,,*5D
$GPRMC,182226.250,A,4308.4826,N,07727.3029,W,33.25,279.94,190821,,,A*49
$GPGGA,182226.500,4308.4830,N,07727.3061,W,1,08,1.18,148.4,M,-34.4,M,,*50
$GPRMC,182226.750,A,4308.4834,N,07727.3092,W,33.37,279.52,190821,,,A*46
$GPGGA,182227.000,4308.4838,N,07727.3124,W,1,08,1.18,148.7,M,-34.4,M,,*5F
$GPRMC,182227.250,A,4308.4842,N,07727.3155,W,33.41,279.53,190821,,,A*49
$GPGGA,182227.500,4308.4846,N,07727.3186,W,1,08,1.18,148.8,M,-34.4,M,,*54
$GPRMC,182227.750,A,4308.4850,N,07727.3218,W,33.41,279.72,190821,,,A*46
$GPGGA,182228.000,4308.4853,N,07727.3249,W,1,08,1.18,148.9,M,-34.4,M,,*5B
