Vers 81
USE_SERIAL_FEEDBACK=true
DEVELOPMENT_MODE=false
USE_RMC_ONLY=false

$GPRMC,221603.750,A,4308.3026,N,07726.2621,W,0.15,73.33,060721,,,A*43
$GPGGA,221604.000,4308.3026,N,07726.2621,W,1,03,1.72,184.4,M,-34.4,M,,*56
$GPRMC,221604.250,A,4308.3026,N,07726.2620,W,0.13,21.09,060721,,,A*48
$GPGGA,221604.500,4308.3026,N,07726.2620,W,1,03,1.72,184.4,M,-34.4,M,,*52
$GPRMC,221604.750,A,4308.3026,N,07726.2621,W,0.09,3.78,060721,,,A*71
$GPGGA,221605.000,4308.3026,N,07726.2621,W,1,03,29.36,184.4,M,-34.4,M,,*6D
$GPRMC,221605.250,A,4308.3025,N,07726.2621,W,0.12,354.97,060721,,,A*7C
$GPGGA,221605.500,4308.3025,N,07726.2621,W,1,03,29.37,184.4,M,-34.4,M,,*6A
$GPRMC,221605.750,A,4308.3025,N,07726.2621,W,0.14,343.53,060721,,,A*71
$GPGGA,221606.000,4308.3025,N,07726.2621,W,1,03,1.72,184.4,M,-34.4,M,,*57
$GPRMC,221606.250,A,4308.3025,N,07726.2621,W,0.19,337.00,060721,,,A*7F
$GPGGA,221606.500,4308.3025,N,07726.2622,W,1,03,1.72,184.4,M,-34.4,M,,*51
$GPRMC,221606.750,A,4308.3025,N,07726.2622,W,0.17,332.57,060721,,,A*70
$GPGGA,221607.000,4308.3025,N,07726.2622,W,1,03,1.72,184.4,M,-34.4,M,,*55
$GPRMC,221607.250,A,4308.3024,N,07726.2622,W,0.07,308.68,060721,,,A*71
$GPGGA,221607.500,4308.3024,N,07726.2622,W,1,03,1.72,184.4,M,-34.4,M,,*51
$GPRMC,221607.750,A,4308.3024,N,07726.2623,W,0.10,241.59,060721,,,A*7D
$GPGGA,221608.000,4308.3023,N,07726.2623,W,1,03,1.72,184.4,M,-34.4,M,,*5D
$GPGGA,221608.500,4308.3023,N,07726.2624,W,1,03,1.72,184.4,M,-34.4,M,,*5F
$GPRMC,221608.500,A,4308.3023,N,07726.2624,W,0.14,247.39,060721,,A*71
$GPGGA,221608.750,4308.3023,N,07726.2624,W,1,03,1.72,184.4,M,-34.4,M,,*58
$GPRMC,221608.750,A,4308.3023,N,07726.2624,W,0.12,255.40,060721$GPGGA,221609.000,4308.3023,N,07726.2624,W,1,03,1.72,184.4,M,-34.4,M,,*5B
$GPRMC,221609.250,A,4308.3023,N,07726.2624,W,0.04,205.64,060721,,,A*7D
$GPGGA,221609.500,4308.3023,N,07726.2624,W,1,03,1.72,184.4,M,-34.4,M,,*5E
$GPRMC,221609.750,A,4308.3024,N,07726.2624,W,0.14,194.39,060721,,,A*7D
$GPGGA,221610.000,4308.3024,N,07726.2625,W,1,03,1.72,184.4,M,-34.4,M,,*55
$GPRMC,221610.250,A,4308.3024,N,07726.2625,W,0.07,238.48,060721,,,A*70
$GPGGA,221610.500,4308.3025,N,07726.2625,W,1,03,1.72,184.4,M,-34.4,M,,*51
$GPRMC,221610.750,A,4308.3025,N,07726.2626,W,0.07,326.90,060721,,,A*7C
$GPGGA,221611.000,4308.3025,N,07726.2626,W,1,03,1.72,184.4,M,-34.4,M,,*56
$GPRMC,221611.250,A,4308.3025,N,07726.2626,W,0.11,161.89,060721,,,A*76
$GPGGA,221611.500,4308.3025,N,07726.2626,W,1,03,1.72,184.4,M,-34.4,M,,*53
$GPRMC,221611.750,A,4308.3026,N,07726.2626,W,0.18,133.79,060721,,,A*71
$GPGGA,221612.000,4308.3026,N,07726.2626,W,1,03,1.72,184.4,M,-34.4,M,,*56
$GPRMC,221612.250,A,4308.3026,N,07726.2626,W,0.10,122.90,060721,,,A*78
$GPGGA,221612.500,4308.3027,N,07726.2627,W,1,03,1.72,184.4,M,-34.4,M,,*53
$GPRMC,221612.750,A,4308.3027,N,07726.2626,W,0.05,94.49,060721,,,A*40
$GPGGA,221613.000,4308.3027,N,07726.2627,W,1,03,1.72,184.4,M,-34.4,M,,*57
$GPRMC,221613.250,A,4308.3028,N,07726.2627,W,0.07,13.19,060721,,,A*42
$GPGGA,221613.500,4308.3028,N,07726.2626,W,1,03,29.53,184.4,M,-34.4,M,,*65
$GPRMC,221613.750,A,4308.3029,N,07726.2626,W,0.16,33.18,060721,,,A*44
$GPGGA,221614.000,4308.3029,N,07726.2626,W,1,03,1.72,184.3,M,-34.4,M,,*58
$GPGGA,221614.500,4308.3029,N,07726.2626,W,1,03,29.55,184.3,M,-34.4,M,,*62
$GPRMC,221614.500,A,4308.3029,N,07726.2626,W,0.13,326.44,060721,,A*7F
$GPGGA,221614.750,4308.3030,N,07726.2626,W,1,03,1.72,184.3,M,-34.4,M,,*52
$GPRMC,221614.750,A,4308.3030,N,07726.2626,W,0.13,329.43,060721,,A*78
$GPGGA,221615.000,4308.3030,N,07726.2626,W,1,03,1.72,184.3,M,-34.4,M,,*51
$GPRMC,221615.000,A,4308.3030,N,07726.2626,W,0.11,333.03,060721,,A*76
$GPGGA,221615.250,4308.3030,N,07726.2626,W,1,03,1.72,184.3,M,-34.4,M,,*56
$GPRMC,221615.250,A,4308.3030,N,07726.2626,W,0.07,311.67,060721,,A*74
$GPGGA,221615.500,4308.3030,N,07726.2626,W,1,03,1.72,184.3,M,-34.4,M,,*54
$GPRMC,221615.500,A,4308.3030,N,07726.2626,W,0.16,344.78,060721,,A*78
$GPGGA,221615.750,4308.3031,N,07726.2626,W,1,03,1.72,184.3,M,-34.4,M,,*52
$GPRMC,221615.750,A,4308.3031,N,07726.2626,W,0.20,347.96,060721,,A*78
$GPGGA,221616.000,4308.3031,N,07726.2626,W,1,03,29.58,184.3,M,-34.4,M,,*61
$GPRMC,221616.000,A,4308.3031,N,07726.2626,W,0.14,337.18,060721$GPGGA,221616.250,4308.3031,N,07726.2627,W,1,03,1.72,184.3,M,-34.4,M,,*55
$GPRMC,221616.500,A,4308.3031,N,07726.2627,W,0.07,280.55,060721,,,A*7D
$GPGGA,221616.750,4308.3031,N,07726.2626,W,1,03,1.72,184.3,M,-34.4,M,,*51
$GPRMC,221617.000,A,4308.3031,N,07726.2626,W,0.07,216.38,060721,,,A*7C
$GPGGA,221617.250,4308.3031,N,07726.2626,W,1,03,1.72,184.3,M,-34.4,M,,*55
$GPRMC,221617.500,A,4308.3032,N,07726.2626,W,0.03,259.84,060721,,,A*72
$GPGGA,221617.750,4308.3032,N,07726.2626,W,1,03,1.72,184.3,M,-34.4,M,,*53
$GPRMC,221618.000,A,4308.3032,N,07726.2626,W,0.08,211.75,060721,,,A*71
$GPGGA,221618.250,4308.3032,N,07726.2626,W,1,03,1.72,184.3,M,-34.4,M,,*59
$GPRMC,221618.500,A,4308.3033,N,07726.2626,W,0.05,207.32,060721,,,A*7C
$GPGGA,221618.750,4308.3033,N,07726.2626,W,1,03,1.72,184.3,M,-34.4,M,,*5D
$GPRMC,221619.000,A,4308.3033,N,07726.2626,W,0.04,160.73,060721,,,A*7E
$GPGGA,221619.250,4308.3033,N,07726.2626,W,1,03,1.72,184.3,M,-34.4,M,,*59
$GPRMC,221619.500,A,4308.3033,N,07726.2626,W,0.06,146.27,060721,,,A*7C
$GPGGA,221619.750,4308.3033,N,07726.2626,W,1,03,1.72,184.3,M,-34.4,M,,*5C
$GPRMC,221620.000,A,4308.3033,N,07726.2626,W,0.05,220.36,060721,,,A*73
$GPGGA,221620.082,4308.3034,N,07726.2627,W,1,04,1.66,183.7,M,-3.4,M,,*59
$GPRMC,221620.500,A,4308.3035,N,07726.2628,W,0.13,48.87,060721,,,A*4F
$GPGGA,221620.750,4308.3036,N,07726.2628,W,1,04,1.67,182.7,M,-34.4,M,,*5C
$GPRMC,221621.000,A,4308.3037,N,07726.2629,W,0.17,29.33,060721,,,A*44
$GPGGA,221621.250,4308.3037,N,07726.2630,W,1,04,1.66,181.9,M,-34.4,M,,*5C
$GPRMC,221621.500,A,4308.3038,N,07726.2631,W,0.07,16.53,060721,,,A*4C
$GPGGA,221621.750,4308.3039,N,07726.2632,W,1,04,1.66,181.1,M,-34.4,M,,*5D
$GPRMC,221622.000,A,4308.3039,N,07726.2632,W,0.12,1.13,060721,,,A*7E
$GPGGA,221622.250,4308.3040,N,07726.2633,W,1,04,1.76,180.4,M,-34.4,M,,*51
$GPRMC,221622.500,A,4308.3041,N,07726.2633,W,0.14,38.87,060721,,,A*44
$GPGGA,221622.750,4308.3041,N,07726.2634,W,1,04,1.67,179.7,M,-34.4,M,,*57
$GPRMC,221623.000,A,4308.3042,N,07726.2635,W,0.08,355.02,060721,,,A*7D
$GPGGA,221623.250,4308.3042,N,07726.2636,W,1,04,1.76,179.0,M,-34.4,M,,*55
$GPRMC,221623.500,A,4308.3043,N,07726.2636,W,0.10,335.63,060721,,,A*72
$GPGGA,221623.750,4308.3043,N,07726.2637,W,1,04,1.67,178.4,M,-34.4,M,,*55
$GPRMC,221624.000,A,4308.3044,N,07726.2637,W,0.04,356.36,060721,,,A*76
$GPGGA,221624.250,4308.3044,N,07726.2637,W,1,04,1.76,177.8,M,-34.4,M,,*53
$GPRMC,221624.500,A,4308.3045,N,07726.2637,W,0.12,64.66,060721,,,A*42
$GPGGA,221624.750,4308.3045,N,07726.2638,W,1,04,1.67,177.3,M,-34.4,M,,*53
$GPRMC,221625.000,A,4308.3045,N,07726.2638,W,0.13,83.36,060721,,,A*44
$GPGGA,221625.250,4308.3045,N,07726.2638,W,1,04,1.67,176.9,M,-34.4,M,,*5C
$GPRMC,221625.500,A,4308.3046,N,07726.2638,W,0.13,62.98,060721,,,A*49
$GPGGA,221625.750,4308.3046,N,07726.2638,W,1,04,1.67,176.5,M,-34.4,M,,*56
$GPRMC,221626.000,A,4308.3046,N,07726.2638,W,0.13,47.82,060721,,,A*43
$GPGGA,221626.250,4308.3047,N,07726.2639,W,1,05,1.62,176.0,M,-34.4,M,,*51
$GPRMC,221626.500,A,4308.3047,N,07726.2640,W,0.04,312.87,060721,,,A*78
$GPGGA,221626.750,4308.3047,N,07726.2640,W,1,05,1.62,175.5,M,-34.4,M,,*5C
$GPRMC,221627.000,A,4308.3047,N,07726.2641,W,0.02,76.80,060721,,,A*4D
$GPGGA,221627.250,4308.3047,N,07726.2641,W,1,05,1.62,174.9,M,-34.4,M,,*54
$GPRMC,221627.500,A,4308.3047,N,07726.2641,W,0.08,74.03,060721,,,A*4B
$GPGGA,221627.750,4308.3047,N,07726.2641,W,1,05,1.62,174.4,M,-34.4,M,,*5C
$GPRMC,221628.000,A,4308.3048,N,07726.2642,W,0.04,48.11,060721,,,A*4D
$GPGGA,221628.250,4308.3048,N,07726.2643,W,1,05,1.62,174.0,M,-34.4,M,,*5F
$GPRMC,221628.500,A,4308.3048,N,07726.2644,W,0.11,282.60,060721,,,A*78
$GPGGA,221628.750,4308.3048,N,07726.2644,W,1,05,1.62,173.6,M,-34.4,M,,*5C
$GPRMC,221629.000,A,4308.3048,N,07726.2644,W,0.10,305.08,060721,,,A*7D
$GPGGA,221629.250,4308.3048,N,07726.2645,W,1,05,1.62,173.1,M,-34.4,M,,*5E
$GPRMC,221629.500,A,4308.3048,N,07726.2646,W,0.08,307.24,060721,,,A*7F
$GPGGA,221629.750,4308.3048,N,07726.2646,W,1,05,1.62,172.7,M,-34.4,M,,*5F
$GPRMC,221630.000,A,4308.3048,N,07726.2647,W,0.04,294.81,060721,,,A*7B
$GPGGA,221630.250,4308.3048,N,07726.2647,W,1,05,1.62,172.2,M,-34.4,M,,*56
$GPRMC,221630.500,A,4308.3048,N,07726.2648,W,0.06,297.40,060721,,,A*7D
$GPGGA,221630.750,4308.3048,N,07726.2648,W,1,05,1.62,171.8,M,-34.4,M,,*55
$GPRMC,221631.000,A,4308.3047,N,07726.2649,W,0.06,279.76,060721,,,A*72
$GPGGA,221631.250,4308.3047,N,07726.2649,W,1,05,1.62,171.4,M,-34.4,M,,*53
$GPRMC,221631.500,A,4308.3047,N,07726.2650,W,0.04,264.20,060721,,,A*72
$GPGGA,221631.750,4308.3047,N,07726.2650,W,1,05,1.62,171.1,M,-34.4,M,,*5B
$GPRMC,221632.000,A,4308.3047,N,07726.2651,W,0.05,334.87,060721,,,A*7D
$GPGGA,221632.250,4308.3047,N,07726.2651,W,1,05,1.62,170.7,M,-34.4,M,,*5B
$GPRMC,221632.500,A,4308.3047,N,07726.2651,W,0.03,144.28,060721,,,A*7E
$GPGGA,221632.750,4308.3046,N,07726.2652,W,1,05,1.62,170.3,M,-34.4,M,,*58
$GPRMC,221633.000,A,4308.3046,N,07726.2652,W,0.10,149.63,060721,,,A*78
$GPGGA,221633.250,4308.3046,N,07726.2652,W,1,05,1.62,170.0,M,-34.4,M,,*5F
$GPRMC,221633.500,A,4308.3046,N,07726.2653,W,0.15,127.53,060721,,,A*72
$GPGGA,221633.750,4308.3045,N,07726.2653,W,1,05,1.62,169.7,M,-34.4,M,,*57
$GPRMC,221634.000,A,4308.3045,N,07726.2654,W,0.12,155.62,060721,,,A*74
$GPGGA,221634.250,4308.3045,N,07726.2654,W,1,05,1.62,169.4,M,-34.4,M,,*51
$GPRMC,221634.500,A,4308.3045,N,07726.2655,W,0.05,39.35,060721,,,A*4F
$GPGGA,221634.750,4308.3045,N,07726.2655,W,1,05,1.62,169.0,M,-34.4,M,,*51
$GPRMC,221635.000,A,4308.3045,N,07726.2655,W,0.06,98.41,060721,,,A*40
$GPGGA,221635.250,4308.3045,N,07726.2655,W,1,05,1.62,168.7,M,-34.4,M,,*53
$GPRMC,221635.500,A,4308.3045,N,07726.2656,W,0.10,96.74,060721,,,A*49
$GPGGA,221635.750,4308.3045,N,07726.2656,W,1,05,1.62,168.5,M,-34.4,M,,*57
$GPRMC,221636.000,A,4308.3045,N,07726.2656,W,0.03,135.48,060721,,,A*7A
$GPGGA,221636.250,4308.3045,N,07726.2656,W,1,05,1.62,168.5,M,-34.4,M,,*51
$GPRMC,221636.500,A,4308.3045,N,07726.2656,W,0.10,121.03,060721,,,A*77
$GPGGA,221636.750,4308.3045,N,07726.2655,W,1,05,1.62,168.5,M,-34.4,M,,*57
$GPRMC,221637.000,A,4308.3045,N,07726.2655,W,0.10,70.03,060721,,,A*45
$GPGGA,221637.250,4308.3045,N,07726.2655,W,1,05,1.62,168.5,M,-34.4,M,,*53
$GPRMC,221637.500,A,4308.3045,N,07726.2655,W,0.03,353.62,060721,,,A*77
$GPGGA,221637.750,4308.3045,N,07726.2655,W,1,05,1.66,168.5,M,-34.4,M,,*52
$GPRMC,221638.000,A,4308.3045,N,07726.2655,W,0.03,300.31,060721,,,A*7D
$GPGGA,221638.250,4308.3045,N,07726.2655,W,1,05,1.62,168.5,M,-34.4,M,,*5C
$GPRMC,221638.500,A,4308.3045,N,07726.2655,W,0.09,153.73,060721,,,A*70
$GPGGA,221638.750,4308.3045,N,07726.2655,W,1,05,1.62,168.4,M,-34.4,M,,*58
$GPRMC,221639.000,A,4308.3045,N,07726.2655,W,0.10,170.36,060721,,,A*7C
$GPGGA,221639.250,4308.3045,N,07726.2655,W,1,05,1.62,168.4,M,-34.4,M,,*5C
$GPRMC,221639.500,A,4308.3044,N,07726.2655,W,0.07,229.55,060721,,,A*74
$GPGGA,221639.750,4308.3044,N,07726.2655,W,1,05,1.62,168.4,M,-34.4,M,,*58
$GPRMC,221640.000,A,4308.3044,N,07726.2655,W,0.09,204.78,060721,,,A*71
$GPGGA,221640.250,4308.3044,N,07726.2655,W,1,05,1.62,168.4,M,-34.4,M,,*53
$GPRMC,221640.500,A,4308.3044,N,07726.2655,W,0.17,185.76,060721,,,A*7F
$GPGGA,221640.750,4308.3044,N,07726.2655,W,1,05,1.62,168.4,M,-34.4,M,,*56
$GPRMC,221641.000,A,4308.3044,N,07726.2655,W,0.11,163.23,060721,,,A*75
$GPGGA,221641.250,4308.3044,N,07726.2655,W,1,05,1.62,168.4,M,-34.4,M,,*52
$GPRMC,221641.500,A,4308.3044,N,07726.2655,W,0.11,133.33,060721,,,A*74
$GPGGA,221641.750,4308.3044,N,07726.2655,W,1,05,1.62,168.4,M,-34.4,M,,*57
$GPRMC,221642.000,A,4308.3044,N,07726.2655,W,0.02,220.11,060721,,,A*71
$GPGGA,221642.250,4308.3044,N,07726.2655,W,1,05,1.62,168.4,M,-34.4,M,,*51
$GPRMC,221642.500,A,4308.3044,N,07726.2655,W,0.05,355.24,060721,,,A*76
$GPGGA,221642.750,4308.3044,N,07726.2655,W,1,05,1.66,168.4,M,-34.4,M,,*50
$GPRMC,221643.000,A,4308.3044,N,07726.2655,W,0.01,311.17,060721,,,A*76
$GPGGA,221643.250,4308.3044,N,07726.2655,W,1,05,1.62,168.4,M,-34.4,M,,*50
$GPRMC,221643.500,A,4308.3044,N,07726.2655,W,0.07,353.54,060721,,,A*74
$GPGGA,221643.750,4308.3044,N,07726.2655,W,1,05,1.66,168.4,M,-34.4,M,,*51
$GPRMC,221644.000,A,4308.3044,N,07726.2655,W,0.24,359.00,060721,,,A*7C
$GPGGA,221644.250,4308.3044,N,07726.2655,W,1,05,1.66,168.4,M,-34.4,M,,*53
$GPRMC,221644.500,A,4308.3044,N,07726.2655,W,0.29,346.88,060721,,,A*7A
$GPGGA,221644.750,4308.3045,N,07726.2656,W,1,05,1.66,168.4,M,-34.4,M,,*54
$GPRMC,221645.000,A,4308.3045,N,07726.2656,W,0.20,341.78,060721,,,A*7D
$GPGGA,221645.250,4308.3045,N,07726.2656,W,1,05,1.62,168.4,M,-34.4,M,,*54
$GPRMC,221645.500,A,4308.3045,N,07726.2656,W,0.07,77.41,060721,,,A*41
$GPGGA,221645.750,4308.3045,N,07726.2656,W,1,05,1.62,168.4,M,-34.4,M,,*51
$GPRMC,221646.000,A,4308.3045,N,07726.2656,W,0.05,35.99,060721,,,A*46
$GPGGA,221646.250,4308.3045,N,07726.2656,W,1,05,1.66,168.4,M,-34.4,M,,*53
$GPRMC,221646.500,A,4308.3045,N,07726.2656,W,0.05,22.49,060721,,,A*48
$GPGGA,221646.750,4308.3045,N,07726.2656,W,1,05,1.66,168.3,M,-34.4,M,,*51
$GPRMC,221647.000,A,4308.3045,N,07726.2656,W,0.03,175.40,060721,,,A*70
$GPGGA,221647.250,4308.3045,N,07726.2656,W,1,05,1.66,168.3,M,-34.4,M,,*55
$GPRMC,221647.500,A,4308.3045,N,07726.2656,W,0.03,176.55,060721,,,A*72
$GPGGA,221647.750,4308.3045,N,07726.2656,W,1,05,1.66,168.3,M,-34.4,M,,*50
$GPRMC,221648.000,A,4308.3045,N,07726.2656,W,0.02,219.82,060721,,,A*79
$GPGGA,221648.250,4308.3045,N,07726.2656,W,1,05,1.66,168.3,M,-34.4,M,,*5A
$GPRMC,221648.500,A,4308.3045,N,07726.2656,W,0.00,338.03,060721,,,A*75
$GPGGA,221648.750,4308.3045,N,07726.2656,W,1,05,1.66,168.3,M,-34.4,M,,*5F
$GPRMC,221649.000,A,4308.3045,N,07726.2656,W,0.01,87.70,060721,,,A*43
$GPGGA,221649.250,4308.3045,N,07726.2656,W,1,05,1.66,168.3,M,-34.4,M,,*5B
$GPRMC,221649.500,A,4308.3045,N,07726.2656,W,0.02,229.56,060721,,,A*77
$GPGGA,221649.750,4308.3045,N,07726.2656,W,1,05,1.66,168.3,M,-34.4,M,,*5E
$GPRMC,221650.000,A,4308.3045,N,07726.2656,W,0.02,357.17,060721,,,A*77
$GPGGA,221650.250,4308.3045,N,07726.2656,W,1,05,1.67,168.3,M,-34.4,M,,*52
$GPRMC,221650.500,A,4308.3045,N,07726.2656,W,0.02,109.26,060721,,,A*79
$GPGGA,221650.750,4308.3045,N,07726.2656,W,1,05,1.66,168.3,M,-34.4,M,,*56
$GPRMC,221651.000,A,4308.3045,N,07726.2656,W,0.00,326.61,060721,,,A*73
$GPGGA,221651.250,4308.3045,N,07726.2656,W,1,05,1.66,168.3,M,-34.4,M,,*52
$GPRMC,221651.500,A,4308.3045,N,07726.2656,W,0.00,0.00,060721,,,A*76
$GPGGA,221651.750,4308.3045,N,07726.2656,W,1,05,1.67,168.3,M,-34.4,M,,*56
$GPRMC,221652.000,A,4308.3045,N,07726.2656,W,0.02,76.71,060721,,,A*45
$GPGGA,221652.250,4308.3045,N,07726.2656,W,1,05,1.66,168.3,M,-34.4,M,,*51
$GPRMC,221652.500,A,4308.3045,N,07726.2656,W,0.01,22.29,060721,,,A*4F
$GPGGA,221652.750,4308.3045,N,07726.2656,W,1,05,1.67,168.3,M,-34.4,M,,*55
$GPRMC,221653.000,A,4308.3045,N,07726.2656,W,0.01,293.39,060721,,,A*72
$GPGGA,221653.250,4308.3045,N,07726.2656,W,1,05,1.66,168.3,M,-34.4,M,,*50
$GPRMC,221653.500,A,4308.3045,N,07726.2656,W,0.02,320.91,060721,,,A*7F
$GPGGA,221653.750,4308.3045,N,07726.2656,W,1,05,1.67,168.3,M,-34.4,M,,*54
$GPRMC,221654.000,A,4308.3045,N,07726.2656,W,0.00,185.86,060721,,,A*74
$GPGGA,221654.250,4308.3045,N,07726.2656,W,1,05,1.66,168.3,M,-34.4,M,,*57
$GPRMC,221654.500,A,4308.3045,N,07726.2656,W,0.01,11.32,060721,,,A*43
$GPGGA,221654.750,4308.3045,N,07726.2656,W,1,05,1.66,168.3,M,-34.4,M,,*52
$GPRMC,221655.000,A,4308.3045,N,07726.2656,W,0.00,247.86,060721,,,A*78
$GPGGA,221655.250,4308.3045,N,07726.2656,W,1,05,1.67,168.3,M,-34.4,M,,*57
$GPRMC,221655.500,A,4308.3045,N,07726.2656,W,0.01,279.29,060721,,,A*74
$GPGGA,221655.750,4308.3045,N,07726.2656,W,1,05,1.66,168.3,M,-34.4,M,,*53
$GPRMC,221656.000,A,4308.3045,N,07726.2656,W,0.00,335.55,060721,,,A*71
$GPGGA,221656.250,4308.3045,N,07726.2656,W,1,05,1.67,168.3,M,-34.4,M,,*54
$GPRMC,221656.500,A,4308.3045,N,07726.2656,W,0.01,327.81,060721,,,A*7F
$GPGGA,221656.750,4308.3045,N,07726.2656,W,1,05,1.66,168.3,M,-34.4,M,,*50
$GPRMC,221657.000,A,4308.3045,N,07726.2656,W,0.01,287.76,060721,,,A*78
$GPGGA,221657.250,4308.3045,N,07726.2656,W,1,05,1.67,168.3,M,-34.4,M,,*55
$GPRMC,221657.500,A,4308.3045,N,07726.2656,W,0.00,190.02,060721,,,A*7A
$GPGGA,221657.750,4308.3045,N,07726.2656,W,1,05,1.67,168.3,M,-34.4,M,,*50
$GPRMC,221658.000,A,4308.3045,N,07726.2656,W,0.01,120.60,060721,,,A*7E
$GPGGA,221658.250,4308.3045,N,07726.2656,W,1,05,1.67,168.3,M,-34.4,M,,*5A
$GPRMC,221658.500,A,4308.3045,N,07726.2656,W,0.01,117.93,060721,,,A*73
$GPGGA,221658.750,4308.3045,N,07726.2656,W,1,05,1.67,168.3,M,-34.4,M,,*5F
$GPRMC,221659.000,A,4308.3045,N,07726.2656,W,0.00,0.00,060721,,,A*7B
$GPGGA,221659.250,4308.3045,N,07726.2656,W,1,05,1.67,168.2,M,-34.4,M,,*5A
$GPRMC,221659.500,A,4308.3045,N,07726.2656,W,0.01,234.54,060721,,,A*7B
$GPGGA,221659.750,4308.3045,N,07726.2656,W,1,05,1.67,168.2,M,-34.4,M,,*5F
$GPRMC,221700.000,A,4308.3045,N,07726.2656,W,0.01,213.97,060721,,,A*79
$GPGGA,221700.250,4308.3045,N,07726.2656,W,1,05,1.67,168.2,M,-34.4,M,,*57
$GPRMC,221700.500,A,4308.3045,N,07726.2656,W,0.01,283.56,060721,,,A*78
$GPGGA,221700.750,4308.3045,N,07726.2656,W,1,05,1.67,168.2,M,-34.4,M,,*52
$GPRMC,221701.000,A,4308.3045,N,07726.2656,W,0.00,191.82,060721,,,A*74
$GPGGA,221701.250,4308.3045,N,07726.2656,W,1,05,1.67,168.2,M,-34.4,M,,*56
$GPRMC,221701.500,A,4308.3045,N,07726.2656,W,0.02,3.41,060721,,,A*76
$GPGGA,221701.750,4308.3045,N,07726.2656,W,1,05,1.67,168.2,M,-34.4,M,,*53
$GPRMC,221702.000,A,4308.3045,N,07726.2656,W,0.00,254.25,060721,,,A*70
$GPGGA,221702.250,4308.3045,N,07726.2656,W,1,05,1.67,168.2,M,-34.4,M,,*55
$GPRMC,221702.500,A,4308.3045,N,07726.2656,W,0.01,260.61,060721,,,A*73
$GPGGA,221702.750,4308.3045,N,07726.2656,W,1,05,1.67,168.2,M,-34.4,M,,*50
$GPRMC,221703.000,A,4308.3045,N,07726.2656,W,0.01,245.56,060721,,,A*74
$GPGGA,221703.250,4308.3045,N,07726.2656,W,1,05,1.67,168.2,M,-34.4,M,,*54
$GPRMC,221703.500,A,4308.3045,N,07726.2656,W,0.02,286.10,060721,,,A*7F
$GPGGA,221703.750,4308.3045,N,07726.2656,W,1,05,1.67,168.2,M,-34.4,M,,*51
$GPRMC,221704.000,A,4308.3045,N,07726.2656,W,0.00,0.00,060721,,,A*72
$GPGGA,221704.250,4308.3045,N,07726.2656,W,1,05,1.67,168.2,M,-34.4,M,,*53
$GPRMC,221704.500,A,4308.3045,N,07726.2656,W,0.00,0.00,060721,,,A*77
$GPGGA,221704.750,4308.3045,N,07726.2656,W,1,05,1.67,168.2,M,-34.4,M,,*56
$GPRMC,221705.000,A,4308.3045,N,07726.2656,W,0.00,33.42,060721,,,A*45
$GPGGA,221705.250,4308.3045,N,07726.2656,W,1,05,1.67,168.2,M,-34.4,M,,*52
$GPRMC,221705.500,A,4308.3045,N,07726.2656,W,0.02,308.82,060721,,,A*75
$GPGGA,221705.750,4308.3045,N,07726.2656,W,1,05,1.67,168.2,M,-34.4,M,,*57
$GPRMC,221706.000,A,4308.3045,N,07726.2656,W,0.00,0.00,060721,,,A*70
$GPGGA,221706.250,4308.3045,N,07726.2656,W,1,05,1.67,168.2,M,-34.4,M,,*51
$GPRMC,221706.500,A,4308.3045,N,07726.2656,W,0.01,158.60,060721,,,A*7E
$GPGGA,221706.750,4308.3045,N,07726.2656,W,1,05,1.67,168.2,M,-34.4,M,,*54
$GPRMC,221707.000,A,4308.3045,N,07726.2656,W,0.01,276.06,060721,,,A*75
$GPGGA,221707.250,4308.3045,N,07726.2656,W,1,05,1.67,168.2,M,-34.4,M,,*50
$GPRMC,221707.500,A,4308.3045,N,07726.2656,W,0.01,243.09,060721,,,A*79
$GPGGA,221707.750,4308.3045,N,07726.2656,W,1,05,1.67,168.2,M,-34.4,M,,*55
$GPRMC,221708.000,A,4308.3045,N,07726.2656,W,0.00,320.94,060721,,,A*72
$GPGGA,221708.250,4308.3045,N,07726.2656,W,1,05,1.67,168.2,M,-34.4,M,,*5F
$GPRMC,221708.500,A,4308.3045,N,07726.2656,W,0.01,336.90,060721,,,A*75
$GPGGA,221708.750,4308.3045,N,07726.2656,W,1,05,1.67,168.2,M,-34.4,M,,*5A
$GPRMC,221709.000,A,4308.3045,N,07726.2656,W,0.01,116.53,060721,,,A*7E
$GPGGA,221709.250,4308.3045,N,07726.2656,W,1,05,1.67,168.2,M,-34.4,M,,*5E
$GPRMC,221709.500,A,4308.3045,N,07726.2656,W,0.01,348.84,060721,,,A*78
$GPGGA,221709.750,4308.3045,N,07726.2656,W,1,05,1.67,168.2,M,-34.4,M,,*5B
$GPRMC,221710.000,A,4308.3045,N,07726.2656,W,0.01,141.43,060721,,,A*75
$GPGGA,221710.250,4308.3045,N,07726.2656,W,1,05,1.67,168.2,M,-34.4,M,,*56
$GPRMC,221710.500,A,4308.3045,N,07726.2656,W,0.01,319.33,060721,,,A*78
$GPGGA,221710.750,4308.3045,N,07726.2656,W,1,05,1.67,168.2,M,-34.4,M,,*53
$GPRMC,221711.000,A,4308.3045,N,07726.2656,W,0.00,346.29,060721,,,A*7C
$GPGGA,221711.250,4308.3045,N,07726.2656,W,1,05,1.67,168.2,M,-34.4,M,,*57
$GPRMC,221711.500,A,4308.3045,N,07726.2656,W,0.01,270.99,060721,,,A*77
$GPGGA,221711.750,4308.3045,N,07726.2656,W,1,05,1.67,168.2,M,-34.4,M,,*52
$GPRMC,221712.000,A,4308.3045,N,07726.2656,W,0.00,133.53,060721,,,A*72
$GPGGA,221712.250,4308.3045,N,07726.2656,W,1,05,1.67,168.2,M,-34.4,M,,*54
$GPRMC,221712.500,A,4308.3045,N,07726.2656,W,0.01,312.80,060721,,,A*79
$GPGGA,221712.750,4308.3045,N,07726.2656,W,1,05,1.67,168.2,M,-34.4,M,,*51
$GPRMC,221713.000,A,4308.3045,N,07726.2656,W,0.00,0.00,060721,,,A*74
$GPGGA,221713.250,4308.3045,N,07726.2656,W,1,05,1.67,168.2,M,-34.4,M,,*55
$GPRMC,221713.500,A,4308.3045,N,07726.2656,W,0.01,150.96,060721,,,A*7B
$GPGGA,221713.750,4308.3045,N,07726.2656,W,1,05,1.67,168.2,M,-34.4,M,,*50
$GPRMC,221714.000,A,4308.3045,N,07726.2656,W,0.00,77.22,060721,,,A*43
$GPGGA,221714.250,4308.3045,N,07726.2656,W,1,05,1.67,168.2,M,-34.4,M,,*52
$GPRMC,221714.500,A,4308.3045,N,07726.2656,W,0.00,230.59,060721,,,A*7B
$GPGGA,221714.750,4308.3045,N,07726.2656,W,1,05,1.67,168.2,M,-34.4,M,,*57
$GPRMC,221715.000,A,4308.3045,N,07726.2656,W,0.01,69.38,060721,,,A*47
$GPGGA,221715.250,4308.3045,N,07726.2656,W,1,05,1.67,168.1,M,-34.4,M,,*50
$GPRMC,221715.500,A,4308.3045,N,07726.2656,W,0.01,5.40,060721,,,A*77
$GPGGA,221715.750,4308.3045,N,07726.2656,W,1,05,1.67,168.1,M,-34.4,M,,*55
$GPRMC,221716.000,A,4308.3045,N,07726.2656,W,0.00,264.46,060721,,,A*73
$GPGGA,221716.250,4308.3045,N,07726.2656,W,1,05,1.67,168.1,M,-34.4,M,,*53
$GPRMC,221716.500,A,4308.3045,N,07726.2656,W,0.00,70.97,060721,,,A*4D
$GPGGA,221716.750,4308.3045,N,07726.2656,W,1,05,1.67,168.1,M,-34.4,M,,*56
$GPRMC,221717.000,A,4308.3045,N,07726.2656,W,0.01,92.46,060721,,,A*48
$GPGGA,221717.250,4308.3045,N,07726.2656,W,1,05,1.67,168.1,M,-34.4,M,,*52
$GPRMC,221717.500,A,4308.3045,N,07726.2656,W,0.00,295.91,060721,,,A*73
$GPGGA,221717.750,4308.3045,N,07726.2656,W,1,05,1.67,168.1,M,-34.4,M,,*57
$GPRMC,221718.000,A,4308.3045,N,07726.2656,W,0.01,149.97,060721,,,A*7C
$GPGGA,221718.250,4308.3045,N,07726.2656,W,1,05,1.67,168.1,M,-34.4,M,,*5D
$GPRMC,221718.500,A,4308.3045,N,07726.2656,W,0.00,0.00,060721,,,A*7A
$GPGGA,221718.750,4308.3045,N,07726.2656,W,1,05,1.67,168.1,M,-34.4,M,,*58
$GPRMC,221719.000,A,4308.3045,N,07726.2656,W,0.00,58.20,060721,,,A*41
$GPGGA,221719.250,4308.3045,N,07726.2656,W,1,05,1.67,168.1,M,-34.4,M,,*5C
$GPRMC,221719.500,A,4308.3045,N,07726.2656,W,0.01,321.94,060721,,,A*77
$GPGGA,221719.750,4308.3045,N,07726.2656,W,1,05,1.67,168.1,M,-34.4,M,,*59
$GPRMC,221720.000,A,4308.3045,N,07726.2656,W,0.00,35.44,060721,,,A*42
$GPGGA,221720.250,4308.3045,N,07726.2656,W,1,05,1.67,168.1,M,-34.4,M,,*56
$GPRMC,221720.500,A,4308.3045,N,07726.2656,W,0.01,339.25,060721,,,A*7E
$GPGGA,221720.750,4308.3045,N,07726.2656,W,1,05,1.67,168.1,M,-34.4,M,,*53
$GPRMC,221721.000,A,4308.3045,N,07726.2656,W,0.00,25.48,060721,,,A*4E
$GPGGA,221721.250,4308.3045,N,07726.2656,W,1,05,1.67,168.1,M,-34.4,M,,*57
$GPRMC,221721.500,A,4308.3045,N,07726.2656,W,0.01,132.69,060721,,,A*7E
$GPGGA,221721.750,4308.3045,N,07726.2656,W,1,05,1.67,168.1,M,-34.4,M,,*52
$GPRMC,221722.000,A,4308.3045,N,07726.2656,W,0.00,91.44,060721,,,A*4E
$GPGGA,221722.250,4308.3045,N,07726.2656,W,1,05,1.67,168.1,M,-34.4,M,,*54
$GPRMC,221722.500,A,4308.3045,N,07726.2656,W,0.01,308.67,060721,,,A*78
$GPGGA,221722.750,4308.3045,N,07726.2656,W,1,05,1.67,168.1,M,-34.4,M,,*51
$GPRMC,221723.000,A,4308.3045,N,07726.2656,W,0.01,6.09,060721,,,A*79
$GPGGA,221723.250,4308.3045,N,07726.2656,W,1,05,1.67,168.1,M,-34.4,M,,*55
$GPRMC,221723.500,A,4308.3045,N,07726.2656,W,0.01,149.05,060721,,,A*7A
$GPGGA,221723.750,4308.3045,N,07726.2656,W,1,05,1.67,168.1,M,-34.4,M,,*50
$GPRMC,221724.000,A,4308.3045,N,07726.2656,W,0.00,25.63,060721,,,A*42
$GPGGA,221724.250,4308.3045,N,07726.2656,W,1,05,1.67,168.1,M,-34.4,M,,*52
$GPRMC,221724.500,A,4308.3045,N,07726.2656,W,0.02,116.90,060721,,,A*78
$GPGGA,221724.750,4308.3045,N,07726.2656,W,1,05,1.67,168.1,M,-34.4,M,,*57
$GPRMC,221725.000,A,4308.3045,N,07726.2656,W,0.00,109.05,060721,,,A*7C
$GPGGA,221725.250,4308.3045,N,07726.2656,W,1,05,1.67,168.1,M,-34.4,M,,*53
$GPRMC,221725.500,A,4308.3045,N,07726.2656,W,0.01,286.48,060721,,,A*75
$GPGGA,221725.750,4308.3045,N,07726.2656,W,1,05,1.67,168.1,M,-34.4,M,,*56
$GPRMC,221726.000,A,4308.3045,N,07726.2656,W,0.01,338.28,060721,,,A*71
$GPGGA,221726.250,4308.3045,N,07726.2656,W,1,05,1.67,168.1,M,-34.4,M,,*50
$GPRMC,221726.500,A,4308.3045,N,07726.2656,W,0.01,279.38,060721,,,A*71
$GPGGA,221726.750,4308.3045,N,07726.2656,W,1,05,1.67,168.1,M,-34.4,M,,*55
$GPRMC,221727.000,A,4308.3045,N,07726.2656,W,0.00,15.25,060721,,,A*40
$GPGGA,221727.250,4308.3045,N,07726.2656,W,1,05,1.67,168.1,M,-34.4,M,,*51
$GPRMC,221727.500,A,4308.3045,N,07726.2656,W,0.01,137.22,060721,,,A*72
$GPGGA,221727.750,4308.3045,N,07726.2656,W,1,05,1.67,168.1,M,-34.4,M,,*54
$GPRMC,221728.000,A,4308.3045,N,07726.2656,W,0.01,220.63,060721,,,A*78
$GPGGA,221728.250,4308.3045,N,07726.2656,W,1,05,1.67,168.1,M,-34.4,M,,*5E
$GPRMC,221728.500,A,4308.3045,N,07726.2656,W,0.01,67.88,060721,,,A*49
$GPGGA,221728.750,4308.3045,N,07726.2656,W,1,05,1.67,168.1,M,-34.4,M,,*5B
$GPRMC,221729.000,A,4308.3045,N,07726.2656,W,0.00,6.11,060721,,,A*7B
$GPGGA,221729.250,4308.3045,N,07726.2656,W,1,05,1.67,168.1,M,-34.4,M,,*5F
$GPRMC,221729.500,A,4308.3045,N,07726.2656,W,0.00,145.31,060721,,,A*7A
$GPGGA,221729.750,4308.3045,N,07726.2656,W,1,05,1.67,168.0,M,-34.4,M,,*5B
$GPRMC,221730.000,A,4308.3045,N,07726.2656,W,0.00,348.87,060721,,,A*75
$GPGGA,221730.250,4308.3045,N,07726.2656,W,1,05,1.67,168.0,M,-34.4,M,,*56
$GPRMC,221730.500,A,4308.3045,N,07726.2656,W,0.00,246.69,060721,,,A*7F
$GPGGA,221730.750,4308.3045,N,07726.2656,W,1,05,1.67,168.0,M,-34.4,M,,*53
$GPRMC,221731.000,A,4308.3045,N,07726.2656,W,0.01,263.02,060721,,,A*70
$GPGGA,221731.250,4308.3045,N,07726.2656,W,1,05,1.67,168.0,M,-34.4,M,,*57
$GPRMC,221731.500,A,4308.3045,N,07726.2656,W,0.01,263.23,060721,,,A*76
$GPGGA,221731.750,4308.3045,N,07726.2656,W,1,05,1.67,168.0,M,-34.4,M,,*52
$GPRMC,221732.000,A,4308.3045,N,07726.2656,W,0.01,337.73,060721,,,A*75
$GPGGA,221732.250,4308.3045,N,07726.2656,W,1,05,1.67,168.0,M,-34.4,M,,*54
$GPRMC,221732.500,A,4308.3045,N,07726.2656,W,0.01,112.55,060721,,,A*71
$GPGGA,221732.750,4308.3045,N,07726.2656,W,1,05,1.67,168.0,M,-34.4,M,,*51
$GPRMC,221733.000,A,4308.3045,N,07726.2656,W,0.01,11.75,060721,,,A*45
$GPGGA,221733.250,4308.3045,N,07726.2656,W,1,05,1.67,168.0,M,-34.4,M,,*55
$GPRMC,221733.500,A,4308.3045,N,07726.2656,W,0.00,252.31,060721,,,A*74
$GPGGA,221733.750,4308.3045,N,07726.2656,W,1,05,1.67,168.0,M,-34.4,M,,*50
$GPRMC,221734.000,A,4308.3045,N,07726.2656,W,0.00,329.35,060721,,,A*7F
$GPGGA,221734.250,4308.3045,N,07726.2656,W,1,05,1.67,168.0,M,-34.4,M,,*52
$GPRMC,221734.500,A,4308.3045,N,07726.2656,W,0.00,260.95,060721,,,A*7C
$GPGGA,221734.750,4308.3045,N,07726.2656,W,1,05,1.67,168.0,M,-34.4,M,,*57
$GPRMC,221735.000,A,4308.3045,N,07726.2656,W,0.00,188.54,060721,,,A*70
$GPGGA,221735.250,4308.3045,N,07726.2656,W,1,05,1.67,168.0,M,-34.4,M,,*53
$GPRMC,221735.500,A,4308.3045,N,07726.2656,W,0.01,300.96,060721,,,A*78
$GPGGA,221735.750,4308.3045,N,07726.2656,W,1,05,1.67,168.0,M,-34.4,M,,*56
$GPRMC,221736.000,A,4308.3045,N,07726.2656,W,0.00,242.63,060721,,,A*72
$GPGGA,221736.250,4308.3045,N,07726.2656,W,1,05,1.67,168.0,M,-34.4,M,,*50
$GPRMC,221736.500,A,4308.3045,N,07726.2656,W,0.00,289.08,060721,,,A*7D
$GPGGA,221736.750,4308.3045,N,07726.2656,W,1,05,1.67,168.0,M,-34.4,M,,*55
$GPRMC,221737.000,A,4308.3045,N,07726.2656,W,0.01,359.02,060721,,,A*7E
$GPGGA,221737.250,4308.3045,N,07726.2656,W,1,05,1.67,168.0,M,-34.4,M,,*51
$GPRMC,221737.500,A,4308.3045,N,07726.2656,W,0.01,42.41,060721,,,A*45
$GPGGA,221737.750,4308.3045,N,07726.2656,W,1,05,1.67,168.0,M,-34.4,M,,*54
$GPRMC,221738.000,A,4308.3045,N,07726.2656,W,0.02,7.25,060721,,,A*7F
$GPGGA,221738.250,4308.3045,N,07726.2656,W,1,05,1.67,168.0,M,-34.4,M,,*5E
$GPRMC,221738.500,A,4308.3045,N,07726.2656,W,0.05,358.34,060721,,,A*74
$GPGGA,221738.750,4308.3045,N,07726.2656,W,1,05,1.67,168.0,M,-34.4,M,,*5B
$GPRMC,221739.000,A,4308.3046,N,07726.2656,W,0.13,2.16,060721,,,A*78
$GPGGA,221739.250,4308.3046,N,07726.2656,W,1,05,1.67,168.0,M,-34.4,M,,*5C
$GPRMC,221739.500,A,4308.3046,N,07726.2656,W,0.27,352.08,060721,,,A*73
$GPGGA,221739.750,4308.3046,N,07726.2656,W,1,05,1.67,168.0,M,-34.4,M,,*59
$GPRMC,221740.000,A,4308.3046,N,07726.2656,W,0.62,355.92,060721,,,A*7D
$GPGGA,221740.250,4308.3046,N,07726.2656,W,1,05,1.67,168.0,M,-34.4,M,,*52
$GPRMC,221740.500,A,4308.3047,N,07726.2656,W,0.73,351.80,060721,,,A*7E
$GPGGA,221740.750,4308.3049,N,07726.2656,W,1,05,1.67,168.0,M,-34.4,M,,*58
$GPRMC,221741.000,A,4308.3051,N,07726.2655,W,1.28,355.39,060721,,,A*77
$GPGGA,221741.250,4308.3054,N,07726.2656,W,1,05,1.67,167.9,M,-34.4,M,,*56
$GPRMC,221741.500,A,4308.3056,N,07726.2656,W,3.12,350.11,060721,,,A*72
$GPGGA,221741.750,4308.3059,N,07726.2656,W,1,05,1.68,167.8,M,-34.4,M,,*50
$GPRMC,221742.000,A,4308.3062,N,07726.2656,W,3.70,356.28,060721,,,A*7B
$GPGGA,221742.250,4308.3065,N,07726.2657,W,1,05,1.67,167.8,M,-34.4,M,,*57
$GPRMC,221742.500,A,4308.3068,N,07726.2657,W,4.03,359.30,060721,,,A*70
$GPGGA,221742.750,4308.3071,N,07726.2657,W,1,05,1.67,167.8,M,-34.4,M,,*57
$GPRMC,221743.000,A,4308.3074,N,07726.2657,W,3.94,359.86,060721,,,A*7D
$GPGGA,221743.250,4308.3077,N,07726.2657,W,1,05,1.67,167.7,M,-34.4,M,,*5A
$GPRMC,221743.500,A,4308.3081,N,07726.2658,W,4.71,358.63,060721,,,A*7B
$GPGGA,221743.750,4308.3085,N,07726.2657,W,1,05,1.67,167.5,M,-34.4,M,,*50
$GPRMC,221744.000,A,4308.3088,N,07726.2656,W,4.56,5.36,060721,,,A*70
$GPGGA,221744.250,4308.3091,N,07726.2655,W,1,05,1.68,167.3,M,-34.4,M,,*5C
$GPRMC,221744.500,A,4308.3095,N,07726.2654,W,4.42,9.28,060721,,,A*7D
$GPGGA,221744.750,4308.3097,N,07726.2653,W,1,05,1.67,167.2,M,-34.4,M,,*57
$GPRMC,221745.000,A,4308.3100,N,07726.2652,W,3.83,17.40,060721,,,A*49
$GPGGA,221745.250,4308.3102,N,07726.2651,W,1,05,1.63,167.0,M,-34.4,M,,*5A
$GPRMC,221745.500,A,4308.3105,N,07726.2650,W,3.56,22.92,060721,,,A*4A
$GPGGA,221745.750,4308.3107,N,07726.2649,W,1,05,1.63,166.7,M,-34.4,M,,*55
$GPRMC,221746.000,A,4308.3109,N,07726.2649,W,2.84,17.46,060721,,,A*49
$GPGGA,221746.250,4308.3110,N,07726.2648,W,1,05,1.63,166.6,M,-34.4,M,,*55
$GPRMC,221746.500,A,4308.3112,N,07726.2647,W,2.58,23.77,060721,,,A*4C
$GPGGA,221746.750,4308.3114,N,07726.2646,W,1,05,1.63,166.4,M,-34.4,M,,*58
$GPRMC,221747.000,A,4308.3116,N,07726.2645,W,2.41,20.90,060721,,,A*4C
$GPGGA,221747.250,4308.3118,N,07726.2644,W,1,05,1.63,166.2,M,-34.4,M,,*54
$GPRMC,221747.500,A,4308.3119,N,07726.2644,W,1.97,28.91,060721,,,A*46
$GPGGA,221747.750,4308.3120,N,07726.2643,W,1,05,1.63,166.1,M,-34.4,M,,*5E
$GPRMC,221748.000,A,4308.3121,N,07726.2642,W,1.81,29.83,060721,,,A*44
$GPGGA,221748.250,4308.3122,N,07726.2641,W,1,05,1.63,166.0,M,-34.4,M,,*55
$GPRMC,221748.500,A,4308.3122,N,07726.2641,W,1.29,43.44,060721,,,A*44
$GPGGA,221748.750,4308.3123,N,07726.2640,W,1,05,1.63,165.9,M,-34.4,M,,*5A
$GPRMC,221749.000,A,4308.3124,N,07726.2640,W,1.07,34.56,060721,,,A*48
$GPGGA,221749.250,4308.3124,N,07726.2640,W,1,05,1.63,165.8,M,-34.4,M,,*58
$GPRMC,221749.500,A,4308.3125,N,07726.2639,W,0.95,37.44,060721,,,A*48
$GPGGA,221749.750,4308.3125,N,07726.2639,W,1,05,1.63,165.6,M,-34.4,M,,*5C
$GPRMC,221750.000,A,4308.3126,N,07726.2639,W,0.91,33.32,060721,,,A*47
$GPGGA,221750.250,4308.3126,N,07726.2638,W,1,05,1.63,165.5,M,-34.4,M,,*50
$GPRMC,221750.500,A,4308.3127,N,07726.2638,W,0.81,31.74,060721,,,A*43
$GPGGA,221750.750,4308.3127,N,07726.2638,W,1,05,1.63,165.4,M,-34.4,M,,*55
$GPRMC,221751.000,A,4308.3128,N,07726.2638,W,0.77,29.48,060721,,,A*47
$GPGGA,221751.250,4308.3128,N,07726.2637,W,1,05,1.63,165.4,M,-34.4,M,,*51
$GPRMC,221751.500,A,4308.3129,N,07726.2636,W,0.80,34.15,060721,,,A*41
$GPGGA,221751.750,4308.3129,N,07726.2635,W,1,05,1.63,165.3,M,-34.4,M,,*50
$GPRMC,221752.000,A,4308.3130,N,07726.2634,W,0.90,36.97,060721,,,A*44
$GPGGA,221752.250,4308.3132,N,07726.2632,W,1,05,1.63,165.2,M,-34.4,M,,*5A
$GPRMC,221752.500,A,4308.3133,N,07726.2630,W,1.10,39.50,060721,,,A*4B
$GPGGA,221752.750,4308.3136,N,07726.2627,W,1,05,1.63,165.2,M,-34.4,M,,*5F
$GPRMC,221753.000,A,4308.3140,N,07726.2623,W,1.79,45.21,060721,,,A*4B
$GPGGA,221753.250,4308.3140,N,07726.2617,W,1,05,1.63,165.1,M,-34.4,M,,*5A
$GPRMC,221753.500,A,4308.3142,N,07726.2614,W,2.66,65.33,060721,,,A*44
$GPGGA,221753.750,4308.3143,N,07726.2611,W,1,05,1.63,165.1,M,-34.4,M,,*5A
$GPRMC,221754.000,A,4308.3144,N,07726.2608,W,3.16,71.10,060721,,,A*4F
$GPGGA,221754.250,4308.3145,N,07726.2604,W,1,05,1.63,165.0,M,-34.4,M,,*5B
$GPRMC,221754.500,A,4308.3146,N,07726.2600,W,3.66,74.19,060721,,,A*4B
$GPGGA,221754.750,4308.3146,N,07726.2597,W,1,05,1.63,164.9,M,-34.4,M,,*5C
$GPRMC,221755.000,A,4308.3146,N,07726.2594,W,2.62,87.98,060721,,,A*41
$GPGGA,221755.250,4308.3146,N,07726.2593,W,1,05,1.63,164.9,M,-34.4,M,,*5C
$GPRMC,221755.500,A,4308.3146,N,07726.2591,W,1.72,104.23,060721,,,A*79
$GPGGA,221755.750,4308.3146,N,07726.2590,W,1,05,1.63,164.8,M,-34.4,M,,*5B
$GPRMC,221756.000,A,4308.3146,N,07726.2590,W,0.80,126.88,060721,,,A*73
$GPGGA,221756.250,4308.3146,N,07726.2592,W,1,05,1.63,164.7,M,-34.4,M,,*50
$GPRMC,221756.500,A,4308.3147,N,07726.2594,W,0.67,244.33,060721,,,A*7D
$GPGGA,221756.750,4308.3148,N,07726.2597,W,1,05,1.63,164.6,M,-34.4,M,,*5F
$GPRMC,221757.000,A,4308.3147,N,07726.2601,W,1.65,256.15,060721,,,A*72
$GPGGA,221757.250,4308.3147,N,07726.2605,W,1,05,1.63,164.5,M,-34.4,M,,*5F
$GPRMC,221757.500,A,4308.3146,N,07726.2609,W,4.03,251.62,060721,,,A*7C
$GPGGA,221757.750,4308.3145,N,07726.2614,W,1,05,1.68,164.5,M,-34.4,M,,*53
$GPRMC,221758.000,A,4308.3145,N,07726.2621,W,5.88,254.71,060721,,,A*7A
$GPGGA,221758.250,4308.3145,N,07726.2630,W,1,05,1.68,164.4,M,-34.4,M,,*5E
$GPRMC,221758.500,A,4308.3146,N,07726.2639,W,8.27,264.77,060721,,,A*78
$GPGGA,221758.750,4308.3148,N,07726.2649,W,1,05,1.68,164.3,M,-34.4,M,,*5F
$GPRMC,221759.000,A,4308.3150,N,07726.2659,W,9.83,273.98,060721,,,A*75
$GPGGA,221759.250,4308.3151,N,07726.2668,W,1,05,1.63,164.3,M,-34.4,M,,*5B
$GPRMC,221759.500,A,4308.3152,N,07726.2678,W,10.29,274.63,060721,,,A*4A
$GPGGA,221759.750,4308.3153,N,07726.2689,W,1,05,1.63,164.2,M,-34.4,M,,*52
$GPRMC,221800.000,A,4308.3153,N,07726.2700,W,11.16,274.91,060721,,,A*43
$GPGGA,221800.250,4308.3154,N,07726.2712,W,1,05,1.63,164.2,M,-34.4,M,,*50
$GPRMC,221800.500,A,4308.3155,N,07726.2724,W,12.22,273.45,060721,,,A*4C
$GPGGA,221800.750,4308.3155,N,07726.2735,W,1,05,1.63,164.1,M,-34.4,M,,*52
$GPRMC,221801.000,A,4308.3156,N,07726.2747,W,12.63,273.32,060721,,,A*4B
$GPGGA,221801.250,4308.3157,N,07726.2759,W,1,05,1.63,164.0,M,-34.4,M,,*5F
$GPRMC,221801.500,A,4308.3158,N,07726.2772,W,13.41,273.50,060721,,,A*43
$GPGGA,221801.750,4308.3159,N,07726.2784,W,1,05,1.63,163.8,M,-34.4,M,,*5B
$GPRMC,221802.000,A,4308.3161,N,07726.2798,W,14.00,274.51,060721,,,A*4F
$GPGGA,221802.250,4308.3165,N,07726.2812,W,1,05,1.63,163.7,M,-34.4,M,,*5D
$GPRMC,221802.500,A,4308.3170,N,07726.2826,W,14.99,279.00,060721,,,A*49
$GPGGA,221802.750,4308.3174,N,07726.2840,W,1,05,1.63,163.6,M,-34.4,M,,*5E
$GPRMC,221803.000,A,4308.3179,N,07726.2855,W,15.86,281.61,060721,,,A*4F
$GPGGA,221803.250,4308.3183,N,07726.2870,W,1,05,1.63,163.5,M,-34.4,M,,*52
$GPRMC,221803.500,A,4308.3188,N,07726.2885,W,16.47,284.67,060721,,,A*44
$GPGGA,221803.750,4308.3196,N,07726.2901,W,1,05,1.63,163.4,M,-34.4,M,,*55
$GPRMC,221804.000,A,4308.3202,N,07726.2916,W,16.75,289.07,060721,,,A*46
$GPGGA,221804.250,4308.3208,N,07726.2931,W,1,05,1.63,163.4,M,-34.4,M,,*50
$GPRMC,221804.500,A,4308.3214,N,07726.2947,W,16.90,292.06,060721,,,A*40
$GPGGA,221804.750,4308.3222,N,07726.2963,W,1,05,1.63,163.4,M,-34.4,M,,*5A
$GPRMC,221805.000,A,4308.3230,N,07726.2979,W,17.32,295.94,060721,,,A*4A
$GPGGA,221805.250,4308.3239,N,07726.2995,W,1,05,1.63,163.4,M,-34.4,M,,*5D
$GPRMC,221805.500,A,4308.3248,N,07726.3011,W,17.60,300.58,060721,,,A*4C
$GPGGA,221805.750,4308.3257,N,07726.3027,W,1,05,1.63,163.4,M,-34.4,M,,*51
$GPRMC,221806.000,A,4308.3266,N,07726.3042,W,18.59,302.49,060721,,,A*47
$GPGGA,221806.250,4308.3277,N,07726.3060,W,1,05,1.63,163.4,M,-34.4,M,,*56
$GPRMC,221806.500,A,4308.3286,N,07726.3076,W,20.13,304.40,060721,,,A*41
$GPGGA,221806.750,4308.3295,N,07726.3092,W,1,05,1.63,163.3,M,-34.4,M,,*55
$GPRMC,221807.000,A,4308.3303,N,07726.3107,W,20.48,303.83,060721,,,A*48
$GPGGA,221807.250,4308.3311,N,07726.3124,W,1,05,1.63,163.3,M,-34.4,M,,*50
$GPRMC,221807.500,A,4308.3318,N,07726.3140,W,20.98,303.28,060721,,,A*48
$GPGGA,221807.750,4308.3327,N,07726.3156,W,1,05,1.63,163.4,M,-34.4,M,,*52
$GPRMC,221808.000,A,4308.3335,N,07726.3173,W,21.27,303.39,060721,,,A*48
$GPGGA,221808.250,4308.3343,N,07726.3190,W,1,05,1.63,163.4,M,-34.4,M,,*50
$GPRMC,221808.500,A,4308.3351,N,07726.3207,W,21.39,303.41,060721,,,A*4F
$GPGGA,221808.750,4308.3360,N,07726.3224,W,1,05,1.63,163.4,M,-34.4,M,,*58
$GPRMC,221809.000,A,4308.3368,N,07726.3241,W,21.45,303.92,060721,,,A*46
$GPGGA,221809.250,4308.3377,N,07726.3259,W,1,05,1.63,163.4,M,-34.4,M,,*50
$GPRMC,221809.500,A,4308.3385,N,07726.3276,W,21.74,304.14,060721,,,A*4F
$GPGGA,221809.750,4308.3394,N,07726.3293,W,1,05,1.63,163.4,M,-34.4,M,,*5E
$GPRMC,221810.000,A,4308.3402,N,07726.3310,W,21.75,304.36,060721,,,A*4A
$GPGGA,221810.250,4308.3412,N,07726.3328,W,1,05,1.63,163.4,M,-34.4,M,,*5B
$GPRMC,221810.500,A,4308.3421,N,07726.3346,W,22.11,305.24,060721,,,A*4E
$GPGGA,221810.750,4308.3430,N,07726.3363,W,1,05,1.63,163.4,M,-34.4,M,,*51
$GPRMC,221811.000,A,4308.3439,N,07726.3380,W,22.21,305.55,060721,,,A*4C
$GPGGA,221811.250,4308.3448,N,07726.3398,W,1,05,1.63,163.5,M,-34.4,M,,*5F
$GPRMC,221811.500,A,4308.3457,N,07726.3416,W,22.48,305.55,060721,,,A*46
$GPGGA,221811.750,4308.3466,N,07726.3433,W,1,05,1.63,163.5,M,-34.4,M,,*50
$GPRMC,221812.000,A,4308.3475,N,07726.3451,W,22.48,305.36,060721,,,A*46
$GPGGA,221812.250,4308.3484,N,07726.3468,W,1,05,1.63,163.6,M,-34.4,M,,*57
$GPRMC,221812.500,A,4308.3494,N,07726.3486,W,22.55,305.30,060721,,,A*4C
$GPGGA,221812.750,4308.3502,N,07726.3504,W,1,05,1.63,163.7,M,-34.4,M,,*57
$GPRMC,221813.000,A,4308.3511,N,07726.3521,W,22.55,305.21,060721,,,A*48
$GPGGA,221813.250,4308.3520,N,07726.3539,W,1,05,1.63,163.7,M,-34.4,M,,*5D
$GPRMC,221813.500,A,4308.3529,N,07726.3556,W,22.17,306.14,060721,,,A*45
$GPGGA,221813.750,4308.3538,N,07726.3572,W,1,05,1.63,163.8,M,-34.4,M,,*51
$GPRMC,221814.000,A,4308.3547,N,07726.3588,W,21.56,308.26,060721,,,A*45
$GPGGA,221814.250,4308.3557,N,07726.3603,W,1,05,1.63,163.9,M,-34.4,M,,*5E
$GPRMC,221814.500,A,4308.3568,N,07726.3618,W,21.01,312.33,060721,,,A*4A
$GPGGA,221814.750,4308.3578,N,07726.3633,W,1,05,1.63,164.0,M,-34.4,M,,*5B
$GPRMC,221815.000,A,4308.3588,N,07726.3645,W,20.82,315.98,060721,,,A*44
$GPGGA,221815.250,4308.3598,N,07726.3657,W,1,05,1.68,164.1,M,-34.4,M,,*59
$GPRMC,221815.500,A,4308.3609,N,07726.3669,W,20.48,321.23,060721,,,A*44
$GPGGA,221815.750,4308.3620,N,07726.3680,W,1,05,1.63,164.2,M,-34.4,M,,*5E
$GPRMC,221816.000,A,4308.3631,N,07726.3691,W,20.03,324.46,060721,,,A*47
$GPGGA,221816.250,4308.3642,N,07726.3700,W,1,05,1.63,164.2,M,-34.4,M,,*55
$GPRMC,221816.500,A,4308.3653,N,07726.3710,W,19.79,328.22,060721,,,A*47
$GPGGA,221816.750,4308.3665,N,07726.3719,W,1,05,1.63,164.3,M,-34.4,M,,*5C
$GPRMC,221817.000,A,4308.3677,N,07726.3728,W,19.86,330.93,060721,,,A*4D
$GPGGA,221817.250,4308.3690,N,07726.3735,W,1,05,1.63,164.4,M,-34.4,M,,*5B
$GPRMC,221817.500,A,4308.3702,N,07726.3742,W,19.63,335.04,060721,,,A*47
$GPGGA,221817.750,4308.3714,N,07726.3748,W,1,05,1.63,164.5,M,-34.4,M,,*58
$GPRMC,221818.000,A,4308.3728,N,07726.3753,W,19.70,340.26,060721,,,A*45
$GPGGA,221818.250,4308.3741,N,07726.3758,W,1,05,1.63,164.6,M,-34.4,M,,*50
$GPRMC,221818.500,A,4308.3754,N,07726.3762,W,19.88,344.79,060721,,,A*40
$GPGGA,221818.750,4308.3768,N,07726.3766,W,1,05,1.63,164.7,M,-34.4,M,,*52
$GPRMC,221819.000,A,4308.3782,N,07726.3769,W,20.32,346.86,060721,,,A*4D
$GPGGA,221819.250,4308.3797,N,07726.3771,W,1,05,1.68,164.8,M,-34.4,M,,*54
$GPRMC,221819.500,A,4308.3811,N,07726.3774,W,20.51,350.31,060721,,,A*4F
$GPGGA,221819.750,4308.3825,N,07726.3776,W,1,05,1.68,164.8,M,-34.4,M,,*50
$GPRMC,221820.000,A,4308.3840,N,07726.3777,W,20.85,353.26,060721,,,A*4B
$GPGGA,221820.250,4308.3855,N,07726.3778,W,1,05,1.68,164.9,M,-34.4,M,,*57
$GPRMC,221820.500,A,4308.3870,N,07726.3777,W,21.22,357.29,060721,,,A*4A
$GPGGA,221820.750,4308.3885,N,07726.3777,W,1,05,1.68,164.9,M,-34.4,M,,*50
$GPRMC,221821.000,A,4308.3902,N,07726.3775,W,21.95,359.80,060721,,,A*49
$GPGGA,221821.250,4308.3919,N,07726.3773,W,1,05,1.68,165.0,M,-34.4,M,,*5C
$GPRMC,221821.500,A,4308.3935,N,07726.3771,W,22.55,1.74,060721,,,A*46
$GPGGA,221821.750,4308.3951,N,07726.3770,W,1,05,1.68,165.1,M,-34.4,M,,*57
$GPRMC,221822.000,A,4308.3968,N,07726.3768,W,22.76,2.68,060721,,,A*4F
$GPGGA,221822.250,4308.3985,N,07726.3766,W,1,05,1.68,165.2,M,-34.4,M,,*5C
$GPRMC,221822.500,A,4308.4002,N,07726.3763,W,23.18,4.01,060721,,,A*43
$GPGGA,221822.750,4308.4019,N,07726.3760,W,1,05,1.68,165.3,M,-34.4,M,,*55
$GPRMC,221823.000,A,4308.4036,N,07726.3757,W,23.31,5.08,060721,,,A*44
$GPGGA,221823.250,4308.4053,N,07726.3754,W,1,05,1.68,165.4,M,-34.4,M,,*5F
$GPRMC,221823.500,A,4308.4070,N,07726.3750,W,23.72,5.87,060721,,,A*44
$GPGGA,221823.750,4308.4087,N,07726.3747,W,1,05,1.68,165.4,M,-34.4,M,,*51
$GPRMC,221824.000,A,4308.4103,N,07726.3743,W,23.75,6.72,060721,,,A*4F
$GPGGA,221824.250,4308.4120,N,07726.3739,W,1,05,1.68,165.5,M,-34.4,M,,*57
$GPRMC,221824.500,A,4308.4136,N,07726.3735,W,23.69,7.33,060721,,,A*44
$GPGGA,221824.750,4308.4152,N,07726.3731,W,1,05,1.68,165.5,M,-34.4,M,,*5F
$GPRMC,221825.000,A,4308.4168,N,07726.3727,W,23.46,7.55,060721,,,A*45
$GPGGA,221825.250,4308.4184,N,07726.3722,W,1,05,1.68,165.5,M,-34.4,M,,*52
$GPRMC,221825.500,A,4308.4199,N,07726.3718,W,23.08,7.98,060721,,,A*49
$GPGGA,221825.750,4308.4215,N,07726.3714,W,1,05,1.68,165.6,M,-34.4,M,,*5A
$GPRMC,221826.000,A,4308.4230,N,07726.3709,W,22.59,8.43,060721,,,A*43
$GPGGA,221826.250,4308.4244,N,07726.3705,W,1,05,1.68,165.6,M,-34.4,M,,*58
$GPRMC,221826.500,A,4308.4259,N,07726.3701,W,22.08,8.23,060721,,,A*43
$GPGGA,221826.750,4308.4275,N,07726.3698,W,1,05,1.68,165.7,M,-34.4,M,,*5B
$GPRMC,221827.000,A,4308.4289,N,07726.3695,W,21.69,7.75,060721,,,A*4E
$GPGGA,221827.250,4308.4304,N,07726.3692,W,1,05,1.68,165.7,M,-34.4,M,,*52
$GPRMC,221827.500,A,4308.4318,N,07726.3688,W,21.30,7.61,060721,,,A*47
$GPGGA,221827.750,4308.4333,N,07726.3686,W,1,05,1.68,165.7,M,-34.4,M,,*56
$GPRMC,221828.000,A,4308.4347,N,07726.3683,W,20.77,6.92,060721,,,A*43
$GPGGA,221828.250,4308.4360,N,07726.3681,W,1,05,1.68,165.7,M,-34.4,M,,*5D
$GPRMC,221828.500,A,4308.4374,N,07726.3679,W,20.19,6.00,060721,,,A*40
$GPGGA,221828.750,4308.4387,N,07726.3676,W,1,05,1.68,165.7,M,-34.4,M,,*59
$GPRMC,221829.000,A,4308.4400,N,07726.3673,W,19.78,5.76,060721,,,A*45
$GPGGA,221829.250,4308.4413,N,07726.3670,W,1,05,1.68,165.7,M,-34.4,M,,*51
$GPRMC,221829.500,A,4308.4426,N,07726.3667,W,19.34,5.67,060721,,,A*49
$GPGGA,221829.750,4308.4439,N,07726.3665,W,1,05,1.68,165.7,M,-34.4,M,,*58
$GPRMC,221830.000,A,4308.4451,N,07726.3662,W,18.84,5.52,060721,,,A*4D
$GPGGA,221830.250,4308.4464,N,07726.3660,W,1,05,1.68,165.8,M,-34.4,M,,*57
$GPRMC,221830.500,A,4308.4476,N,07726.3656,W,18.40,5.75,060721,,,A*47
$GPGGA,221830.750,4308.4488,N,07726.3654,W,1,05,1.68,165.8,M,-34.4,M,,*57
$GPRMC,221831.000,A,4308.4500,N,07726.3651,W,17.80,5.85,060721,,,A*48
$GPGGA,221831.250,4308.4511,N,07726.3648,W,1,05,1.68,165.8,M,-34.4,M,,*5F
$GPRMC,221831.500,A,4308.4521,N,07726.3645,W,16.99,5.17,060721,,,A*49
$GPGGA,221831.750,4308.4531,N,07726.3643,W,1,05,1.69,165.8,M,-34.4,M,,*52
$GPRMC,221832.000,A,4308.4538,N,07726.3640,W,15.27,4.01,060721,,,A*42
$GPGGA,221832.250,4308.4546,N,07726.3638,W,1,05,1.69,165.8,M,-34.4,M,,*58
$GPRMC,221832.500,A,4308.4551,N,07726.3637,W,12.94,0.94,060721,,,A*4F
$GPGGA,221832.750,4308.4556,N,07726.3637,W,1,05,1.68,165.8,M,-34.4,M,,*52
$GPRMC,221833.000,A,4308.4562,N,07726.3636,W,10.49,356.49,060721,,,A*48
$GPGGA,221833.250,4308.4566,N,07726.3635,W,1,05,1.68,166.0,M,-34.4,M,,*5C
$GPRMC,221833.500,A,4308.4570,N,07726.3635,W,8.29,352.47,060721,,,A*78
$GPGGA,221833.750,4308.4574,N,07726.3635,W,1,05,1.68,166.2,M,-34.4,M,,*58
$GPRMC,221834.000,A,4308.4576,N,07726.3634,W,6.17,343.81,060721,,,A*74
$GPGGA,221834.250,4308.4577,N,07726.3633,W,1,05,1.63,166.3,M,-34.4,M,,*55
$GPRMC,221834.500,A,4308.4579,N,07726.3633,W,4.43,332.71,060721,,,A*73
$GPGGA,221834.750,4308.4580,N,07726.3634,W,1,05,1.63,166.4,M,-34.4,M,,*58
$GPRMC,221835.000,A,4308.4582,N,07726.3635,W,3.55,321.24,060721,,,A*77
$GPGGA,221835.250,4308.4583,N,07726.3635,W,1,05,1.63,166.4,M,-34.4,M,,*5E
$GPRMC,221835.500,A,4308.4584,N,07726.3636,W,2.95,310.63,060721,,,A*7B
$GPGGA,221835.750,4308.4584,N,07726.3637,W,1,05,1.63,166.5,M,-34.4,M,,*5F
$GPRMC,221836.000,A,4308.4583,N,07726.3637,W,2.52,310.63,060721,,,A*70
$GPGGA,221836.250,4308.4582,N,07726.3637,W,1,05,1.63,166.6,M,-34.4,M,,*5C
$GPRMC,221836.500,A,4308.4581,N,07726.3637,W,2.11,310.63,060721,,,A*70
$GPGGA,221836.750,4308.4579,N,07726.3637,W,1,05,1.63,166.6,M,-34.4,M,,*5D
$GPRMC,221837.000,A,4308.4577,N,07726.3636,W,1.74,310.63,060721,,,A*7C
$GPGGA,221837.250,4308.4577,N,07726.3636,W,1,05,1.63,166.7,M,-34.4,M,,*57
$GPRMC,221837.500,A,4308.4575,N,07726.3635,W,1.66,310.63,060721,,,A*7B
$GPGGA,221837.750,4308.4575,N,07726.3635,W,1,05,1.63,166.7,M,-34.4,M,,*53
$GPRMC,221838.000,A,4308.4575,N,07726.3635,W,1.51,310.63,060721,,,A*75
$GPGGA,221838.250,4308.4573,N,07726.3634,W,1,05,1.63,166.7,M,-34.4,M,,*5E
$GPRMC,221838.500,A,4308.4572,N,07726.3632,W,1.25,310.63,060721,,,A*73
$GPGGA,221838.750,4308.4571,N,07726.3632,W,1,05,1.63,166.8,M,-34.4,M,,*50
$GPRMC,221839.000,A,4308.4571,N,07726.3632,W,1.26,310.63,060721,,,A*77
$GPGGA,221839.250,4308.4570,N,07726.3630,W,1,05,1.63,166.8,M,-34.4,M,,*57
$GPRMC,221839.500,A,4308.4568,N,07726.3629,W,1.19,310.63,060721,,,A*7C
$GPGGA,221839.750,4308.4568,N,07726.3629,W,1,05,1.63,166.9,M,-34.4,M,,*52
$GPRMC,221840.000,A,4308.4569,N,07726.3628,W,1.14,310.63,060721,,,A*7A
$GPGGA,221840.250,4308.4568,N,07726.3627,W,1,05,1.63,167.0,M,-34.4,M,,*5F
$GPRMC,221840.500,A,4308.4569,N,07726.3627,W,1.13,310.63,060721,,,A*77
$GPGGA,221840.750,4308.4570,N,07726.3628,W,1,05,1.63,167.0,M,-34.4,M,,*5C
$GPRMC,221841.000,A,4308.4570,N,07726.3628,W,0.00,310.63,060721,,,A*77
$GPGGA,221841.250,4308.4570,N,07726.3628,W,1,05,1.63,167.0,M,-34.4,M,,*58
$GPRMC,221841.500,A,4308.4570,N,07726.3627,W,0.15,310.63,060721,,,A*79
$GPGGA,221841.750,4308.4571,N,07726.3627,W,1,05,1.63,167.0,M,-34.4,M,,*53
$GPRMC,221842.000,A,4308.4572,N,07726.3626,W,0.20,310.63,060721,,,A*7A
$GPGGA,221842.250,4308.4574,N,07726.3625,W,1,05,1.63,166.9,M,-34.4,M,,*5A
$GPRMC,221842.500,A,4308.4576,N,07726.3624,W,0.26,310.63,060721,,,A*7F
$GPGGA,221842.750,4308.4579,N,07726.3627,W,1,05,1.63,166.8,M,-34.4,M,,*51
$GPRMC,221843.000,A,4308.4582,N,07726.3629,W,3.50,339.94,060721,,,A*7C
$GPGGA,221843.250,4308.4589,N,07726.3632,W,1,05,1.63,166.8,M,-34.4,M,,*5E
$GPRMC,221843.500,A,4308.4596,N,07726.3637,W,7.19,325.37,060721,,,A*7E
$GPGGA,221843.750,4308.4603,N,07726.3643,W,1,05,1.63,166.8,M,-34.4,M,,*5C
$GPRMC,221844.000,A,4308.4607,N,07726.3649,W,9.55,311.46,060721,,,A*79
$GPGGA,221844.250,4308.4612,N,07726.3657,W,1,05,1.63,166.7,M,-34.4,M,,*54
$GPRMC,221844.500,A,4308.4616,N,07726.3665,W,10.84,305.42,060721,,,A*47
$GPGGA,221844.750,4308.4619,N,07726.3673,W,1,05,1.63,166.7,M,-34.4,M,,*5C
$GPRMC,221845.000,A,4308.4622,N,07726.3682,W,11.50,300.63,060721,,,A*43
$GPGGA,221845.250,4308.4625,N,07726.3692,W,1,05,1.63,166.6,M,-34.4,M,,*59
$GPRMC,221845.500,A,4308.4627,N,07726.3702,W,12.38,295.54,060721,,,A*4E
$GPGGA,221845.750,4308.4629,N,07726.3715,W,1,05,1.63,166.5,M,-34.4,M,,*5D
$GPRMC,221846.000,A,4308.4630,N,07726.3728,W,13.88,287.84,060721,,,A*42
$GPGGA,221846.250,4308.4631,N,07726.3742,W,1,05,1.63,166.5,M,-34.4,M,,*50
$GPRMC,221846.500,A,4308.4632,N,07726.3757,W,15.01,282.79,060721,,,A*4D
$GPGGA,221846.750,4308.4633,N,07726.3772,W,1,05,1.63,166.4,M,-34.4,M,,*55
$GPRMC,221847.000,A,4308.4634,N,07726.3787,W,15.89,279.95,060721,,,A*44
$GPGGA,221847.250,4308.4635,N,07726.3804,W,1,05,1.63,166.3,M,-34.4,M,,*5E
$GPRMC,221847.500,A,4308.4637,N,07726.3820,W,16.82,278.53,060721,,,A*43
$GPGGA,221847.750,4308.4639,N,07726.3838,W,1,05,1.63,166.2,M,-34.4,M,,*59
$GPRMC,221848.000,A,4308.4641,N,07726.3855,W,17.73,278.16,060721,,,A*44
$GPGGA,221848.250,4308.4643,N,07726.3874,W,1,05,1.63,166.2,M,-34.4,M,,*56
$GPRMC,221848.500,A,4308.4645,N,07726.3893,W,18.87,277.85,060721,,,A*4E
$GPGGA,221848.750,4308.4647,N,07726.3912,W,1,05,1.63,166.1,M,-34.4,M,,*55
$GPRMC,221849.000,A,4308.4650,N,07726.3932,W,19.60,278.12,060721,,,A*4D
$GPGGA,221849.250,4308.4652,N,07726.3952,W,1,05,1.63,165.9,M,-34.4,M,,*5A
$GPRMC,221849.500,A,4308.4655,N,07726.3973,W,20.68,278.24,060721,,,A*4F
$GPGGA,221849.750,4308.4657,N,07726.3994,W,1,05,1.63,165.8,M,-34.4,M,,*51
$GPRMC,221850.000,A,4308.4659,N,07726.4016,W,21.54,278.23,060721,,,A*4A
$GPGGA,221850.250,4308.4662,N,07726.4038,W,1,05,1.63,165.7,M,-34.4,M,,*5D
$GPRMC,221850.500,A,4308.4665,N,07726.4062,W,22.84,278.15,060721,,,A*48
$GPGGA,221850.750,4308.4668,N,07726.4085,W,1,05,1.63,165.5,M,-34.4,M,,*56
$GPRMC,221851.000,A,4308.4671,N,07726.4109,W,23.75,278.59,060721,,,A*42
$GPGGA,221851.250,4308.4674,N,07726.4133,W,1,05,1.63,165.4,M,-34.4,M,,*52
$GPRMC,221851.500,A,4308.4677,N,07726.4158,W,24.64,278.53,060721,,,A*48
$GPGGA,221851.750,4308.4680,N,07726.4182,W,1,05,1.63,165.2,M,-34.4,M,,*50
$GPRMC,221852.000,A,4308.4683,N,07726.4207,W,25.21,278.76,060721,,,A*4B
$GPGGA,221852.250,4308.4686,N,07726.4232,W,1,05,1.63,165.1,M,-34.4,M,,*5B
$GPRMC,221852.500,A,4308.4689,N,07726.4256,W,25.47,279.33,060721,,,A*40
$GPGGA,221852.750,4308.4692,N,07726.4280,W,1,05,1.63,164.9,M,-34.4,M,,*5B
$GPRMC,221853.000,A,4308.4695,N,07726.4303,W,24.89,279.86,060721,,,A*45
$GPGGA,221853.250,4308.4698,N,07726.4325,W,1,05,1.63,164.8,M,-34.4,M,,*5A
$GPRMC,221853.500,A,4308.4700,N,07726.4347,W,23.62,279.83,060721,,,A*4A
$GPGGA,221853.750,4308.4703,N,07726.4368,W,1,05,1.63,164.7,M,-34.4,M,,*5A
$GPRMC,221854.000,A,4308.4705,N,07726.4387,W,22.21,279.83,060721,,,A*47
$GPGGA,221854.250,4308.4706,N,07726.4405,W,1,05,1.63,164.6,M,-34.4,M,,*50
$GPRMC,221854.500,A,4308.4707,N,07726.4423,W,20.37,278.75,060721,,,A*44
$GPGGA,221854.750,4308.4709,N,07726.4440,W,1,05,1.63,164.6,M,-34.4,M,,*5B
$GPRMC,221855.000,A,4308.4710,N,07726.4457,W,19.00,278.71,060721,,,A*4F
$GPGGA,221855.250,4308.4711,N,07726.4472,W,1,05,1.63,164.6,M,-34.4,M,,*57
$GPRMC,221855.500,A,4308.4709,N,07726.4489,W,17.27,276.27,060721,,,A*47
$GPGGA,221855.750,4308.4706,N,07726.4503,W,1,05,1.63,164.6,M,-34.4,M,,*53
$GPRMC,221856.000,A,4308.4701,N,07726.4515,W,15.63,266.97,060721,,,A*45
$GPGGA,221856.250,4308.4692,N,07726.4525,W,1,05,1.63,164.7,M,-34.4,M,,*5C
$GPRMC,221856.500,A,4308.4687,N,07726.4539,W,14.83,252.40,060721,,,A*43
$GPGGA,221856.750,4308.4683,N,07726.4552,W,1,05,1.63,164.7,M,-34.4,M,,*59
$GPRMC,221857.000,A,4308.4677,N,07726.4564,W,14.09,245.60,060721,,,A*46
$GPGGA,221857.250,4308.4673,N,07726.4575,W,1,05,1.63,164.7,M,-34.4,M,,*57
$GPRMC,221857.500,A,4308.4659,N,07726.4581,W,13.80,219.91,060721,,,A*45
$GPGGA,221857.750,4308.4650,N,07726.4589,W,1,05,1.63,164.8,M,-34.4,M,,*5F
$GPRMC,221858.000,A,4308.4639,N,07726.4596,W,15.40,206.66,060721,,,A*43
$GPGGA,221858.250,4308.4628,N,07726.4602,W,1,05,1.63,164.8,M,-34.4,M,,*5A
$GPRMC,221858.500,A,4308.4616,N,07726.4608,W,16.81,197.99,060721,,,A*4A
$GPGGA,221858.750,4308.4605,N,07726.4613,W,1,05,1.63,164.8,M,-34.4,M,,*50
$GPRMC,221859.000,A,4308.4593,N,07726.4618,W,17.41,195.34,060721,,,A*49
$GPGGA,221859.250,4308.4580,N,07726.4623,W,1,05,1.63,164.7,M,-34.4,M,,*56
$GPRMC,221859.500,A,4308.4568,N,07726.4628,W,18.18,194.47,060721,,,A*4D
$GPGGA,221859.750,4308.4555,N,07726.4633,W,1,05,1.63,164.7,M,-34.4,M,,*5A
$GPRMC,221900.000,A,4308.4542,N,07726.4638,W,18.50,194.70,060721,,,A*44
$GPGGA,221900.250,4308.4529,N,07726.4643,W,1,05,1.63,164.6,M,-34.4,M,,*5F
$GPRMC,221900.500,A,4308.4516,N,07726.4649,W,18.83,195.82,060721,,,A*44
$GPGGA,221900.750,4308.4503,N,07726.4654,W,1,05,1.63,164.6,M,-34.4,M,,*54
$GPRMC,221901.000,A,4308.4490,N,07726.4660,W,19.04,196.62,060721,,,A*47
$GPGGA,221901.250,4308.4477,N,07726.4666,W,1,05,1.63,164.5,M,-34.4,M,,*50
$GPRMC,221901.500,A,4308.4464,N,07726.4672,W,19.35,197.61,060721,,,A*4A
$GPGGA,221901.750,4308.4450,N,07726.4678,W,1,05,1.63,164.4,M,-34.4,M,,*5E
$GPRMC,221902.000,A,4308.4437,N,07726.4685,W,19.64,197.87,060721,,,A*4E
$GPGGA,221902.250,4308.4423,N,07726.4691,W,1,05,1.63,164.3,M,-34.4,M,,*5C
$GPRMC,221902.500,A,4308.4410,N,07726.4698,W,20.17,198.43,060721,,,A*4B
$GPGGA,221902.750,4308.4396,N,07726.4706,W,1,05,1.63,164.1,M,-34.4,M,,*5D
$GPRMC,221903.000,A,4308.4382,N,07726.4713,W,20.69,199.18,060721,,,A*47
$GPGGA,221903.250,4308.4368,N,07726.4720,W,1,05,1.63,164.0,M,-34.4,M,,*5D
$GPRMC,221903.500,A,4308.4354,N,07726.4728,W,21.17,199.42,060721,,,A*46
$GPGGA,221903.750,4308.4340,N,07726.4735,W,1,05,1.63,163.9,M,-34.4,M,,*58
$GPRMC,221904.000,A,4308.4326,N,07726.4742,W,21.55,199.14,060721,,,A*48
$GPGGA,221904.250,4308.4311,N,07726.4750,W,1,05,1.63,163.7,M,-34.4,M,,*53
$GPRMC,221904.500,A,4308.4296,N,07726.4757,W,22.07,198.28,060721,,,A*49
$GPGGA,221904.750,4308.4281,N,07726.4764,W,1,05,1.63,163.6,M,-34.4,M,,*58
$GPRMC,221905.000,A,4308.4266,N,07726.4771,W,22.31,198.36,060721,,,A*4C
$GPGGA,221905.250,4308.4251,N,07726.4779,W,1,05,1.63,163.5,M,-34.4,M,,*5E
$GPRMC,221905.500,A,4308.4235,N,07726.4787,W,22.85,198.54,060721,,,A*4D
$GPGGA,221905.750,4308.4220,N,07726.4795,W,1,05,1.63,163.4,M,-34.4,M,,*5E
$GPRMC,221906.000,A,4308.4204,N,07726.4803,W,23.43,198.65,060721,,,A*43
$GPGGA,221906.250,4308.4188,N,07726.4811,W,1,05,1.63,163.2,M,-34.4,M,,*5C
$GPRMC,221906.500,A,4308.4172,N,07726.4819,W,24.06,199.27,060721,,,A*4E
$GPGGA,221906.750,4308.4155,N,07726.4828,W,1,05,1.63,163.1,M,-34.4,M,,*50
$GPRMC,221907.000,A,4308.4138,N,07726.4836,W,24.55,199.64,060721,,,A*48
$GPGGA,221907.250,4308.4121,N,07726.4845,W,1,05,1.63,163.0,M,-34.4,M,,*5D
$GPRMC,221907.500,A,4308.4103,N,07726.4854,W,25.34,199.16,060721,,,A*42
$GPGGA,221907.750,4308.4085,N,07726.4863,W,1,05,1.63,162.9,M,-34.4,M,,*5B
$GPRMC,221908.000,A,4308.4067,N,07726.4871,W,26.15,198.96,060721,,,A*45
$GPGGA,221908.250,4308.4049,N,07726.4880,W,1,05,1.63,162.8,M,-34.4,M,,*5D
$GPRMC,221908.500,A,4308.4030,N,07726.4889,W,27.01,198.29,060721,,,A*45
$GPGGA,221908.750,4308.4013,N,07726.4897,W,1,05,1.63,162.7,M,-34.4,M,,*5E
$GPRMC,221909.000,A,4308.3994,N,07726.4906,W,27.45,197.97,060721,,,A*4D
$GPGGA,221909.250,4308.3975,N,07726.4914,W,1,05,1.63,162.5,M,-34.4,M,,*5C
$GPRMC,221909.500,A,4308.3955,N,07726.4923,W,28.18,196.24,060721,,,A*4C
$GPGGA,221909.750,4308.3935,N,07726.4930,W,1,05,1.63,162.4,M,-34.4,M,,*5A
$GPRMC,221910.000,A,4308.3914,N,07726.4938,W,28.85,195.14,060721,,,A*4A
$GPGGA,221910.250,4308.3893,N,07726.4947,W,1,05,1.63,162.4,M,-34.4,M,,*5A
$GPRMC,221910.500,A,4308.3871,N,07726.4955,W,29.78,194.19,060721,,,A*49
$GPGGA,221910.750,4308.3850,N,07726.4962,W,1,05,1.63,162.3,M,-34.4,M,,*50
$GPRMC,221911.000,A,4308.3828,N,07726.4969,W,30.28,192.88,060721,,,A*4D
$GPGGA,221911.250,4308.3807,N,07726.4976,W,1,05,1.63,162.2,M,-34.4,M,,*52
$GPRMC,221911.500,A,4308.3786,N,07726.4982,W,30.26,192.21,060721,,,A*4B
$GPGGA,221911.750,4308.3765,N,07726.4988,W,1,05,1.63,162.1,M,-34.4,M,,*5E
$GPRMC,221912.000,A,4308.3743,N,07726.4994,W,30.74,191.04,060721,,,A*40
$GPGGA,221912.250,4308.3721,N,07726.5001,W,1,05,1.63,162.0,M,-34.4,M,,*50
$GPRMC,221912.500,A,4308.3699,N,07726.5007,W,31.49,190.29,060721,,,A*40
$GPGGA,221912.750,4308.3677,N,07726.5012,W,1,05,1.63,162.0,M,-34.4,M,,*55
$GPRMC,221913.000,A,4308.3654,N,07726.5017,W,31.74,189.28,060721,,,A*43
$GPGGA,221913.250,4308.3631,N,07726.5023,W,1,05,1.63,161.9,M,-34.4,M,,*5B
$GPRMC,221913.500,A,4308.3608,N,07726.5028,W,32.00,188.60,060721,,,A*4E
$GPGGA,221913.750,4308.3585,N,07726.5033,W,1,05,1.63,161.9,M,-34.4,M,,*53
$GPRMC,221914.000,A,4308.3561,N,07726.5038,W,32.65,188.05,060721,,,A*41
$GPGGA,221914.250,4308.3537,N,07726.5042,W,1,05,1.63,161.8,M,-34.4,M,,*5F
$GPRMC,221914.500,A,4308.3513,N,07726.5047,W,33.10,187.34,060721,,,A*47
$GPGGA,221914.750,4308.3490,N,07726.5050,W,1,05,1.63,161.7,M,-34.4,M,,*5A
$GPRMC,221915.000,A,4308.3466,N,07726.5054,W,33.04,186.30,060721,,,A*42
$GPGGA,221915.250,4308.3442,N,07726.5057,W,1,05,1.63,161.6,M,-34.4,M,,*57
$GPRMC,221915.500,A,4308.3416,N,07726.5062,W,33.16,185.99,060721,,,A*46
$GPGGA,221915.750,4308.3391,N,07726.5066,W,1,05,1.63,161.4,M,-34.4,M,,*5B
$GPRMC,221916.000,A,4308.3365,N,07726.5070,W,33.30,185.82,060721,,,A*4E
$GPGGA,221916.250,4308.3339,N,07726.5074,W,1,05,1.63,161.1,M,-34.4,M,,*59
$GPRMC,221916.500,A,4308.3313,N,07726.5079,W,33.28,186.16,060721,,,A*44
$GPGGA,221916.750,4308.3289,N,07726.5082,W,1,05,1.63,160.9,M,-34.4,M,,*56
$GPRMC,221917.000,A,4308.3264,N,07726.5086,W,33.25,185.58,060721,,,A*45
$GPGGA,221917.250,4308.3239,N,07726.5089,W,1,05,1.63,160.7,M,-34.4,M,,*5C
$GPRMC,221917.500,A,4308.3215,N,07726.5092,W,32.07,185.15,060721,,,A*4B
$GPGGA,221917.750,4308.3191,N,07726.5094,W,1,05,1.63,160.6,M,-34.4,M,,*55
$GPRMC,221918.000,A,4308.3167,N,07726.5097,W,31.45,184.31,060721,,,A*40
$GPGGA,221918.250,4308.3145,N,07726.5099,W,1,05,1.63,160.5,M,-34.4,M,,*58
$GPRMC,221918.500,A,4308.3123,N,07726.5101,W,30.62,183.97,060721,,,A*44
$GPGGA,221918.750,4308.3101,N,07726.5103,W,1,05,1.63,160.5,M,-34.4,M,,*5F
$GPRMC,221919.000,A,4308.3080,N,07726.5105,W,30.50,183.54,060721,,,A*42
$GPGGA,221919.250,4308.3060,N,07726.5106,W,1,05,1.63,160.4,M,-34.4,M,,*59
$GPRMC,221919.500,A,4308.3039,N,07726.5107,W,30.15,183.20,060721,,,A*45
$GPGGA,221919.750,4308.3018,N,07726.5109,W,1,05,1.63,160.4,M,-34.4,M,,*5C
$GPRMC,221920.000,A,4308.2997,N,07726.5111,W,29.99,183.25,060721,,,A*48
$GPGGA,221920.250,4308.2977,N,07726.5112,W,1,05,1.63,160.4,M,-34.4,M,,*58
$GPRMC,221920.500,A,4308.2956,N,07726.5114,W,29.78,183.17,060721,,,A*4B
$GPGGA,221920.750,4308.2936,N,07726.5116,W,1,05,1.63,160.4,M,-34.4,M,,*5C
$GPRMC,221921.000,A,4308.2916,N,07726.5118,W,29.04,183.27,060721,,,A*4F
$GPGGA,221921.250,4308.2896,N,07726.5119,W,1,05,1.63,160.4,M,-34.4,M,,*5C
$GPRMC,221921.500,A,4308.2877,N,07726.5120,W,28.75,182.60,060721,,,A*42
$GPGGA,221921.750,4308.2858,N,07726.5121,W,1,05,1.63,160.4,M,-34.4,M,,*50
$GPRMC,221922.000,A,4308.2838,N,07726.5122,W,28.44,182.39,060721,,,A*43
$GPGGA,221922.250,4308.2820,N,07726.5122,W,1,05,1.63,160.3,M,-34.4,M,,*5D
$GPRMC,221922.500,A,4308.2800,N,07726.5123,W,27.43,181.46,060721,,,A*4F
$GPGGA,221922.750,4308.2781,N,07726.5124,W,1,05,1.63,160.2,M,-34.4,M,,*5B
$GPRMC,221923.000,A,4308.2761,N,07726.5125,W,27.16,180.95,060721,,,A*4A
$GPGGA,221923.250,4308.2742,N,07726.5126,W,1,05,1.63,160.0,M,-34.4,M,,*50
$GPRMC,221923.500,A,4308.2722,N,07726.5127,W,27.08,180.66,060721,,,A*49
$GPGGA,221923.750,4308.2703,N,07726.5128,W,1,05,1.63,159.9,M,-34.4,M,,*5D
$GPRMC,221924.000,A,4308.2683,N,07726.5129,W,27.22,180.38,060721,,,A*4C
$GPGGA,221924.250,4308.2664,N,07726.5130,W,1,05,1.63,159.7,M,-34.4,M,,*58
$GPRMC,221924.500,A,4308.2645,N,07726.5130,W,27.51,180.16,060721,,,A*43
$GPGGA,221924.750,4308.2625,N,07726.5131,W,1,05,1.63,159.6,M,-34.4,M,,*58
$GPRMC,221925.000,A,4308.2605,N,07726.5131,W,27.85,180.11,060721,,,A*4C
$GPGGA,221925.250,4308.2585,N,07726.5131,W,1,05,1.63,159.5,M,-34.4,M,,*56
$GPRMC,221925.500,A,4308.2565,N,07726.5132,W,27.93,180.53,060721,,,A*4E
$GPGGA,221925.750,4308.2545,N,07726.5133,W,1,05,1.63,159.3,M,-34.4,M,,*5B
$GPRMC,221926.000,A,4308.2525,N,07726.5133,W,28.11,180.44,060721,,,A*4E
$GPGGA,221926.250,4308.2505,N,07726.5134,W,1,05,1.63,159.2,M,-34.4,M,,*5F
$GPRMC,221926.500,A,4308.2485,N,07726.5135,W,28.23,180.84,060721,,,A*4B
$GPGGA,221926.750,4308.2465,N,07726.5136,W,1,05,1.63,159.0,M,-34.4,M,,*5D
$GPRMC,221927.000,A,4308.2444,N,07726.5137,W,28.51,181.43,060721,,,A*4F
$GPGGA,221927.250,4308.2423,N,07726.5138,W,1,05,1.63,158.8,M,-34.4,M,,*5C
$GPRMC,221927.500,A,4308.2402,N,07726.5138,W,29.49,180.94,060721,,,A*44
$GPGGA,221927.750,4308.2381,N,07726.5139,W,1,05,1.63,158.6,M,-34.4,M,,*59
$GPRMC,221928.000,A,4308.2360,N,07726.5139,W,29.50,180.77,060721,,,A*49
$GPGGA,221928.250,4308.2340,N,07726.5140,W,1,05,1.63,158.5,M,-34.4,M,,*53
