$GPGGA,235338.750,4307.5001,N,07731.1335,W,2,08,0.94,123.7,M,-34.4,M,0000,0000*5D
$GPRMC,235339.000,A,4307.4979,N,07731.1309,W,41.08,139.17,120821,,,D*46
$GPGGA,235339.250,4307.4957,N,07731.1283,W,2,08,0.94,124.3,M,-34.4,M,0000,0000*5D
$GPRMC,235339.500,A,4307.4935,N,07731.1256,W,41.17,138.31,120821,,,D*4B
$GPGGA,235339.750,4307.4914,N,07731.1229,W,2,08,0.94,124.9,M,-34.4,M,0000,0000*55
$GPRMC,235340.000,A,4307.4893,N,07731.1200,W,41.26,137.45,120821,,,D*40
$GPGGA,235340.250,4307.4873,N,07731.1171,W,2,08,0.94,125.9,M,-34.4,M,0000,0000*51
$GPRMC,235340.500,A,4307.4852,N,07731.1144,W,41.29,135.64,120821,,,D*45
$GPGGA,235340.750,4307.4831,N,07731.1115,W,2,08,0.94,126.8,M,-34.4,M,0000,0000*52
$GPRMC,235341.000,A,4307.4811,N,07731.1087,W,41.26,134.53,120821,,,D*42
$GPGGA,235341.250,4307.4790,N,07731.1059,W,2,08,0.94,127.7,M,-34.4,M,0000,0000*55
$GPRMC,235341.500,A,4307.4770,N,07731.1030,W,41.23,133.04,120821,,,D*43
$GPGGA,235341.750,4307.4750,N,07731.1002,W,2,08,0.94,128.4,M,-34.4,M,0000,0000*5E
$GPRMC,235342.000,A,4307.4730,N,07731.0974,W,40.40,132.76,120821,,,D*49
$GPGGA,235342.250,4307.4711,N,07731.0946,W,2,08,0.94,129.0,M,-34.4,M,0000,0000*50
$GPRMC,235342.500,A,4307.4693,N,07731.0917,W,40.22,131.21,120821,,,D*44
$GPGGA,235342.750,4307.4674,N,07731.0889,W,2,08,0.94,129.7,M,-34.4,M,0000,0000*52
$GPRMC,235343.000,A,4307.4656,N,07731.0860,W,40.12,130.24,120821,,,D*4F
$GPGGA,235343.250,4307.4637,N,07731.0831,W,2,08,0.94,130.3,M,-34.4,M,0000,0000*5E
$GPRMC,235343.500,A,4307.4619,N,07731.0802,W,40.04,129.19,120821,,,D*44
$GPGGA,235343.750,4307.4601,N,07731.0774,W,2,08,0.94,130.8,M,-34.4,M,0000,0000*5B
$GPRMC,235344.000,A,4307.4583,N,07731.0745,W,39.95,128.20,120821,,,D*47
$GPGGA,235344.250,4307.4566,N,07731.0715,W,2,08,0.94,131.4,M,-34.4,M,0000,0000*51
$GPRMC,235344.500,A,4307.4549,N,07731.0685,W,39.54,127.44,120821,,,D*49
$GPGGA,235344.750,4307.4533,N,07731.0655,W,2,08,0.94,131.7,M,-34.4,M,0000,0000*52
$GPRMC,235345.000,A,4307.4516,N,07731.0625,W,39.41,126.73,120821,,,D*4C
$GPGGA,235345.250,4307.4500,N,07731.0595,W,2,08,0.94,132.0,M,-34.4,M,0000,0000*5D
$GPRMC,235345.500,A,4307.4485,N,07731.0565,W,39.05,125.62,120821,,,D*46
$GPGGA,235345.750,4307.4469,N,07731.0535,W,2,08,0.94,132.2,M,-34.4,M,0000,0000*5E
$GPRMC,235346.000,A,4307.4453,N,07731.0505,W,39.02,125.02,120821,,,D*4C
$GPGGA,235346.250,4307.4437,N,07731.0475,W,2,08,0.94,132.4,M,-34.4,M,0000,0000*50
$GPRMC,235346.500,A,4307.4422,N,07731.0444,W,38.64,124.01,120821,,,D*48
$GPGGA,235346.750,4307.4407,N,07731.0414,W,2,08,0.94,132.7,M,-34.4,M,0000,0000*52
$GPRMC,235347.000,A,4307.4392,N,07731.0383,W,38.70,123.84,120821,,,D*43
$GPGGA,235347.250,4307.4377,N,07731.0352,W,2,08,0.94,133.0,M,-34.4,M,0000,0000*55
$GPRMC,235347.500,A,4307.4362,N,07731.0321,W,39.09,123.58,120821,,,D*4F
$GPGGA,235347.750,4307.4347,N,07731.0290,W,2,08,0.94,133.2,M,-34.4,M,0000,0000*5E
$GPRMC,235348.000,A,4307.4333,N,07731.0258,W,39.13,122.14,120821,,,D*4C
$GPGGA,235348.250,4307.4320,N,07731.0226,W,2,08,0.94,133.5,M,-34.4,M,0000,0000*5F
$GPRMC,235348.500,A,4307.4306,N,07731.0194,W,39.35,121.12,120821,,,D*4D
$GPGGA,235348.750,4307.4293,N,07731.0162,W,2,08,0.94,133.8,M,-34.4,M,0000,0000*5D
$GPRMC,235349.000,A,4307.4279,N,07731.0129,W,39.38,120.48,120821,,,D*45
$GPGGA,235349.250,4307.4265,N,07731.0097,W,2,08,0.94,134.1,M,-34.4,M,0000,0000*55
$GPRMC,235349.500,A,4307.4253,N,07731.0064,W,39.36,119.80,120821,,,D*40
$GPGGA,235349.750,4307.4240,N,07731.0031,W,2,08,0.94,134.3,M,-34.4,M,0000,0000*59
$GPRMC,235350.000,A,4307.4227,N,07730.9998,W,39.60,119.15,120821,,,D*43
$GPGGA,235350.250,4307.4214,N,07730.9964,W,2,08,0.94,134.6,M,-34.4,M,0000,0000*51
$GPRMC,235350.500,A,4307.4202,N,07730.9931,W,39.78,118.03,120821,,,D*4D
$GPGGA,235350.750,4307.4191,N,07730.9897,W,2,08,0.94,134.7,M,-34.4,M,0000,0000*56
$GPRMC,235351.000,A,4307.4179,N,07730.9863,W,39.75,116.37,120821,,,D*44
$GPGGA,235351.250,4307.4168,N,07730.9828,W,2,08,0.94,134.7,M,-34.4,M,0000,0000*50
$GPRMC,235351.500,A,4307.4157,N,07730.9794,W,39.68,115.26,120821,,,D*45
$GPGGA,235351.750,4307.4146,N,07730.9759,W,2,08,0.94,134.9,M,-34.4,M,0000,0000*5E
$GPRMC,235352.000,A,4307.4137,N,07730.9723,W,39.96,113.02,120821,,,D*48
$GPGGA,235352.250,4307.4127,N,07730.9688,W,2,08,0.94,135.1,M,-34.4,M,0000,0000*5B
$GPRMC,235352.500,A,4307.4118,N,07730.9652,W,40.08,111.28,120821,,,D*44
$GPGGA,235352.750,4307.4108,N,07730.9617,W,2,08,0.94,135.2,M,-34.4,M,0000,0000*56
$GPRMC,235353.000,A,4307.4099,N,07730.9581,W,40.05,110.30,120821,,,D*40
$GPGGA,235353.250,4307.4090,N,07730.9546,W,2,08,0.94,135.2,M,-34.4,M,0000,0000*55
$GPRMC,235353.500,A,4307.4082,N,07730.9510,W,40.00,109.02,120821,,,D*4B
$GPGGA,235353.750,4307.4073,N,07730.9474,W,2,08,0.94,135.3,M,-34.4,M,0000,0000*5C
$GPRMC,235354.000,A,4307.4065,N,07730.9438,W,40.01,108.09,120821,,,D*40
$GPGGA,235354.250,4307.4057,N,07730.9402,W,2,08,0.94,135.5,M,-34.4,M,0000,0000*5F
$GPRMC,235354.500,A,4307.4049,N,07730.9366,W,40.20,107.30,120821,,,D*41
$GPGGA,235354.750,4307.4042,N,07730.9329,W,2,08,0.94,135.4,M,-34.4,M,0000,0000*51
$GPRMC,235355.000,A,4307.4034,N,07730.9293,W,40.23,106.21,120821,,,D*46
$GPGGA,235355.250,4307.4027,N,07730.9256,W,2,08,0.94,135.4,M,-34.4,M,0000,0000*5F
$GPRMC,235355.500,A,4307.4021,N,07730.9219,W,40.23,105.30,120821,,,D*46
$GPGGA,235355.750,4307.4014,N,07730.9182,W,2,08,0.94,135.6,M,-34.4,M,0000,0000*52
$GPRMC,235356.000,A,4307.4007,N,07730.9145,W,40.42,104.82,120821,,,D*41
$GPGGA,235356.250,4307.4000,N,07730.9107,W,2,08,0.94,135.7,M,-34.4,M,0000,0000*5D
$GPRMC,235356.500,A,4307.3994,N,07730.9070,W,40.43,103.74,120821,,,D*48
$GPGGA,235356.750,4307.3988,N,07730.9032,W,2,08,0.94,135.8,M,-34.4,M,0000,0000*5E
$GPRMC,235357.000,A,4307.3982,N,07730.8994,W,40.64,102.57,120821,,,D*4C
$GPGGA,235357.250,4307.3977,N,07730.8955,W,2,08,0.94,135.7,M,-34.4,M,0000,0000*5C
$GPRMC,235357.500,A,4307.3971,N,07730.8916,W,41.06,100.96,120821,,,D*45
$GPGGA,235357.750,4307.3966,N,07730.8877,W,2,08,0.94,135.7,M,-34.4,M,0000,0000*58
$GPRMC,235358.000,A,4307.3961,N,07730.8839,W,41.14,100.27,120821,,,D*4B
$GPGGA,235358.250,4307.3957,N,07730.8800,W,2,08,0.94,135.7,M,-34.4,M,0000,0000*50
$GPRMC,235358.500,A,4307.3953,N,07730.8762,W,41.11,99.14,120821,,,D*7A
$GPGGA,235358.750,4307.3949,N,07730.8723,W,2,07,1.37,135.6,M,-34.4,M,0000,0000*52
$GPRMC,235359.000,A,4307.3946,N,07730.8684,W,40.60,97.67,120821,,,D*7E
$GPGGA,235359.250,4307.3944,N,07730.8646,W,2,07,1.37,135.4,M,-34.4,M,0000,0000*5B
$GPRMC,235359.500,A,4307.3941,N,07730.8607,W,40.26,96.32,120821,,,D*74
$GPGGA,235359.750,4307.3939,N,07730.8569,W,2,08,0.94,135.2,M,-34.4,M,0000,0000*5B
$GPRMC,235400.000,A,4307.3937,N,07730.8531,W,40.00,95.63,120821,,,D*7E
$GPGGA,235400.250,4307.3935,N,07730.8493,W,2,08,0.94,135.1,M,-34.4,M,0000,0000*5E
$GPRMC,235400.500,A,4307.3933,N,07730.8455,W,39.49,95.22,120821,,,D*7A
$GPGGA,235400.750,4307.3931,N,07730.8418,W,2,08,0.94,134.8,M,-34.4,M,0000,0000*54
$GPRMC,235401.000,A,4307.3930,N,07730.8380,W,39.39,94.70,120821,,,D*73
$GPGGA,235401.250,4307.3928,N,07730.8343,W,2,08,0.94,134.7,M,-34.4,M,0000,0000*5E
$GPRMC,235401.500,A,4307.3928,N,07730.8305,W,39.36,93.44,120821,,,D*7D
$GPGGA,235401.750,4307.3927,N,07730.8268,W,2,08,0.94,134.5,M,-34.4,M,0000,0000*5E
$GPRMC,235402.000,A,4307.3927,N,07730.8230,W,39.28,92.41,120821,,,D*78
$GPGGA,235402.250,4307.3926,N,07730.8193,W,2,08,0.94,134.4,M,-34.4,M,0000,0000*5F
$GPRMC,235402.500,A,4307.3926,N,07730.8156,W,39.24,92.10,120821,,,D*77
$GPGGA,235402.750,4307.3926,N,07730.8119,W,2,07,1.37,134.3,M,-34.4,M,0000,0000*58
$GPRMC,235403.000,A,4307.3926,N,07730.8082,W,38.89,91.50,120821,,,D*7A
$GPGGA,235403.250,4307.3926,N,07730.8045,W,2,07,1.37,134.1,M,-34.4,M,0000,0000*56
$GPRMC,235403.500,A,4307.3926,N,07730.8009,W,38.64,90.83,120821,,,D*70
$GPGGA,235403.750,4307.3926,N,07730.7972,W,2,07,1.37,134.0,M,-34.4,M,0000,0000*50
$GPRMC,235404.000,A,4307.3926,N,07730.7936,W,38.42,90.58,120821,,,D*7A
$GPGGA,235404.250,4307.3926,N,07730.7900,W,2,07,1.37,133.9,M,-34.4,M,0000,0000*59
$GPRMC,235404.500,A,4307.3926,N,07730.7863,W,38.15,90.57,120821,,,D*73
$GPGGA,235404.750,4307.3926,N,07730.7827,W,2,08,0.94,133.7,M,-34.4,M,0000,0000*51
$GPRMC,235405.000,A,4307.3927,N,07730.7791,W,38.03,90.43,120821,,,D*76
$GPGGA,235405.250,4307.3927,N,07730.7755,W,2,08,0.94,133.6,M,-34.4,M,0000,0000*5F
$GPRMC,235405.500,A,4307.3926,N,07730.7719,W,37.91,91.14,120821,,,D*75
$GPGGA,235405.750,4307.3926,N,07730.7682,W,2,08,0.94,133.5,M,-34.4,M,0000,0000*53
$GPRMC,235406.000,A,4307.3925,N,07730.7646,W,37.86,91.55,120821,,,D*78
$GPGGA,235406.250,4307.3925,N,07730.7610,W,2,08,0.94,133.4,M,-34.4,M,0000,0000*5C
$GPRMC,235406.500,A,4307.3925,N,07730.7574,W,37.70,91.68,120821,,,D*78
$GPGGA,235406.750,4307.3925,N,07730.7538,W,2,08,0.94,133.2,M,-34.4,M,0000,0000*56
$GPRMC,235407.000,A,4307.3924,N,07730.7503,W,37.67,91.69,120821,,,D*7A
$GPGGA,235407.250,4307.3924,N,07730.7467,W,2,08,0.94,133.0,M,-34.4,M,0000,0000*5A
$GPRMC,235407.500,A,4307.3924,N,07730.7431,W,37.55,91.22,120821,,,D*71
$GPGGA,235407.750,4307.3924,N,07730.7396,W,2,08,0.94,133.0,M,-34.4,M,0000,0000*56
$GPRMC,235408.000,A,4307.3925,N,07730.7360,W,37.32,91.05,120821,,,D*7D
$GPGGA,235408.250,4307.3925,N,07730.7324,W,2,08,0.94,133.1,M,-34.4,M,0000,0000*55
$GPRMC,235408.500,A,4307.3926,N,07730.7289,W,37.35,91.11,120821,,,D*7F
$GPGGA,235408.750,4307.3926,N,07730.7253,W,2,08,0.94,133.0,M,-34.4,M,0000,0000*53
$GPRMC,235409.000,A,4307.3926,N,07730.7217,W,37.34,91.01,120821,,,D*7C
$GPGGA,235409.250,4307.3927,N,07730.7180,W,2,08,0.94,133.0,M,-34.4,M,0000,0000*5B
$GPRMC,235409.500,A,4307.3927,N,07730.7143,W,38.82,91.02,120821,,,D*7B
$GPGGA,235409.750,4307.3927,N,07730.7106,W,2,08,0.94,132.9,M,-34.4,M,0000,0000*58
$GPRMC,235410.000,A,4307.3927,N,07730.7069,W,39.43,91.00,120821,,,D*71
$GPGGA,235410.250,4307.3927,N,07730.7031,W,2,08,0.94,132.8,M,-34.4,M,0000,0000*51
$GPRMC,235410.500,A,4307.3927,N,07730.6992,W,39.96,90.73,120821,,,D*75
$GPGGA,235410.750,4307.3928,N,07730.6953,W,2,08,0.94,132.7,M,-34.4,M,0000,0000*58
$GPRMC,235411.000,A,4307.3928,N,07730.6914,W,40.36,90.44,120821,,,D*70
$GPGGA,235411.250,4307.3928,N,07730.6875,W,2,08,0.94,132.6,M,-34.4,M,0000,0000*58
$GPRMC,235411.500,A,4307.3929,N,07730.6835,W,40.66,90.50,120821,,,D*76
$GPGGA,235411.750,4307.3930,N,07730.6795,W,2,08,0.94,132.7,M,-34.4,M,0000,0000*54
$GPRMC,235412.000,A,4307.3930,N,07730.6756,W,40.88,90.48,120821,,,D*7B
$GPGGA,235412.250,4307.3931,N,07730.6716,W,2,08,0.94,132.5,M,-34.4,M,0000,0000*5A
$GPRMC,235412.500,A,4307.3932,N,07730.6676,W,41.70,90.33,120821,,,D*75
$GPGGA,235412.750,4307.3933,N,07730.6636,W,2,08,0.94,132.0,M,-34.4,M,0000,0000*5B
$GPRMC,235413.000,A,4307.3933,N,07730.6596,W,41.99,90.18,120821,,,D*73
$GPGGA,235413.250,4307.3934,N,07730.6556,W,2,08,0.94,131.7,M,-34.4,M,0000,0000*59
$GPRMC,235413.500,A,4307.3935,N,07730.6516,W,42.19,90.13,120821,,,D*78
$GPGGA,235413.750,4307.3935,N,07730.6476,W,2,08,0.94,131.3,M,-34.4,M,0000,0000*5A
$GPRMC,235414.000,A,4307.3935,N,07730.6435,W,42.47,90.39,120821,,,D*79
$GPGGA,235414.250,4307.3936,N,07730.6395,W,2,08,0.94,131.1,M,-34.4,M,0000,0000*53
$GPRMC,235414.500,A,4307.3935,N,07730.6354,W,42.86,90.73,120821,,,D*7F
$GPGGA,235414.750,4307.3935,N,07730.6314,W,2,08,0.94,130.8,M,-34.4,M,0000,0000*54
$GPRMC,235415.000,A,4307.3935,N,07730.6273,W,43.00,90.68,120821,,,D*7A
$GPGGA,235415.250,4307.3935,N,07730.6232,W,2,08,0.94,130.5,M,-34.4,M,0000,0000*58
$GPRMC,235415.500,A,4307.3936,N,07730.6191,W,43.54,90.41,120821,,,D*79
$GPGGA,235415.750,4307.3936,N,07730.6149,W,2,08,0.94,130.0,M,-34.4,M,0000,0000*54
$GPRMC,235416.000,A,4307.3937,N,07730.6108,W,43.90,90.01,120821,,,D*72
$GPGGA,235416.250,4307.3938,N,07730.6066,W,2,08,0.94,129.7,M,-34.4,M,0000,0000*5F
$GPRMC,235416.500,A,4307.3938,N,07730.6023,W,44.08,89.80,120821,,,D*77
$GPGGA,235416.750,4307.3939,N,07730.5980,W,2,08,0.94,129.4,M,-34.4,M,0000,0000*5A
$GPRMC,235417.000,A,4307.3939,N,07730.5937,W,44.31,89.91,120821,,,D*77
$GPGGA,235417.250,4307.3939,N,07730.5894,W,2,08,0.94,129.0,M,-34.4,M,0000,0000*5E
$GPRMC,235417.500,A,4307.3940,N,07730.5851,W,44.51,89.65,120821,,,D*70
$GPGGA,235417.750,4307.3940,N,07730.5808,W,2,08,0.94,128.4,M,-34.4,M,0000,0000*55
$GPRMC,235418.000,A,4307.3940,N,07730.5765,W,44.70,89.90,120821,,,D*7B
$GPGGA,235418.250,4307.3940,N,07730.5721,W,2,08,0.94,128.0,M,-34.4,M,0000,0000*5F
$GPRMC,235418.500,A,4307.3940,N,07730.5678,W,44.84,89.77,120821,,,D*71
$GPGGA,235418.750,4307.3940,N,07730.5635,W,2,08,0.94,127.7,M,-34.4,M,0000,0000*56
$GPRMC,235419.000,A,4307.3941,N,07730.5591,W,45.38,89.96,120821,,,D*79
$GPGGA,235419.250,4307.3940,N,07730.5547,W,2,08,0.94,127.4,M,-34.4,M,0000,0000*57
$GPRMC,235419.500,A,4307.3940,N,07730.5503,W,45.62,90.50,120821,,,D*7B
$GPGGA,235419.750,4307.3939,N,07730.5460,W,2,08,0.94,127.2,M,-34.4,M,0000,0000*5E
$GPRMC,235420.000,A,4307.3939,N,07730.5416,W,45.66,90.71,120821,,,D*78
$GPGGA,235420.250,4307.3938,N,07730.5373,W,2,08,0.94,127.0,M,-34.4,M,0000,0000*57
$GPRMC,235420.500,A,4307.3938,N,07730.5329,W,45.90,90.67,120821,,,D*79
$GPGGA,235420.750,4307.3938,N,07730.5285,W,2,08,0.94,126.6,M,-34.4,M,0000,0000*5D
$GPRMC,235421.000,A,4307.3937,N,07730.5241,W,46.04,90.56,120821,,,D*71
$GPGGA,235421.250,4307.3937,N,07730.5197,W,2,08,0.94,126.3,M,-34.4,M,0000,0000*53
$GPRMC,235421.500,A,4307.3938,N,07730.5154,W,45.98,89.80,120821,,,D*79
$GPGGA,235421.750,4307.3938,N,07730.5110,W,2,08,0.94,126.0,M,-34.4,M,0000,0000*55
$GPRMC,235422.000,A,4307.3939,N,07730.5067,W,45.90,89.43,120821,,,D*78
$GPGGA,235422.250,4307.3939,N,07730.5023,W,2,08,0.94,125.8,M,-34.4,M,0000,0000*58
$GPRMC,235422.500,A,4307.3940,N,07730.4980,W,45.64,89.16,120821,,,D*79
$GPGGA,235422.750,4307.3940,N,07730.4936,W,2,08,0.94,125.5,M,-34.4,M,0000,0000*52
$GPRMC,235423.000,A,4307.3940,N,07730.4893,W,45.32,89.29,120821,,,D*71
$GPGGA,235423.250,4307.3941,N,07730.4851,W,2,08,0.94,125.2,M,-34.4,M,0000,0000*50
$GPRMC,235423.500,A,4307.3941,N,07730.4808,W,45.02,89.18,120821,,,D*76
$GPGGA,235423.750,4307.3941,N,07730.4765,W,2,08,0.94,125.0,M,-34.4,M,0000,0000*5F
$GPRMC,235424.000,A,4307.3940,N,07730.4722,W,45.04,89.87,120821,,,D*72
$GPGGA,235424.250,4307.3939,N,07730.4679,W,2,08,0.94,124.9,M,-34.4,M,0000,0000*56
$GPRMC,235424.500,A,4307.3939,N,07730.4637,W,45.03,89.94,120821,,,D*79
$GPGGA,235424.750,4307.3938,N,07730.4594,W,2,08,0.94,124.6,M,-34.4,M,0000,0000*5D
$GPRMC,235425.000,A,4307.3938,N,07730.4551,W,44.97,90.36,120821,,,D*73
$GPGGA,235425.250,4307.3937,N,07730.4509,W,2,08,0.94,124.5,M,-34.4,M,0000,0000*51
$GPRMC,235425.500,A,4307.3937,N,07730.4467,W,44.48,90.18,120821,,,D*73
$GPGGA,235425.750,4307.3938,N,07730.4425,W,2,08,0.94,124.0,M,-34.4,M,0000,0000*51
$GPRMC,235426.000,A,4307.3938,N,07730.4383,W,44.29,90.03,120821,,,D*7A
$GPGGA,235426.250,4307.3938,N,07730.4341,W,2,08,0.94,123.6,M,-34.4,M,0000,0000*53
$GPRMC,235426.500,A,4307.3938,N,07730.4299,W,44.20,89.91,120821,,,D*7F
$GPGGA,235426.750,4307.3939,N,07730.4257,W,2,08,0.94,123.4,M,-34.4,M,0000,0000*53
$GPRMC,235427.000,A,4307.3939,N,07730.4216,W,43.97,89.52,120821,,,D*79
$GPGGA,235427.250,4307.3940,N,07730.4175,W,2,08,0.94,123.2,M,-34.4,M,0000,0000*5C
$GPRMC,235427.500,A,4307.3940,N,07730.4134,W,43.41,89.44,120821,,,D*7D
$GPGGA,235427.750,4307.3942,N,07730.4093,W,2,08,0.94,123.1,M,-34.4,M,0000,0000*51
$GPRMC,235428.000,A,4307.3943,N,07730.4052,W,42.86,88.63,120821,,,D*7B
$GPGGA,235428.250,4307.3944,N,07730.4012,W,2,08,0.94,122.9,M,-34.4,M,0000,0000*5D
$GPRMC,235428.500,A,4307.3945,N,07730.3972,W,42.54,88.26,120821,,,D*7A
$GPGGA,235428.750,4307.3946,N,07730.3932,W,2,08,0.94,122.7,M,-34.4,M,0000,0000*58
$GPRMC,235429.000,A,4307.3948,N,07730.3893,W,42.23,87.65,120821,,,D*75
$GPGGA,235429.250,4307.3949,N,07730.3853,W,2,08,0.94,122.7,M,-34.4,M,0000,0000*55
$GPRMC,235429.500,A,4307.3951,N,07730.3813,W,41.91,86.71,120821,,,D*7E
$GPGGA,235429.750,4307.3953,N,07730.3773,W,2,08,0.94,122.6,M,-34.4,M,0000,0000*57
$GPRMC,235430.000,A,4307.3956,N,07730.3734,W,41.70,85.85,120821,,,D*79
$GPGGA,235430.250,4307.3958,N,07730.3694,W,2,08,0.94,122.4,M,-34.4,M,0000,0000*5B
$GPRMC,235430.500,A,4307.3961,N,07730.3655,W,41.61,84.86,120821,,,D*7C
$GPGGA,235430.750,4307.3964,N,07730.3615,W,2,08,0.94,122.4,M,-34.4,M,0000,0000*58
$GPRMC,235431.000,A,4307.3968,N,07730.3576,W,41.61,83.86,120821,,,D*74
$GPGGA,235431.250,4307.3971,N,07730.3536,W,2,08,0.94,122.2,M,-34.4,M,0000,0000*5C
$GPRMC,235431.500,A,4307.3975,N,07730.3496,W,41.66,83.12,120821,,,D*78
$GPGGA,235431.750,4307.3980,N,07730.3457,W,2,08,0.94,121.8,M,-34.4,M,0000,0000*58
$GPRMC,235432.000,A,4307.3984,N,07730.3417,W,41.76,82.29,120821,,,D*71
$GPGGA,235432.250,4307.3988,N,07730.3378,W,2,08,0.94,121.4,M,-34.4,M,0000,0000*50
$GPRMC,235432.500,A,4307.3993,N,07730.3338,W,42.04,81.26,120821,,,D*72
$GPGGA,235432.750,4307.3998,N,07730.3299,W,2,08,0.94,121.1,M,-34.4,M,0000,0000*5F
$GPRMC,235433.000,A,4307.4004,N,07730.3259,W,42.31,79.96,120821,,,D*7A
$GPGGA,235433.250,4307.4011,N,07730.3220,W,2,08,0.94,121.0,M,-34.4,M,0000,0000*57
$GPRMC,235433.500,A,4307.4017,N,07730.3181,W,42.35,78.21,120821,,,D*72
$GPGGA,235433.750,4307.4023,N,07730.3141,W,2,08,0.94,120.5,M,-34.4,M,0000,0000*53
$GPRMC,235434.000,A,4307.4030,N,07730.3102,W,42.52,77.67,120821,,,D*72
$GPGGA,235434.250,4307.4037,N,07730.3063,W,2,08,0.94,120.1,M,-34.4,M,0000,0000*51
$GPRMC,235434.500,A,4307.4044,N,07730.3023,W,42.73,76.81,120821,,,D*7C
$GPGGA,235434.750,4307.4052,N,07730.2984,W,2,08,0.94,119.7,M,-34.4,M,0000,0000*5A
$GPRMC,235435.000,A,4307.4059,N,07730.2944,W,43.10,76.05,120821,,,D*75
$GPGGA,235435.250,4307.4067,N,07730.2904,W,2,08,0.94,119.2,M,-34.4,M,0000,0000*55
$GPRMC,235435.500,A,4307.4075,N,07730.2865,W,43.12,74.94,120821,,,D*74
$GPGGA,235435.750,4307.4084,N,07730.2826,W,2,08,0.94,118.8,M,-34.4,M,0000,0000*57
$GPRMC,235436.000,A,4307.4092,N,07730.2787,W,43.14,74.28,120821,,,D*79
$GPGGA,235436.250,4307.4102,N,07730.2748,W,2,08,0.94,118.4,M,-34.4,M,0000,0000*55
$GPRMC,235436.500,A,4307.4110,N,07730.2709,W,43.19,73.57,120821,,,D*73
$GPGGA,235436.750,4307.4120,N,07730.2670,W,2,08,0.94,117.6,M,-34.4,M,0000,0000*57
$GPRMC,235437.000,A,4307.4129,N,07730.2632,W,43.02,72.49,120821,,,D*70
$GPGGA,235437.250,4307.4139,N,07730.2593,W,2,08,0.94,117.1,M,-34.4,M,0000,0000*52
$GPRMC,235437.500,A,4307.4149,N,07730.2554,W,43.02,71.59,120821,,,D*72
$GPGGA,235437.750,4307.4159,N,07730.2516,W,2,08,0.94,116.4,M,-34.4,M,0000,0000*58
$GPRMC,235438.000,A,4307.4169,N,07730.2479,W,42.98,70.96,120821,,,D*74
$GPGGA,235438.250,4307.4179,N,07730.2441,W,2,08,0.94,115.6,M,-34.4,M,0000,0000*52
$GPRMC,235438.500,A,4307.4189,N,07730.2403,W,42.94,70.07,120821,,,D*76
$GPGGA,235438.750,4307.4200,N,07730.2365,W,2,08,0.94,114.9,M,-34.4,M,0000,0000*55
$GPRMC,235439.000,A,4307.4211,N,07730.2327,W,42.91,68.98,120821,,,D*7B
$GPGGA,235439.250,4307.4222,N,07730.2290,W,2,08,0.94,114.2,M,-34.4,M,0000,0000*51
$GPRMC,235439.500,A,4307.4233,N,07730.2252,W,42.90,68.11,120821,,,D*7D
$GPGGA,235439.750,4307.4245,N,07730.2215,W,2,08,0.94,113.6,M,-34.4,M,0000,0000*5B
$GPRMC,235440.000,A,4307.4256,N,07730.2177,W,42.71,67.71,120821,,,D*77
$GPGGA,235440.250,4307.4268,N,07730.2140,W,2,08,0.94,113.0,M,-34.4,M,0000,0000*5A
$GPRMC,235440.500,A,4307.4280,N,07730.2103,W,42.62,66.75,120821,,,D*7D
$GPGGA,235440.750,4307.4292,N,07730.2066,W,2,08,0.94,112.4,M,-34.4,M,0000,0000*5A
$GPRMC,235441.000,A,4307.4304,N,07730.2029,W,42.58,66.01,120821,,,D*77
$GPGGA,235441.250,4307.4317,N,07730.1992,W,2,08,0.94,111.9,M,-34.4,M,0000,0000*5D
$GPRMC,235441.500,A,4307.4330,N,07730.1954,W,43.08,65.31,120821,,,D*71
$GPGGA,235441.750,4307.4344,N,07730.1917,W,2,07,1.00,111.5,M,-34.4,M,0000,0000*5C
$GPRMC,235442.000,A,4307.4358,N,07730.1879,W,43.41,64.40,120821,,,D*7D
$GPGGA,235442.250,4307.4373,N,07730.1842,W,2,08,0.94,111.1,M,-34.4,M,0000,0000*58
$GPRMC,235442.500,A,4307.4388,N,07730.1806,W,43.53,62.88,120821,,,D*7C
$GPGGA,235442.750,4307.4404,N,07730.1769,W,2,08,0.94,110.6,M,-34.4,M,0000,0000*5A
$GPRMC,235443.000,A,4307.4419,N,07730.1733,W,43.83,61.87,120821,,,D*7F
$GPGGA,235443.250,4307.4436,N,07730.1696,W,2,08,0.94,110.2,M,-34.4,M,0000,0000*5A
$GPRMC,235443.500,A,4307.4454,N,07730.1660,W,43.85,60.30,120821,,,D*7F
$GPGGA,235443.750,4307.4471,N,07730.1624,W,2,08,0.94,110.2,M,-34.4,M,0000,0000*55
$GPRMC,235444.000,A,4307.4488,N,07730.1588,W,44.12,59.27,120821,,,D*7C
$GPGGA,235444.250,4307.4506,N,07730.1552,W,2,08,0.94,110.1,M,-34.4,M,0000,0000*57
$GPRMC,235444.500,A,4307.4522,N,07730.1516,W,44.27,58.42,120821,,,D*7B
$GPGGA,235444.750,4307.4540,N,07730.1480,W,2,08,0.94,109.9,M,-34.4,M,0000,0000*5E
$GPRMC,235445.000,A,4307.4558,N,07730.1445,W,44.57,57.55,120821,,,D*7B
$GPGGA,235445.250,4307.4575,N,07730.1409,W,2,08,0.94,109.7,M,-34.4,M,0000,0000*53
$GPRMC,235445.500,A,4307.4593,N,07730.1374,W,44.55,56.63,120821,,,D*7A
$GPGGA,235445.750,4307.4611,N,07730.1339,W,2,08,0.94,109.7,M,-34.4,M,0000,0000*53
$GPRMC,235446.000,A,4307.4629,N,07730.1304,W,44.57,55.70,120821,,,D*7A
$GPGGA,235446.250,4307.4647,N,07730.1269,W,2,08,0.94,109.2,M,-34.4,M,0000,0000*57
$GPRMC,235446.500,A,4307.4666,N,07730.1234,W,45.02,54.86,120821,,,D*7F
$GPGGA,235446.750,4307.4684,N,07730.1199,W,2,08,0.94,108.5,M,-34.4,M,0000,0000*57
$GPRMC,235447.000,A,4307.4702,N,07730.1164,W,45.12,54.79,120821,,,D*7F
$GPGGA,235447.250,4307.4720,N,07730.1129,W,2,08,0.94,107.9,M,-34.4,M,0000,0000*54
$GPRMC,235447.500,A,4307.4739,N,07730.1094,W,45.34,54.21,120821,,,D*75
$GPGGA,235447.750,4307.4758,N,07730.1059,W,2,08,0.94,107.3,M,-34.4,M,0000,0000*52
$GPRMC,235448.000,A,4307.4778,N,07730.1024,W,45.78,53.59,120821,,,D*71
$GPGGA,235448.250,4307.4798,N,07730.0990,W,2,08,0.94,106.8,M,-34.4,M,0000,0000*53
$GPRMC,235448.500,A,4307.4818,N,07730.0956,W,46.41,52.54,120821,,,D*75
$GPGGA,235448.750,4307.4840,N,07730.0923,W,2,08,0.94,106.4,M,-34.4,M,0000,0000*58
$GPRMC,235449.000,A,4307.4861,N,07730.0890,W,46.32,50.78,120821,,,D*7C
$GPGGA,235449.250,4307.4882,N,07730.0857,W,2,08,0.94,105.9,M,-34.4,M,0000,0000*5E
$GPRMC,235449.500,A,4307.4904,N,07730.0824,W,46.22,49.66,120821,,,D*72
$GPGGA,235449.750,4307.4925,N,07730.0791,W,2,08,0.94,105.6,M,-34.4,M,0000,0000*5D
$GPRMC,235450.000,A,4307.4947,N,07730.0757,W,46.03,48.86,120821,,,D*7F
$GPGGA,235450.250,4307.4969,N,07730.0725,W,2,08,0.94,105.4,M,-34.4,M,0000,0000*55
$GPRMC,235450.500,A,4307.4991,N,07730.0693,W,45.79,48.02,120821,,,D*7A
$GPGGA,235450.750,4307.5013,N,07730.0660,W,2,08,0.94,105.2,M,-34.4,M,0000,0000*53
$GPRMC,235451.000,A,4307.5036,N,07730.0628,W,45.86,47.55,120821,,,D*76
$GPGGA,235451.250,4307.5058,N,07730.0595,W,2,08,0.94,105.2,M,-34.4,M,0000,0000*51
$GPRMC,235451.500,A,4307.5080,N,07730.0562,W,46.12,47.50,120821,,,D*78
$GPGGA,235451.750,4307.5102,N,07730.0530,W,2,08,0.94,105.0,M,-34.4,M,0000,0000*57
$GPRMC,235452.000,A,4307.5125,N,07730.0497,W,46.44,47.25,120821,,,D*7A
$GPGGA,235452.250,4307.5149,N,07730.0463,W,2,08,0.94,105.1,M,-34.4,M,0000,0000*58
$GPRMC,235452.500,A,4307.5171,N,07730.0430,W,46.56,47.46,120821,,,D*75
$GPGGA,235452.750,4307.5194,N,07730.0398,W,2,08,0.94,104.8,M,-34.4,M,0000,0000*56
$GPRMC,235453.000,A,4307.5216,N,07730.0365,W,46.73,47.59,120821,,,D*7D
$GPGGA,235453.250,4307.5239,N,07730.0333,W,2,08,0.94,104.4,M,-34.4,M,0000,0000*5B
$GPRMC,235453.500,A,4307.5262,N,07730.0300,W,46.96,47.47,120821,,,D*7C
$GPGGA,235453.750,4307.5286,N,07730.0267,W,2,08,0.94,104.2,M,-34.4,M,0000,0000*5C
$GPRMC,235454.000,A,4307.5309,N,07730.0234,W,46.95,47.10,120821,,,D*75
$GPGGA,235454.250,4307.5333,N,07730.0201,W,2,08,0.94,104.3,M,-34.4,M,0000,0000*50
$GPRMC,235454.500,A,4307.5357,N,07730.0168,W,46.98,46.21,120821,,,D*7F
$GPGGA,235454.750,4307.5380,N,07730.0137,W,2,08,0.94,104.2,M,-34.4,M,0000,0000*5A
$GPRMC,235455.000,A,4307.5403,N,07730.0105,W,47.01,45.71,120821,,,D*71
$GPGGA,235455.250,4307.5427,N,07730.0073,W,2,08,0.94,104.0,M,-34.4,M,0000,0000*57
$GPRMC,235455.500,A,4307.5450,N,07730.0041,W,47.24,45.21,120821,,,D*71
$GPGGA,235455.750,4307.5473,N,07730.0009,W,2,08,0.94,103.8,M,-34.4,M,0000,0000*51
$GPRMC,235456.000,A,4307.5497,N,07729.9977,W,47.44,45.40,120821,,,D*70
$GPGGA,235456.250,4307.5521,N,07729.9944,W,2,08,0.94,103.5,M,-34.4,M,0000,0000*5D
$GPRMC,235456.500,A,4307.5545,N,07729.9912,W,48.23,45.13,120821,,,D*70
$GPGGA,235456.750,4307.5569,N,07729.9880,W,2,08,0.94,103.2,M,-34.4,M,0000,0000*5A
$GPRMC,235457.000,A,4307.5593,N,07729.9847,W,48.21,45.64,120821,,,D*7C
$GPGGA,235457.250,4307.5616,N,07729.9815,W,2,08,0.94,102.9,M,-34.4,M,0000,0000*53
$GPRMC,235457.500,A,4307.5640,N,07729.9782,W,47.90,46.48,120821,,,D*7A
$GPGGA,235457.750,4307.5663,N,07729.9750,W,2,08,0.94,102.3,M,-34.4,M,0000,0000*50
$GPRMC,235458.000,A,4307.5686,N,07729.9717,W,47.76,47.22,120821,,,D*73
$GPGGA,235458.250,4307.5708,N,07729.9684,W,2,08,0.94,101.7,M,-34.4,M,0000,0000*59
$GPRMC,235458.500,A,4307.5731,N,07729.9651,W,47.45,48.25,120821,,,D*70
$GPGGA,235458.750,4307.5753,N,07729.9617,W,2,08,0.94,101.1,M,-34.4,M,0000,0000*5E
$GPRMC,235459.000,A,4307.5775,N,07729.9583,W,47.54,49.47,120821,,,D*7D
$GPGGA,235459.250,4307.5797,N,07729.9548,W,2,08,0.94,100.6,M,-34.4,M,0000,0000*5D
$GPRMC,235459.500,A,4307.5819,N,07729.9514,W,47.87,50.46,120821,,,D*74
$GPGGA,235459.750,4307.5841,N,07729.9479,W,2,08,0.94,100.1,M,-34.4,M,0000,0000*58
$GPRMC,235500.000,A,4307.5863,N,07729.9444,W,47.97,51.12,120821,,,D*74
$GPGGA,235500.250,4307.5884,N,07729.9409,W,2,08,0.94,99.6,M,-34.4,M,0000,0000*68
$GPRMC,235500.500,A,4307.5904,N,07729.9373,W,48.26,52.56,120821,,,D*74
$GPGGA,235500.750,4307.5924,N,07729.9336,W,2,08,0.94,99.3,M,-34.4,M,0000,0000*68
$GPRMC,235501.000,A,4307.5944,N,07729.9299,W,48.54,54.04,120821,,,D*75
$GPGGA,235501.250,4307.5963,N,07729.9261,W,2,08,0.94,98.8,M,-34.4,M,0000,0000*66
$GPRMC,235501.500,A,4307.5982,N,07729.9224,W,48.42,56.00,120821,,,D*7D
$GPGGA,235501.750,4307.6001,N,07729.9186,W,2,08,0.94,98.4,M,-34.4,M,0000,0000*6B
$GPRMC,235502.000,A,4307.6020,N,07729.9148,W,48.32,57.02,120821,,,D*74
$GPGGA,235502.250,4307.6038,N,07729.9110,W,2,08,0.94,98.1,M,-34.4,M,0000,0000*6D
$GPRMC,235502.500,A,4307.6055,N,07729.9072,W,47.84,57.90,120821,,,D*72
$GPGGA,235502.750,4307.6073,N,07729.9035,W,2,08,0.94,97.9,M,-34.4,M,0000,0000*66
$GPRMC,235503.000,A,4307.6091,N,07729.8997,W,47.82,58.58,120821,,,D*70
$GPGGA,235503.250,4307.6107,N,07729.8958,W,2,08,0.94,97.8,M,-34.4,M,0000,0000*62
$GPRMC,235503.500,A,4307.6124,N,07729.8919,W,47.88,60.46,120821,,,D*72
$GPGGA,235503.750,4307.6139,N,07729.8880,W,2,08,0.94,97.7,M,-34.4,M,0000,0000*61
$GPRMC,235504.000,A,4307.6155,N,07729.8841,W,47.85,61.73,120821,,,D*70
$GPGGA,235504.250,4307.6170,N,07729.8801,W,2,08,0.94,97.5,M,-34.4,M,0000,0000*65
$GPRMC,235504.500,A,4307.6185,N,07729.8762,W,47.82,63.07,120821,,,D*70
$GPGGA,235504.750,4307.6199,N,07729.8722,W,2,08,0.94,97.4,M,-34.4,M,0000,0000*68
$GPRMC,235505.000,A,4307.6213,N,07729.8683,W,47.33,64.38,120821,,,D*77
$GPGGA,235505.250,4307.6227,N,07729.8644,W,2,08,0.94,97.0,M,-34.4,M,0000,0000*6F
$GPRMC,235505.500,A,4307.6240,N,07729.8604,W,46.86,65.34,120821,,,D*79
$GPGGA,235505.750,4307.6252,N,07729.8564,W,2,08,0.94,96.9,M,-34.4,M,0000,0000*61
$GPRMC,235506.000,A,4307.6264,N,07729.8524,W,46.45,66.35,120821,,,D*75
$GPGGA,235506.250,4307.6275,N,07729.8484,W,2,08,0.94,96.4,M,-34.4,M,0000,0000*60
$GPRMC,235506.500,A,4307.6286,N,07729.8446,W,46.35,68.21,120821,,,D*75
$GPGGA,235506.750,4307.6296,N,07729.8406,W,2,08,0.94,95.6,M,-34.4,M,0000,0000*63
$GPRMC,235507.000,A,4307.6306,N,07729.8367,W,46.15,69.64,120821,,,D*7E
$GPGGA,235507.250,4307.6317,N,07729.8326,W,2,08,0.94,95.1,M,-34.4,M,0000,0000*6D
$GPRMC,235507.500,A,4307.6327,N,07729.8286,W,46.27,71.49,120821,,,D*71
$GPGGA,235507.750,4307.6337,N,07729.8244,W,2,08,0.94,94.9,M,-34.4,M,0000,0000*66
$GPRMC,235508.000,A,4307.6347,N,07729.8203,W,46.09,72.87,120821,,,D*7D
$GPGGA,235508.250,4307.6356,N,07729.8161,W,2,08,0.94,94.9,M,-34.4,M,0000,0000*6F
$GPRMC,235508.500,A,4307.6364,N,07729.8120,W,45.56,74.78,120821,,,D*74
$GPGGA,235508.750,4307.6371,N,07729.8079,W,2,08,0.94,94.5,M,-34.4,M,0000,0000*6B
$GPRMC,235509.000,A,4307.6378,N,07729.8037,W,44.94,76.21,120821,,,D*7B
$GPGGA,235509.250,4307.6385,N,07729.7996,W,2,08,0.94,94.0,M,-34.4,M,0000,0000*66
$GPRMC,235509.500,A,4307.6392,N,07729.7954,W,44.71,77.06,120821,,,D*76
$GPGGA,235509.750,4307.6398,N,07729.7912,W,2,08,0.94,93.6,M,-34.4,M,0000,0000*62
$GPRMC,235510.000,A,4307.6404,N,07729.7871,W,44.48,77.85,120821,,,D*74
$GPGGA,235510.250,4307.6410,N,07729.7830,W,2,08,0.94,93.1,M,-34.4,M,0000,0000*6E
$GPRMC,235510.500,A,4307.6415,N,07729.7788,W,44.44,78.96,120821,,,D*79
$GPGGA,235510.750,4307.6421,N,07729.7746,W,2,08,0.94,92.8,M,-34.4,M,0000,0000*6F
$GPRMC,235511.000,A,4307.6426,N,07729.7705,W,44.46,79.39,120821,,,D*7E
$GPGGA,235511.250,4307.6431,N,07729.7663,W,2,08,0.94,92.4,M,-34.4,M,0000,0000*60
$GPRMC,235511.500,A,4307.6436,N,07729.7621,W,44.45,80.07,120821,,,D*75
$GPGGA,235511.750,4307.6440,N,07729.7579,W,2,08,0.94,92.0,M,-34.4,M,0000,0000*6F
$GPRMC,235512.000,A,4307.6444,N,07729.7538,W,44.37,81.07,120821,,,D*79
$GPGGA,235512.250,4307.6449,N,07729.7496,W,2,08,0.94,91.5,M,-34.4,M,0000,0000*66
$GPRMC,235512.500,A,4307.6453,N,07729.7455,W,44.31,81.14,120821,,,D*74
$GPGGA,235512.750,4307.6457,N,07729.7413,W,2,08,0.94,91.1,M,-34.4,M,0000,0000*65
$GPRMC,235513.000,A,4307.6461,N,07729.7372,W,44.26,81.70,120821,,,D*77
$GPGGA,235513.250,4307.6465,N,07729.7330,W,2,08,0.94,90.7,M,-34.4,M,0000,0000*61
$GPRMC,235513.500,A,4307.6469,N,07729.7288,W,44.28,82.21,120821,,,D*77
$GPGGA,235513.750,4307.6473,N,07729.7247,W,2,08,0.94,90.3,M,-34.4,M,0000,0000*66
$GPRMC,235514.000,A,4307.6476,N,07729.7205,W,44.30,82.60,120821,,,D*72
$GPGGA,235514.250,4307.6480,N,07729.7164,W,2,08,0.94,90.0,M,-34.4,M,0000,0000*69
$GPRMC,235514.500,A,4307.6483,N,07729.7123,W,44.17,83.12,120821,,,D*7B
$GPGGA,235514.750,4307.6486,N,07729.7082,W,2,08,0.94,89.8,M,-34.4,M,0000,0000*63
$GPRMC,235515.000,A,4307.6489,N,07729.7041,W,44.03,83.15,120821,,,D*72
$GPGGA,235515.250,4307.6493,N,07729.7000,W,2,08,0.94,89.5,M,-34.4,M,0000,0000*64
$GPRMC,235515.500,A,4307.6496,N,07729.6958,W,43.51,83.05,120821,,,D*78
$GPGGA,235515.750,4307.6500,N,07729.6917,W,2,08,0.94,89.2,M,-34.4,M,0000,0000*63
$GPRMC,235516.000,A,4307.6503,N,07729.6876,W,43.53,83.07,120821,,,D*7E
$GPGGA,235516.250,4307.6506,N,07729.6835,W,2,08,0.94,88.9,M,-34.4,M,0000,0000*68
$GPRMC,235516.500,A,4307.6510,N,07729.6794,W,43.22,83.07,120821,,,D*7C
$GPGGA,235516.750,4307.6513,N,07729.6754,W,2,08,0.94,88.7,M,-34.4,M,0000,0000*6F
$GPRMC,235517.000,A,4307.6516,N,07729.6713,W,42.96,82.76,120821,,,D*78
$GPGGA,235517.250,4307.6520,N,07729.6673,W,2,08,0.94,88.6,M,-34.4,M,0000,0000*6E
$GPRMC,235517.500,A,4307.6523,N,07729.6633,W,42.66,82.81,120821,,,D*7F
$GPGGA,235517.750,4307.6526,N,07729.6593,W,2,08,0.94,88.4,M,-34.4,M,0000,0000*62
$GPRMC,235518.000,A,4307.6529,N,07729.6553,W,42.39,83.32,120821,,,D*79
$GPGGA,235518.250,4307.6531,N,07729.6514,W,2,08,0.94,88.4,M,-34.4,M,0000,0000*61
$GPRMC,235518.500,A,4307.6534,N,07729.6474,W,42.14,83.48,120821,,,D*76
$GPGGA,235518.750,4307.6536,N,07729.6435,W,2,08,0.94,88.3,M,-34.4,M,0000,0000*66
$GPRMC,235519.000,A,4307.6539,N,07729.6395,W,41.89,83.87,120821,,,D*73
$GPGGA,235519.250,4307.6542,N,07729.6356,W,2,08,0.94,88.2,M,-34.4,M,0000,0000*62
$GPRMC,235519.500,A,4307.6545,N,07729.6317,W,41.54,83.51,120821,,,D*7C
$GPGGA,235519.750,4307.6547,N,07729.6278,W,2,08,0.94,88.3,M,-34.4,M,0000,0000*6E
$GPRMC,235520.000,A,4307.6550,N,07729.6239,W,41.24,83.59,120821,,,D*75
$GPGGA,235520.250,4307.6553,N,07729.6200,W,2,08,0.94,88.3,M,-34.4,M,0000,0000*6B
$GPRMC,235520.500,A,4307.6556,N,07729.6161,W,41.12,83.24,120821,,,D*77
$GPGGA,235520.750,4307.6560,N,07729.6122,W,2,08,0.94,88.3,M,-34.4,M,0000,0000*6D
$GPRMC,235521.000,A,4307.6563,N,07729.6084,W,41.21,83.10,120821,,,D*78
$GPGGA,235521.250,4307.6566,N,07729.6044,W,2,08,0.94,88.2,M,-34.4,M,0000,0000*6F
$GPRMC,235521.500,A,4307.6570,N,07729.6005,W,41.50,83.13,120821,,,D*73
$GPGGA,235521.750,4307.6573,N,07729.5966,W,2,08,0.94,88.1,M,-34.4,M,0000,0000*67
$GPRMC,235522.000,A,4307.6576,N,07729.5927,W,41.70,83.14,120821,,,D*7C
$GPGGA,235522.250,4307.6580,N,07729.5887,W,2,08,0.94,88.0,M,-34.4,M,0000,0000*62
$GPRMC,235522.500,A,4307.6584,N,07729.5847,W,42.01,82.45,120821,,,D*73
$GPGGA,235522.750,4307.6588,N,07729.5808,W,2,08,0.94,87.8,M,-34.4,M,0000,0000*6F
$GPRMC,235523.000,A,4307.6592,N,07729.5768,W,42.08,82.52,120821,,,D*7D
$GPGGA,235523.250,4307.6596,N,07729.5728,W,2,08,0.94,87.6,M,-34.4,M,0000,0000*67
$GPRMC,235523.500,A,4307.6599,N,07729.5688,W,42.10,83.03,120821,,,D*70
$GPGGA,235523.750,4307.6602,N,07729.5648,W,2,08,0.94,87.4,M,-34.4,M,0000,0000*69
$GPRMC,235524.000,A,4307.6606,N,07729.5608,W,42.32,83.29,120821,,,D*77
$GPGGA,235524.250,4307.6609,N,07729.5568,W,2,08,0.94,87.2,M,-34.4,M,0000,0000*67
$GPRMC,235524.500,A,4307.6612,N,07729.5528,W,42.40,83.19,120821,,,D*70
$GPGGA,235524.750,4307.6615,N,07729.5488,W,2,08,0.94,86.8,M,-34.4,M,0000,0000*6B
$GPRMC,235525.000,A,4307.6619,N,07729.5448,W,42.37,82.96,120821,,,D*7E
$GPGGA,235525.250,4307.6622,N,07729.5409,W,2,08,0.94,86.4,M,-34.4,M,0000,0000*6E
$GPRMC,235525.500,A,4307.6626,N,07729.5369,W,42.32,82.58,120821,,,D*74
$GPGGA,235525.750,4307.6629,N,07729.5329,W,2,08,0.94,85.9,M,-34.4,M,0000,0000*6B
$GPRMC,235526.000,A,4307.6633,N,07729.5289,W,42.30,82.66,120821,,,D*76
$GPGGA,235526.250,4307.6637,N,07729.5249,W,2,08,0.94,85.6,M,-34.4,M,0000,0000*6A
$GPRMC,235526.500,A,4307.6640,N,07729.5210,W,42.56,82.73,120821,,,D*73
$GPGGA,235526.750,4307.6644,N,07729.5170,W,2,08,0.94,85.2,M,-34.4,M,0000,0000*66
$GPRMC,235527.000,A,4307.6647,N,07729.5129,W,42.69,82.99,120821,,,D*71
$GPGGA,235527.250,4307.6650,N,07729.5089,W,2,08,0.94,84.8,M,-34.4,M,0000,0000*6B
$GPRMC,235527.500,A,4307.6654,N,07729.5048,W,42.92,83.18,120821,,,D*7C
$GPGGA,235527.750,4307.6657,N,07729.5007,W,2,08,0.94,84.5,M,-34.4,M,0000,0000*62
$GPRMC,235528.000,A,4307.6660,N,07729.4966,W,43.49,83.61,120821,,,D*7C
$GPGGA,235528.250,4307.6663,N,07729.4925,W,2,08,0.94,84.3,M,-34.4,M,0000,0000*61
$GPRMC,235528.500,A,4307.6666,N,07729.4883,W,43.80,83.47,120821,,,D*74
$GPGGA,235528.750,4307.6670,N,07729.4841,W,2,08,0.94,84.0,M,-34.4,M,0000,0000*66
$GPRMC,235529.000,A,4307.6673,N,07729.4799,W,44.52,83.59,120821,,,D*77
$GPGGA,235529.250,4307.6676,N,07729.4756,W,2,08,0.94,83.9,M,-34.4,M,0000,0000*63
$GPRMC,235529.500,A,4307.6680,N,07729.4713,W,44.74,83.36,120821,,,D*71
$GPGGA,235529.750,4307.6683,N,07729.4670,W,2,08,0.94,83.6,M,-34.4,M,0000,0000*66
$GPRMC,235530.000,A,4307.6686,N,07729.4627,W,44.99,83.55,120821,,,D*7A
$GPGGA,235530.250,4307.6690,N,07729.4584,W,2,08,0.94,83.3,M,-34.4,M,0000,0000*64
$GPRMC,235530.500,A,4307.6693,N,07729.4540,W,45.15,83.32,120821,,,D*7D
$GPGGA,235530.750,4307.6697,N,07729.4496,W,2,08,0.94,83.0,M,-34.4,M,0000,0000*67
$GPRMC,235531.000,A,4307.6701,N,07729.4453,W,45.38,83.23,120821,,,D*7F
$GPGGA,235531.250,4307.6704,N,07729.4409,W,2,08,0.94,82.7,M,-34.4,M,0000,0000*68
$GPRMC,235531.500,A,4307.6708,N,07729.4365,W,45.59,82.99,120821,,,D*76
$GPGGA,235531.750,4307.6712,N,07729.4320,W,2,08,0.94,82.4,M,-34.4,M,0000,0000*65
$GPRMC,235532.000,A,4307.6716,N,07729.4276,W,46.70,83.11,120821,,,D*75
$GPGGA,235532.250,4307.6719,N,07729.4231,W,2,08,0.94,82.2,M,-34.4,M,0000,0000*6F
$GPRMC,235532.500,A,4307.6723,N,07729.4187,W,46.88,83.06,120821,,,D*7A
$GPGGA,235532.750,4307.6727,N,07729.4141,W,2,08,0.94,81.7,M,-34.4,M,0000,0000*65
$GPRMC,235533.000,A,4307.6731,N,07729.4096,W,47.22,83.16,120821,,,D*7C
$GPGGA,235533.250,4307.6735,N,07729.4051,W,2,08,0.94,81.3,M,-34.4,M,0000,0000*66
$GPRMC,235533.500,A,4307.6738,N,07729.4005,W,47.38,83.59,120821,,,D*7A
$GPGGA,235533.750,4307.6741,N,07729.3960,W,2,08,0.94,80.7,M,-34.4,M,0000,0000*69
$GPRMC,235534.000,A,4307.6745,N,07729.3915,W,47.56,83.58,120821,,,D*74
$GPGGA,235534.250,4307.6748,N,07729.3869,W,2,08,0.94,80.1,M,-34.4,M,0000,0000*6C
$GPRMC,235534.500,A,4307.6751,N,07729.3824,W,47.88,83.67,120821,,,D*78
$GPGGA,235534.750,4307.6754,N,07729.3779,W,2,08,0.94,79.6,M,-34.4,M,0000,0000*6B
$GPRMC,235535.000,A,4307.6758,N,07729.3734,W,47.55,83.65,120821,,,D*79
$GPGGA,235535.250,4307.6761,N,07729.3690,W,2,08,0.94,79.2,M,-34.4,M,0000,0000*6B
$GPRMC,235535.500,A,4307.6764,N,07729.3645,W,47.33,83.78,120821,,,D*78
$GPGGA,235535.750,4307.6768,N,07729.3600,W,2,08,0.94,78.9,M,-34.4,M,0000,0000*64
$GPRMC,235536.000,A,4307.6771,N,07729.3556,W,47.26,83.76,120821,,,D*71
$GPGGA,235536.250,4307.6774,N,07729.3512,W,2,08,0.94,78.8,M,-34.4,M,0000,0000*6E
$GPRMC,235536.500,A,4307.6778,N,07729.3467,W,46.75,83.79,120821,,,D*76
$GPGGA,235536.750,4307.6782,N,07729.3423,W,2,08,0.94,78.8,M,-34.4,M,0000,0000*61
$GPRMC,235537.000,A,4307.6786,N,07729.3379,W,46.50,83.41,120821,,,D*77
$GPGGA,235537.250,4307.6790,N,07729.3335,W,2,08,0.94,78.7,M,-34.4,M,0000,0000*69
$GPRMC,235537.500,A,4307.6794,N,07729.3292,W,46.39,83.26,120821,,,D*7B
$GPGGA,235537.750,4307.6797,N,07729.3248,W,2,08,0.94,78.7,M,-34.4,M,0000,0000*60
$GPRMC,235538.000,A,4307.6801,N,07729.3205,W,46.19,83.28,120821,,,D*70
$GPGGA,235538.250,4307.6805,N,07729.3162,W,2,08,0.94,78.6,M,-34.4,M,0000,0000*64
$GPRMC,235538.500,A,4307.6810,N,07729.3119,W,45.84,83.06,120821,,,D*70
$GPGGA,235538.750,4307.6814,N,07729.3076,W,2,08,0.94,78.8,M,-34.4,M,0000,0000*6B
$GPRMC,235539.000,A,4307.6818,N,07729.3033,W,45.73,82.98,120821,,,D*7B
$GPGGA,235539.250,4307.6822,N,07729.2990,W,2,08,0.94,78.9,M,-34.4,M,0000,0000*6B
$GPRMC,235539.500,A,4307.6827,N,07729.2948,W,45.27,82.69,120821,,,D*79
$GPGGA,235539.750,4307.6831,N,07729.2906,W,2,08,0.94,79.2,M,-34.4,M,0000,0000*69
$GPRMC,235540.000,A,4307.6835,N,07729.2864,W,44.85,82.40,120821,,,D*7C
$GPGGA,235540.250,4307.6840,N,07729.2822,W,2,08,0.94,79.5,M,-34.4,M,0000,0000*64
$GPRMC,235540.500,A,4307.6844,N,07729.2780,W,44.43,82.15,120821,,,D*70
$GPGGA,235540.750,4307.6849,N,07729.2739,W,2,08,0.94,79.8,M,-34.4,M,0000,0000*60
$GPRMC,235541.000,A,4307.6853,N,07729.2698,W,43.85,81.94,120821,,,D*7D
$GPGGA,235541.250,4307.6858,N,07729.2658,W,2,08,0.94,80.1,M,-34.4,M,0000,0000*6D
$GPRMC,235541.500,A,4307.6862,N,07729.2618,W,43.14,81.76,120821,,,D*76
$GPGGA,235541.750,4307.6866,N,07729.2578,W,2,08,0.94,80.3,M,-34.4,M,0000,0000*66
$GPRMC,235542.000,A,4307.6870,N,07729.2538,W,42.87,82.14,120821,,,D*7E
$GPGGA,235542.250,4307.6874,N,07729.2498,W,2,08,0.94,80.6,M,-34.4,M,0000,0000*69
$GPRMC,235542.500,A,4307.6879,N,07729.2458,W,42.82,82.23,120821,,,D*74
$GPGGA,235542.750,4307.6883,N,07729.2417,W,2,08,0.94,81.0,M,-34.4,M,0000,0000*64
$GPRMC,235543.000,A,4307.6887,N,07729.2377,W,42.72,82.36,120821,,,D*70
$GPGGA,235543.250,4307.6890,N,07729.2338,W,2,08,0.94,81.3,M,-34.4,M,0000,0000*6B
$GPRMC,235543.500,A,4307.6894,N,07729.2298,W,42.49,82.74,120821,,,D*79
$GPGGA,235543.750,4307.6897,N,07729.2259,W,2,08,0.94,81.7,M,-34.4,M,0000,0000*6B
$GPRMC,235544.000,A,4307.6901,N,07729.2220,W,42.15,82.84,120821,,,D*73
$GPGGA,235544.250,4307.6904,N,07729.2182,W,2,08,0.94,82.0,M,-34.4,M,0000,0000*63
$GPRMC,235544.500,A,4307.6908,N,07729.2144,W,41.37,82.73,120821,,,D*75
$GPGGA,235544.750,4307.6910,N,07729.2107,W,2,08,0.94,82.4,M,-34.4,M,0000,0000*6A
$GPRMC,235545.000,A,4307.6913,N,07729.2069,W,40.83,83.22,120821,,,D*7E
$GPGGA,235545.250,4307.6917,N,07729.2031,W,2,08,0.94,82.9,M,-34.4,M,0000,0000*60
$GPRMC,235545.500,A,4307.6920,N,07729.1994,W,40.37,83.26,120821,,,D*78
$GPGGA,235545.750,4307.6923,N,07729.1956,W,2,08,0.94,83.2,M,-34.4,M,0000,0000*63
$GPRMC,235546.000,A,4307.6926,N,07729.1919,W,40.04,83.23,120821,,,D*78
$GPGGA,235546.250,4307.6930,N,07729.1882,W,2,08,0.94,83.6,M,-34.4,M,0000,0000*6B
$GPRMC,235546.500,A,4307.6933,N,07729.1845,W,39.23,83.04,120821,,,D*7F
$GPGGA,235546.750,4307.6936,N,07729.1809,W,2,08,0.94,83.9,M,-34.4,M,0000,0000*64
$GPRMC,235547.000,A,4307.6939,N,07729.1774,W,38.60,82.98,120821,,,D*7E
$GPGGA,235547.250,4307.6942,N,07729.1738,W,2,08,0.94,84.3,M,-34.4,M,0000,0000*63
$GPRMC,235547.500,A,4307.6945,N,07729.1703,W,38.24,83.04,120821,,,D*74
$GPGGA,235547.750,4307.6948,N,07729.1668,W,2,08,0.94,84.7,M,-34.4,M,0000,0000*6C
$GPRMC,235548.000,A,4307.6950,N,07729.1633,W,37.64,83.29,120821,,,D*7C
$GPGGA,235548.250,4307.6953,N,07729.1599,W,2,08,0.94,85.2,M,-34.4,M,0000,0000*65
$GPRMC,235548.500,A,4307.6955,N,07729.1566,W,36.83,83.76,120821,,,D*7D
$GPGGA,235548.750,4307.6957,N,07729.1532,W,2,08,0.94,85.6,M,-34.4,M,0000,0000*61
$GPRMC,235549.000,A,4307.6959,N,07729.1500,W,36.21,83.92,120821,,,D*77
$GPGGA,235549.250,4307.6961,N,07729.1467,W,2,08,0.94,86.1,M,-34.4,M,0000,0000*65
$GPRMC,235549.500,A,4307.6964,N,07729.1435,W,35.50,83.38,120821,,,D*7E
$GPGGA,235549.750,4307.6966,N,07729.1403,W,2,08,0.94,86.5,M,-34.4,M,0000,0000*61
$GPRMC,235550.000,A,4307.6968,N,07729.1370,W,35.29,83.56,120821,,,D*7F
$GPGGA,235550.250,4307.6969,N,07729.1339,W,2,08,0.94,87.0,M,-34.4,M,0000,0000*69
$GPRMC,235550.500,A,4307.6971,N,07729.1308,W,35.25,83.23,120821,,,D*73
$GPGGA,235550.750,4307.6974,N,07729.1278,W,2,08,0.94,87.6,M,-34.4,M,0000,0000*62
$GPRMC,235551.000,A,4307.6977,N,07729.1247,W,34.90,82.52,120821,,,D*73
$GPGGA,235551.250,4307.6979,N,07729.1216,W,2,08,0.94,88.2,M,-34.4,M,0000,0000*68
$GPRMC,235551.500,A,4307.6980,N,07729.1186,W,34.57,82.70,120821,,,D*7B
$GPGGA,235551.750,4307.6981,N,07729.1156,W,2,08,0.94,88.9,M,-34.4,M,0000,0000*66
$GPRMC,235552.000,A,4307.6983,N,07729.1125,W,34.36,83.22,120821,,,D*76
$GPGGA,235552.250,4307.6985,N,07729.1093,W,2,08,0.94,89.6,M,-34.4,M,0000,0000*62
$GPRMC,235552.500,A,4307.6986,N,07729.1063,W,34.31,83.16,120821,,,D*75
$GPGGA,235552.750,4307.6988,N,07729.1031,W,2,08,0.94,90.3,M,-34.4,M,0000,0000*6F
$GPRMC,235553.000,A,4307.6990,N,07729.1000,W,34.00,83.20,120821,,,D*74
$GPGGA,235553.250,4307.6991,N,07729.0969,W,2,08,0.94,90.9,M,-34.4,M,0000,0000*6C
$GPRMC,235553.500,A,4307.6993,N,07729.0938,W,33.94,83.00,120821,,,D*79
$GPGGA,235553.750,4307.6995,N,07729.0907,W,2,08,0.94,91.2,M,-34.4,M,0000,0000*6F
$GPRMC,235554.000,A,4307.6997,N,07729.0876,W,33.92,82.65,120821,,,D*70
$GPGGA,235554.250,4307.6999,N,07729.0846,W,2,08,0.94,91.5,M,-34.4,M,0000,0000*62
$GPRMC,235554.500,A,4307.7002,N,07729.0815,W,33.85,81.43,120821,,,D*75
$GPGGA,235554.750,4307.7005,N,07729.0785,W,2,08,0.94,91.8,M,-34.4,M,0000,0000*67
$GPRMC,235555.000,A,4307.7008,N,07729.0754,W,33.75,80.71,120821,,,D*7E
$GPGGA,235555.250,4307.7011,N,07729.0723,W,2,08,0.94,92.2,M,-34.4,M,0000,0000*63
$GPRMC,235555.500,A,4307.7014,N,07729.0692,W,33.64,80.33,120821,,,D*7B
$GPGGA,235555.750,4307.7018,N,07729.0662,W,2,08,0.94,92.9,M,-34.4,M,0000,0000*60
$GPRMC,235556.000,A,4307.7021,N,07729.0631,W,33.12,80.40,120821,,,D*77
$GPGGA,235556.250,4307.7025,N,07729.0601,W,2,08,0.94,93.4,M,-34.4,M,0000,0000*61
$GPRMC,235556.500,A,4307.7028,N,07729.0570,W,32.85,80.19,120821,,,D*7E
$GPGGA,235556.750,4307.7031,N,07729.0540,W,2,08,0.94,94.0,M,-34.4,M,0000,0000*64
$GPRMC,235557.000,A,4307.7034,N,07729.0510,W,32.65,80.58,120821,,,D*7A
$GPGGA,235557.250,4307.7037,N,07729.0479,W,2,08,0.94,94.4,M,-34.4,M,0000,0000*69
$GPRMC,235557.500,A,4307.7041,N,07729.0449,W,32.33,80.72,120821,,,D*7B
$GPGGA,235557.750,4307.7044,N,07729.0419,W,2,08,0.94,94.9,M,-34.4,M,0000,0000*63
$GPRMC,235558.000,A,4307.7047,N,07729.0389,W,32.10,80.44,120821,,,D*78
$GPGGA,235558.250,4307.7051,N,07729.0360,W,2,08,0.94,95.4,M,-34.4,M,0000,0000*68
$GPRMC,235558.500,A,4307.7054,N,07729.0330,W,32.13,80.21,120821,,,D*7D
$GPGGA,235558.750,4307.7058,N,07729.0300,W,2,08,0.94,95.9,M,-34.4,M,0000,0000*6F
$GPRMC,235559.000,A,4307.7061,N,07729.0269,W,32.20,80.36,120821,,,D*74
$GPGGA,235559.250,4307.7064,N,07729.0239,W,2,08,0.94,96.4,M,-34.4,M,0000,0000*61
$GPRMC,235559.500,A,4307.7067,N,07729.0208,W,32.28,81.32,120821,,,D*7D
$GPGGA,235559.750,4307.7071,N,07729.0177,W,2,08,0.94,96.9,M,-34.4,M,0000,0000*64
$GPRMC,235600.000,A,4307.7074,N,07729.0147,W,32.07,80.84,120821,,,D*7C
$GPGGA,235600.250,4307.7078,N,07729.0117,W,2,08,0.94,97.4,M,-34.4,M,0000,0000*6D
$GPRMC,235600.500,A,4307.7081,N,07729.0087,W,31.73,80.80,120821,,,D*7A
$GPGGA,235600.750,4307.7084,N,07729.0057,W,2,08,0.94,97.8,M,-34.4,M,0000,0000*62
$GPRMC,235601.000,A,4307.7088,N,07729.0026,W,31.78,80.58,120821,,,D*72
$GPGGA,235601.250,4307.7091,N,07728.9996,W,2,08,0.94,98.3,M,-34.4,M,0000,0000*6A
$GPRMC,235601.500,A,4307.7094,N,07728.9966,W,31.81,80.76,120821,,,D*75
$GPGGA,235601.750,4307.7098,N,07728.9936,W,2,08,0.94,98.8,M,-34.4,M,0000,0000*67
$GPRMC,235602.000,A,4307.7102,N,07728.9906,W,31.77,80.43,120821,,,D*74
$GPGGA,235602.250,4307.7105,N,07728.9876,W,2,08,0.94,99.2,M,-34.4,M,0000,0000*6A
$GPRMC,235602.500,A,4307.7110,N,07728.9847,W,31.68,79.71,120821,,,D*7F
$GPGGA,235602.750,4307.7114,N,07728.9818,W,2,08,0.94,99.5,M,-34.4,M,0000,0000*60
$GPRMC,235603.000,A,4307.7118,N,07728.9789,W,31.61,79.33,120821,,,D*71
$GPGGA,235603.250,4307.7122,N,07728.9760,W,2,08,0.94,99.6,M,-34.4,M,0000,0000*62
$GPRMC,235603.500,A,4307.7127,N,07728.9731,W,31.55,78.62,120821,,,D*79
$GPGGA,235603.750,4307.7131,N,07728.9702,W,2,08,0.94,99.8,M,-34.4,M,0000,0000*6F
$GPRMC,235604.000,A,4307.7135,N,07728.9673,W,31.52,78.82,120821,,,D*76
$GPGGA,235604.250,4307.7139,N,07728.9644,W,2,08,0.94,100.3,M,-34.4,M,0000,0000*5C
$GPRMC,235604.500,A,4307.7144,N,07728.9614,W,31.71,78.84,120821,,,D*73
$GPGGA,235604.750,4307.7148,N,07728.9585,W,2,08,0.94,100.9,M,-34.4,M,0000,0000*5B
$GPRMC,235605.000,A,4307.7152,N,07728.9556,W,31.65,78.78,120821,,,D*73
$GPGGA,235605.250,4307.7157,N,07728.9527,W,2,08,0.94,101.4,M,-34.4,M,0000,0000*55
$GPRMC,235605.500,A,4307.7160,N,07728.9498,W,31.50,79.25,120821,,,D*7B
$GPGGA,235605.750,4307.7164,N,07728.9468,W,2,08,0.94,102.1,M,-34.4,M,0000,0000*5C
$GPRMC,235606.000,A,4307.7168,N,07728.9439,W,31.68,79.55,120821,,,D*72
$GPGGA,235606.250,4307.7173,N,07728.9409,W,2,08,0.94,102.8,M,-34.4,M,0000,0000*52
$GPRMC,235606.500,A,4307.7176,N,07728.9380,W,31.44,79.60,120821,,,D*75
$GPGGA,235606.750,4307.7181,N,07728.9350,W,2,08,0.94,103.3,M,-34.4,M,0000,0000*5B
$GPRMC,235607.000,A,4307.7185,N,07728.9321,W,31.52,79.51,120821,,,D*73
$GPGGA,235607.250,4307.7189,N,07728.9291,W,2,08,0.94,103.8,M,-34.4,M,0000,0000*50
$GPRMC,235607.500,A,4307.7193,N,07728.9261,W,31.88,79.70,120821,,,D*70
$GPGGA,235607.750,4307.7197,N,07728.9231,W,2,08,0.94,104.2,M,-34.4,M,0000,0000*5D
$GPRMC,235608.000,A,4307.7201,N,07728.9201,W,31.94,79.68,120821,,,D*70
$GPGGA,235608.250,4307.7205,N,07728.9171,W,2,08,0.94,104.6,M,-34.4,M,0000,0000*5C
$GPRMC,235608.500,A,4307.7208,N,07728.9142,W,31.76,79.98,120821,,,D*7B
$GPGGA,235608.750,4307.7212,N,07728.9112,W,2,08,0.94,104.9,M,-34.4,M,0000,0000*55
$GPRMC,235609.000,A,4307.7216,N,07728.9083,W,31.71,80.13,120821,,,D*7E
$GPGGA,235609.250,4307.7220,N,07728.9053,W,2,08,0.94,105.2,M,-34.4,M,0000,0000*5E
$GPRMC,235609.500,A,4307.7224,N,07728.9024,W,31.64,79.85,120821,,,D*7A
$GPGGA,235609.750,4307.7227,N,07728.8994,W,2,08,0.94,105.5,M,-34.4,M,0000,0000*58
$GPRMC,235610.000,A,4307.7231,N,07728.8965,W,31.59,80.33,120821,,,D*7B
$GPGGA,235610.250,4307.7234,N,07728.8936,W,2,08,0.94,105.6,M,-34.4,M,0000,0000*5C
$GPRMC,235610.500,A,4307.7237,N,07728.8907,W,31.00,80.88,120821,,,D*70
$GPGGA,235610.750,4307.7240,N,07728.8878,W,2,08,0.94,105.9,M,-34.4,M,0000,0000*5E
$GPRMC,235611.000,A,4307.7243,N,07728.8850,W,30.59,81.26,120821,,,D*7C
$GPGGA,235611.250,4307.7246,N,07728.8822,W,2,08,0.94,106.1,M,-34.4,M,0000,0000*58
$GPRMC,235611.500,A,4307.7250,N,07728.8793,W,30.63,81.40,120821,,,D*72
$GPGGA,235611.750,4307.7253,N,07728.8764,W,2,08,0.94,106.2,M,-34.4,M,0000,0000*57
$GPRMC,235612.000,A,4307.7257,N,07728.8736,W,30.87,80.87,120821,,,D*7C
$GPGGA,235612.250,4307.7261,N,07728.8707,W,2,08,0.94,106.4,M,-34.4,M,0000,0000*53
$GPRMC,235612.500,A,4307.7265,N,07728.8680,W,30.73,80.33,120821,,,D*70
$GPGGA,235612.750,4307.7268,N,07728.8652,W,2,08,0.94,106.6,M,-34.4,M,0000,0000*5C
$GPRMC,235613.000,A,4307.7271,N,07728.8624,W,30.73,79.78,120821,,,D*76
$GPGGA,235613.250,4307.7274,N,07728.8597,W,2,07,1.37,106.9,M,-34.4,M,0000,0000*57
$GPRMC,235613.500,A,4307.7277,N,07728.8569,W,30.67,80.33,120821,,,D*73
$GPGGA,235613.750,4307.7279,N,07728.8542,W,2,08,0.94,107.3,M,-34.4,M,0000,0000*5B
$GPRMC,235614.000,A,4307.7282,N,07728.8514,W,30.41,80.94,120821,,,D*78
$GPGGA,235614.250,4307.7286,N,07728.8486,W,2,08,0.94,107.8,M,-34.4,M,0000,0000*5B
$GPRMC,235614.500,A,4307.7290,N,07728.8458,W,30.41,80.86,120821,,,D*74
$GPGGA,235614.750,4307.7293,N,07728.8430,W,2,08,0.94,108.5,M,-34.4,M,0000,0000*55
$GPRMC,235615.000,A,4307.7297,N,07728.8402,W,30.14,80.14,120821,,,D*73
$GPGGA,235615.250,4307.7301,N,07728.8374,W,2,08,0.94,109.2,M,-34.4,M,0000,0000*5A
$GPRMC,235615.500,A,4307.7305,N,07728.8345,W,30.35,80.02,120821,,,D*7C
$GPGGA,235615.750,4307.7309,N,07728.8317,W,2,08,0.94,109.9,M,-34.4,M,0000,0000*59
$GPRMC,235616.000,A,4307.7312,N,07728.8289,W,30.28,80.15,120821,,,D*77
$GPGGA,235616.250,4307.7315,N,07728.8261,W,2,08,0.94,110.5,M,-34.4,M,0000,0000*56
$GPRMC,235616.500,A,4307.7318,N,07728.8232,W,30.12,80.88,120821,,,D*75
$GPGGA,235616.750,4307.7321,N,07728.8204,W,2,08,0.94,110.9,M,-34.4,M,0000,0000*5B
$GPRMC,235617.000,A,4307.7325,N,07728.8176,W,30.09,81.27,120821,,,D*72
$GPGGA,235617.250,4307.7328,N,07728.8148,W,2,07,1.37,111.3,M,-34.4,M,0000,0000*51
$GPRMC,235617.500,A,4307.7332,N,07728.8121,W,29.92,81.32,120821,,,D*7D
$GPGGA,235617.750,4307.7336,N,07728.8093,W,2,07,1.37,111.7,M,-34.4,M,0000,0000*58
$GPRMC,235618.000,A,4307.7339,N,07728.8066,W,29.79,80.83,120821,,,D*70
$GPGGA,235618.250,4307.7344,N,07728.8038,W,2,08,0.94,112.2,M,-34.4,M,0000,0000*57
$GPRMC,235618.500,A,4307.7348,N,07728.8011,W,29.71,79.81,120821,,,D*7F
$GPGGA,235618.750,4307.7352,N,07728.7983,W,2,08,0.94,112.5,M,-34.4,M,0000,0000*54
$GPRMC,235619.000,A,4307.7357,N,07728.7956,W,29.55,79.34,120821,,,D*78
$GPGGA,235619.250,4307.7361,N,07728.7928,W,2,08,0.94,112.9,M,-34.4,M,0000,0000*5D
$GPRMC,235619.500,A,4307.7366,N,07728.7901,W,29.49,78.95,120821,,,D*7A
$GPGGA,235619.750,4307.7370,N,07728.7874,W,2,08,0.94,113.4,M,-34.4,M,0000,0000*5C
$GPRMC,235620.000,A,4307.7374,N,07728.7847,W,29.53,78.44,120821,,,D*72
$GPGGA,235620.250,4307.7378,N,07728.7820,W,2,08,0.94,113.9,M,-34.4,M,0000,0000*57
$GPRMC,235620.500,A,4307.7382,N,07728.7793,W,29.30,78.31,120821,,,D*7F
$GPGGA,235620.750,4307.7385,N,07728.7766,W,2,08,0.94,114.4,M,-34.4,M,0000,0000*57
$GPRMC,235621.000,A,4307.7389,N,07728.7740,W,29.10,78.33,120821,,,D*7E
$GPGGA,235621.250,4307.7394,N,07728.7713,W,2,08,0.94,115.1,M,-34.4,M,0000,0000*55
$GPRMC,235621.500,A,4307.7399,N,07728.7686,W,28.98,78.20,120821,,,D*72
$GPGGA,235621.750,4307.7403,N,07728.7660,W,2,08,0.94,116.0,M,-34.4,M,0000,0000*5E
$GPRMC,235622.000,A,4307.7408,N,07728.7635,W,28.10,77.27,120821,,,D*7B
$GPGGA,235622.250,4307.7413,N,07728.7608,W,2,08,0.94,116.7,M,-34.4,M,0000,0000*50
$GPRMC,235622.500,A,4307.7417,N,07728.7582,W,27.93,76.89,120821,,,D*7E
$GPGGA,235622.750,4307.7423,N,07728.7556,W,2,08,0.94,117.3,M,-34.4,M,0000,0000*5B
$GPRMC,235623.000,A,4307.7428,N,07728.7529,W,28.11,75.30,120821,,,D*73
$GPGGA,235623.250,4307.7435,N,07728.7503,W,2,08,0.94,118.3,M,-34.4,M,0000,0000*57
$GPRMC,235623.500,A,4307.7440,N,07728.7478,W,27.84,73.18,120821,,,D*72
$GPGGA,235623.750,4307.7446,N,07728.7453,W,2,08,0.94,118.9,M,-34.4,M,0000,0000*58
$GPRMC,235624.000,A,4307.7452,N,07728.7430,W,27.21,72.01,120821,,,D*79
$GPGGA,235624.250,4307.7458,N,07728.7406,W,2,08,0.94,119.5,M,-34.4,M,0000,0000*58
$GPRMC,235624.500,A,4307.7464,N,07728.7382,W,27.19,70.97,120821,,,D*71
$GPGGA,235624.750,4307.7470,N,07728.7358,W,2,08,0.94,120.0,M,-34.4,M,0000,0000*54
$GPRMC,235625.000,A,4307.7477,N,07728.7334,W,27.02,70.61,120821,,,D*79
$GPGGA,235625.250,4307.7484,N,07728.7310,W,2,08,0.94,120.5,M,-34.4,M,0000,0000*52
$GPRMC,235625.500,A,4307.7490,N,07728.7285,W,27.11,69.91,120821,,,D*7B
$GPGGA,235625.750,4307.7498,N,07728.7260,W,2,08,0.94,121.3,M,-34.4,M,0000,0000*5B
$GPRMC,235626.000,A,4307.7505,N,07728.7235,W,28.09,69.41,120821,,,D*70
$GPGGA,235626.250,4307.7512,N,07728.7209,W,2,08,0.94,121.8,M,-34.4,M,0000,0000*5A
$GPRMC,235626.500,A,4307.7520,N,07728.7184,W,28.20,69.08,120821,,,D*7D
$GPGGA,235626.750,4307.7527,N,07728.7159,W,2,08,0.94,122.1,M,-34.4,M,0000,0000*55
$GPRMC,235627.000,A,4307.7534,N,07728.7134,W,28.42,68.64,120821,,,D*78
$GPGGA,235627.250,4307.7541,N,07728.7109,W,2,08,0.94,122.3,M,-34.4,M,0000,0000*56
$GPRMC,235627.500,A,4307.7549,N,07728.7084,W,28.62,68.70,120821,,,D*7A
$GPGGA,235627.750,4307.7556,N,07728.7060,W,2,08,0.94,122.2,M,-34.4,M,0000,0000*5A
$GPRMC,235628.000,A,4307.7563,N,07728.7035,W,28.46,69.00,120821,,,D*72
$GPGGA,235628.250,4307.7570,N,07728.7010,W,2,08,0.94,122.1,M,-34.4,M,0000,0000*50
$GPRMC,235628.500,A,4307.7577,N,07728.6985,W,28.63,68.74,120821,,,D*74
$GPGGA,235628.750,4307.7585,N,07728.6960,W,2,08,0.94,121.9,M,-34.4,M,0000,0000*5B
$GPRMC,235629.000,A,4307.7592,N,07728.6934,W,28.67,68.32,120821,,,D*77
$GPGGA,235629.250,4307.7600,N,07728.6909,W,2,08,0.94,121.9,M,-34.4,M,0000,0000*5E
$GPRMC,235629.500,A,4307.7607,N,07728.6884,W,28.75,69.35,120821,,,D*72
$GPGGA,235629.750,4307.7614,N,07728.6858,W,2,08,0.94,121.8,M,-34.4,M,0000,0000*5A
$GPRMC,235630.000,A,4307.7621,N,07728.6832,W,28.99,69.90,120821,,,D*7B
$GPGGA,235630.250,4307.7628,N,07728.6807,W,2,08,0.94,121.6,M,-34.4,M,0000,0000*5C
$GPRMC,235630.500,A,4307.7635,N,07728.6781,W,29.26,69.74,120821,,,D*73
$GPGGA,235630.750,4307.7642,N,07728.6756,W,2,08,0.94,121.3,M,-34.4,M,0000,0000*5B
$GPRMC,235631.000,A,4307.7650,N,07728.6730,W,29.49,69.67,120821,,,D*75
$GPGGA,235631.250,4307.7657,N,07728.6704,W,2,08,0.94,120.9,M,-34.4,M,0000,0000*57
$GPRMC,235631.500,A,4307.7664,N,07728.6678,W,29.90,69.58,120821,,,D*72
$GPGGA,235631.750,4307.7671,N,07728.6651,W,2,08,0.94,120.5,M,-34.4,M,0000,0000*5B
$GPRMC,235632.000,A,4307.7678,N,07728.6625,W,30.13,69.92,120821,,,D*74
$GPGGA,235632.250,4307.7685,N,07728.6598,W,2,08,0.94,120.2,M,-34.4,M,0000,0000*57
$GPRMC,235632.500,A,4307.7692,N,07728.6571,W,30.40,70.23,120821,,,D*73
$GPGGA,235632.750,4307.7700,N,07728.6544,W,2,08,0.94,120.0,M,-34.4,M,0000,0000*5D
$GPRMC,235633.000,A,4307.7707,N,07728.6517,W,30.68,69.71,120821,,,D*7F
$GPGGA,235633.250,4307.7714,N,07728.6489,W,2,08,0.94,119.9,M,-34.4,M,0000,0000*5F
$GPRMC,235633.500,A,4307.7722,N,07728.6462,W,31.11,68.49,120821,,,D*7B
$GPGGA,235633.750,4307.7730,N,07728.6434,W,2,08,0.94,119.7,M,-34.4,M,0000,0000*54
$GPRMC,235634.000,A,4307.7738,N,07728.6407,W,31.34,68.20,120821,,,D*79
$GPGGA,235634.250,4307.7746,N,07728.6379,W,2,08,0.94,119.5,M,-34.4,M,0000,0000*5B
$GPRMC,235634.500,A,4307.7754,N,07728.6351,W,31.62,68.22,120821,,,D*73
$GPGGA,235634.750,4307.7763,N,07728.6323,W,2,08,0.94,119.4,M,-34.4,M,0000,0000*57
$GPRMC,235635.000,A,4307.7771,N,07728.6295,W,31.84,68.27,120821,,,D*74
$GPGGA,235635.250,4307.7780,N,07728.6267,W,2,08,0.94,119.2,M,-34.4,M,0000,0000*59
$GPRMC,235635.500,A,4307.7788,N,07728.6238,W,32.30,68.53,120821,,,D*7F
$GPGGA,235635.750,4307.7796,N,07728.6210,W,2,08,0.94,119.0,M,-34.4,M,0000,0000*59
$GPRMC,235636.000,A,4307.7804,N,07728.6181,W,32.58,69.15,120821,,,D*7E
$GPGGA,235636.250,4307.7813,N,07728.6153,W,2,08,0.94,119.0,M,-34.4,M,0000,0000*59
$GPRMC,235636.500,A,4307.7821,N,07728.6124,W,32.61,69.14,120821,,,D*78
$GPGGA,235636.750,4307.7830,N,07728.6095,W,2,08,0.94,118.9,M,-34.4,M,0000,0000*5E
$GPRMC,235637.000,A,4307.7838,N,07728.6066,W,32.79,68.45,120821,,,D*7F
$GPGGA,235637.250,4307.7847,N,07728.6038,W,2,08,0.94,118.8,M,-34.4,M,0000,0000*5C
$GPRMC,235637.500,A,4307.7855,N,07728.6008,W,33.03,68.25,120821,,,D*73
$GPGGA,235637.750,4307.7863,N,07728.5979,W,2,08,0.94,118.7,M,-34.4,M,0000,0000*5F
$GPRMC,235638.000,A,4307.7872,N,07728.5949,W,33.52,68.35,120821,,,D*76
$GPGGA,235638.250,4307.7881,N,07728.5919,W,2,08,0.94,118.9,M,-34.4,M,0000,0000*51
$GPRMC,235638.500,A,4307.7890,N,07728.5889,W,33.51,68.15,120821,,,D*73
$GPGGA,235638.750,4307.7898,N,07728.5859,W,2,08,0.94,119.0,M,-34.4,M,0000,0000*51
$GPRMC,235639.000,A,4307.7907,N,07728.5830,W,33.53,68.07,120821,,,D*7B
$GPGGA,235639.250,4307.7916,N,07728.5800,W,2,08,0.94,119.0,M,-34.4,M,0000,0000*5E
$GPRMC,235639.500,A,4307.7924,N,07728.5770,W,33.60,68.47,120821,,,D*70
$GPGGA,235639.750,4307.7933,N,07728.5740,W,2,08,0.94,119.0,M,-34.4,M,0000,0000*57
$GPRMC,235640.000,A,4307.7942,N,07728.5710,W,33.83,68.49,120821,,,D*7E
$GPGGA,235640.250,4307.7950,N,07728.5680,W,2,08,0.94,119.2,M,-34.4,M,0000,0000*56
$GPRMC,235640.500,A,4307.7959,N,07728.5650,W,33.73,68.33,120821,,,D*76
$GPGGA,235640.750,4307.7968,N,07728.5620,W,2,08,0.94,119.4,M,-34.4,M,0000,0000*54
$GPRMC,235641.000,A,4307.7976,N,07728.5591,W,33.69,68.65,120821,,,D*79
$GPGGA,235641.250,4307.7985,N,07728.5561,W,2,08,0.94,119.7,M,-34.4,M,0000,0000*56
$GPRMC,235641.500,A,4307.7994,N,07728.5531,W,33.69,68.48,120821,,,D*75
$GPGGA,235641.750,4307.8003,N,07728.5502,W,2,08,0.94,120.0,M,-34.4,M,0000,0000*53
$GPRMC,235642.000,A,4307.8012,N,07728.5472,W,33.67,68.25,120821,,,D*78
$GPGGA,235642.250,4307.8020,N,07728.5442,W,2,08,0.94,120.3,M,-34.4,M,0000,0000*52
$GPRMC,235642.500,A,4307.8029,N,07728.5413,W,33.44,68.55,120821,,,D*74
$GPGGA,235642.750,4307.8037,N,07728.5384,W,2,08,0.94,120.4,M,-34.4,M,0000,0000*5B
$GPRMC,235643.000,A,4307.8046,N,07728.5355,W,33.17,68.43,120821,,,D*7D
$GPGGA,235643.250,4307.8055,N,07728.5326,W,2,08,0.94,120.5,M,-34.4,M,0000,0000*52
$GPRMC,235643.500,A,4307.8063,N,07728.5297,W,32.72,68.68,120821,,,D*7B
$GPGGA,235643.750,4307.8071,N,07728.5268,W,2,08,0.94,120.5,M,-34.4,M,0000,0000*5A
$GPRMC,235644.000,A,4307.8080,N,07728.5240,W,32.49,68.82,120821,,,D*72
$GPGGA,235644.250,4307.8088,N,07728.5211,W,2,08,0.94,120.6,M,-34.4,M,0000,0000*53
$GPRMC,235644.500,A,4307.8096,N,07728.5183,W,32.19,68.49,120821,,,D*7E
$GPGGA,235644.750,4307.8104,N,07728.5155,W,2,07,1.37,120.7,M,-34.4,M,0000,0000*56
$GPRMC,235645.000,A,4307.8113,N,07728.5127,W,31.92,68.33,120821,,,D*75
$GPGGA,235645.250,4307.8121,N,07728.5099,W,2,08,0.94,120.8,M,-34.4,M,0000,0000*5C
$GPRMC,235645.500,A,4307.8129,N,07728.5071,W,31.88,67.95,120821,,,D*73
$GPGGA,235645.750,4307.8138,N,07728.5043,W,2,08,0.94,120.9,M,-34.4,M,0000,0000*57
$GPRMC,235646.000,A,4307.8146,N,07728.5015,W,31.88,67.45,120821,,,D*73
$GPGGA,235646.250,4307.8155,N,07728.4987,W,2,08,0.94,121.0,M,-34.4,M,0000,0000*52
$GPRMC,235646.500,A,4307.8164,N,07728.4960,W,31.85,66.32,120821,,,D*70
$GPGGA,235646.750,4307.8173,N,07728.4932,W,2,08,0.94,121.3,M,-34.4,M,0000,0000*5E
$GPRMC,235647.000,A,4307.8183,N,07728.4905,W,31.85,66.20,120821,,,D*7D
$GPGGA,235647.250,4307.8192,N,07728.4877,W,2,08,0.94,121.3,M,-34.4,M,0000,0000*55
$GPRMC,235647.500,A,4307.8201,N,07728.4850,W,31.80,65.74,120821,,,D*77
$GPGGA,235647.750,4307.8211,N,07728.4823,W,2,08,0.94,121.4,M,-34.4,M,0000,0000*5E
$GPRMC,235648.000,A,4307.8220,N,07728.4796,W,31.80,65.13,120821,,,D*7A
$GPGGA,235648.250,4307.8230,N,07728.4769,W,2,08,0.94,121.6,M,-34.4,M,0000,0000*54
$GPRMC,235648.500,A,4307.8239,N,07728.4743,W,31.57,65.14,120821,,,D*72
$GPGGA,235648.750,4307.8249,N,07728.4716,W,2,08,0.94,121.9,M,-34.4,M,0000,0000*58
$GPRMC,235649.000,A,4307.8259,N,07728.4690,W,31.48,64.55,120821,,,D*75
$GPGGA,235649.250,4307.8268,N,07728.4663,W,2,08,0.94,122.0,M,-34.4,M,0000,0000*56
$GPRMC,235649.500,A,4307.8278,N,07728.4637,W,31.42,64.60,120821,,,D*72
$GPGGA,235649.750,4307.8288,N,07728.4610,W,2,08,0.94,122.2,M,-34.4,M,0000,0000*5B
$GPRMC,235650.000,A,4307.8297,N,07728.4584,W,31.36,65.01,120821,,,D*70
$GPGGA,235650.250,4307.8306,N,07728.4557,W,2,08,0.94,122.4,M,-34.4,M,0000,0000*57
$GPRMC,235650.500,A,4307.8315,N,07728.4530,W,31.14,65.68,120821,,,D*7E
$GPGGA,235650.750,4307.8325,N,07728.4504,W,2,08,0.94,122.5,M,-34.4,M,0000,0000*54
$GPRMC,235651.000,A,4307.8334,N,07728.4478,W,30.96,65.40,120821,,,D*75
$GPGGA,235651.250,4307.8343,N,07728.4452,W,2,08,0.94,122.7,M,-34.4,M,0000,0000*50
$GPRMC,235651.500,A,4307.8352,N,07728.4425,W,31.00,65.44,120821,,,D*72
$GPGGA,235651.750,4307.8361,N,07728.4399,W,2,08,0.94,123.0,M,-34.4,M,0000,0000*53
$GPRMC,235652.000,A,4307.8370,N,07728.4372,W,30.95,66.10,120821,,,D*7E
$GPGGA,235652.250,4307.8379,N,07728.4346,W,2,08,0.94,123.0,M,-34.4,M,0000,0000*5E
$GPRMC,235652.500,A,4307.8388,N,07728.4319,W,30.96,66.07,120821,,,D*74
$GPGGA,235652.750,4307.8397,N,07728.4292,W,2,08,0.94,123.2,M,-34.4,M,0000,0000*51
$GPRMC,235653.000,A,4307.8406,N,07728.4266,W,30.97,66.25,120821,,,D*79
$GPGGA,235653.250,4307.8415,N,07728.4239,W,2,08,0.94,123.4,M,-34.4,M,0000,0000*5F
$GPRMC,235653.500,A,4307.8424,N,07728.4212,W,31.08,66.20,120821,,,D*7D
$GPGGA,235653.750,4307.8432,N,07728.4185,W,2,08,0.94,123.6,M,-34.4,M,0000,0000*59
$GPRMC,235654.000,A,4307.8441,N,07728.4158,W,31.28,66.09,120821,,,D*78
$GPGGA,235654.250,4307.8450,N,07728.4131,W,2,08,0.94,123.7,M,-34.4,M,0000,0000*51
$GPRMC,235654.500,A,4307.8459,N,07728.4104,W,31.25,65.56,120821,,,D*79
$GPGGA,235654.750,4307.8469,N,07728.4078,W,2,08,0.94,123.8,M,-34.4,M,0000,0000*5D
