Vers 81
USE_SERIAL_FEEDBACK=true
DEVELOPMENT_MODE=false
USE_RMC_ONLY=false

$GPGGA,155057.250,4308.4492,N,07726.4126,W,1,04,3.86,184.1,M,-34.4,M,,*50
$GPRMC,155057.250,A,4308.4492,N,07726.4126,W,0.20,186.60,050721,,,A*73
$GPGGA,155057.500,4308.4493,N,07726.4126,W,1,04,3.86,184.0,M,-34.4,M,,*52
$GPRMC,155057.500,A,4308.4493,N,07726.4126,W,0.10,225.98,050721,,,A*7E
$GPGGA,155057.750,4308.4495,N,07726.4127,W,1,04,3.86,183.9,M,-34.4,M,,*5C
$GPRMC,155057.750,A,4308.4495,N,07726.4127,W,0.17,308.91,050721,,A*7E
$GPGGA,155058.000,4308.4496,N,07726.4127,W,1,04,3.86,183.9,M,-34.4,M,,*52
$GPRMC,155058.000,A,4308.4496,N,07726.4127,W,0.23,325.37,050721$GPGGA,155058.250,4308.4496,N,07726.4126,W,1,04,3.86,183.8,M,-34.4,M,,*55
$GPRMC,155058.500,A,4308.4496,N,07726.4126,W,0.21,325.03,050721,,,A*75
$GPGGA,155058.750,4308.4496,N,07726.4126,W,1,04,3.86,183.7,M,-34.4,M,,*5F
$GPRMC,155059.000,A,4308.4497,N,07726.4125,W,0.25,331.52,050721,,,A*76
$GPGGA,155059.250,4308.4498,N,07726.4125,W,1,04,3.86,183.7,M,-34.4,M,,*56
$GPRMC,155059.500,A,4308.4500,N,07726.4125,W,0.38,352.81,050721,,,A*7B
$GPGGA,155059.750,4308.4502,N,07726.4125,W,1,04,5.11,183.7,M,-34.4,M,,*59
$GPRMC,155100.000,A,4308.4502,N,07726.4126,W,0.47,352.78,050721,,,A*7C
$GPGGA,155100.250,4308.4503,N,07726.4126,W,1,04,5.11,183.7,M,-34.4,M,,*53
$GPRMC,155100.500,A,4308.4504,N,07726.4127,W,0.51,347.65,050721,,,A*71
$GPGGA,155100.750,4308.4505,N,07726.4127,W,1,04,5.11,183.7,M,-34.4,M,,*51
$GPRMC,155101.000,A,4308.4505,N,07726.4126,W,0.47,352.97,050721,,,A*7B
$GPGGA,155101.250,4308.4505,N,07726.4126,W,1,04,5.11,183.8,M,-34.4,M,,*5B
$GPRMC,155101.500,A,4308.4505,N,07726.4126,W,0.46,353.60,050721,,,A*76
$GPGGA,155101.750,4308.4506,N,07726.4126,W,1,04,5.11,183.8,M,-34.4,M,,*5D
$GPRMC,155102.000,A,4308.4506,N,07726.4126,W,0.42,335.40,050721,,,A*75
$GPGGA,155102.250,4308.4511,N,07726.4128,W,1,05,3.63,183.5,M,-34.4,M,,*5C
$GPRMC,155102.500,A,4308.4517,N,07726.4130,W,0.48,325.12,050721,,,A*7B
$GPGGA,155102.750,4308.4521,N,07726.4131,W,1,05,3.63,182.9,M,-34.4,M,,*5F
$GPRMC,155103.000,A,4308.4525,N,07726.4132,W,0.48,327.14,050721,,,A*78
$GPGGA,155103.250,4308.4530,N,07726.4134,W,1,05,3.64,182.4,M,-34.4,M,,*54
$GPRMC,155103.500,A,4308.4534,N,07726.4135,W,0.52,332.68,050721,,,A*7E
$GPGGA,155103.750,4308.4537,N,07726.4136,W,1,05,3.64,181.9,M,-34.4,M,,*5A
$GPRMC,155104.000,A,4308.4540,N,07726.4137,W,0.49,335.58,050721,,,A*73
$GPGGA,155104.250,4308.4544,N,07726.4138,W,1,05,3.64,181.4,M,-34.4,M,,*5F
$GPRMC,155104.500,A,4308.4547,N,07726.4139,W,0.52,328.34,050721,,,A*73
$GPGGA,155104.750,4308.4550,N,07726.4141,W,1,05,3.64,181.0,M,-34.4,M,,*55
$GPRMC,155105.000,A,4308.4554,N,07726.4142,W,0.62,334.23,050721,,,A*71
$GPGGA,155105.250,4308.4556,N,07726.4143,W,1,05,3.64,180.7,M,-34.4,M,,*53
$GPRMC,155105.500,A,4308.4557,N,07726.4143,W,0.55,337.43,050721,,,A*77
$GPGGA,155105.750,4308.4558,N,07726.4142,W,1,05,3.64,180.4,M,-34.4,M,,*5A
$GPRMC,155106.000,A,4308.4560,N,07726.4143,W,0.46,342.74,050721,,,A*71
$GPGGA,155106.250,4308.4561,N,07726.4143,W,1,05,3.64,180.1,M,-34.4,M,,*52
$GPRMC,155106.500,A,4308.4562,N,07726.4143,W,0.42,349.36,050721,,,A*7F
$GPGGA,155106.750,4308.4562,N,07726.4143,W,1,05,4.08,179.9,M,-34.4,M,,*57
$GPRMC,155107.000,A,4308.4562,N,07726.4143,W,0.39,349.94,050721,,,A*7F
$GPGGA,155107.250,4308.4563,N,07726.4143,W,1,05,4.08,179.9,M,-34.4,M,,*52
$GPRMC,155107.500,A,4308.4563,N,07726.4143,W,0.41,344.12,050721,,,A*77
$GPGGA,155107.750,4308.4563,N,07726.4143,W,1,05,3.64,179.9,M,-34.4,M,,*5A
$GPRMC,155108.000,A,4308.4564,N,07726.4143,W,0.46,342.53,050721,,,A*7E
$GPGGA,155108.250,4308.4564,N,07726.4143,W,1,05,3.64,179.9,M,-34.4,M,,*57
$GPRMC,155108.500,A,4308.4564,N,07726.4144,W,0.47,346.84,050721,,,A*73
$GPGGA,155108.750,4308.4565,N,07726.4144,W,1,05,4.08,179.9,M,-34.4,M,,*59
$GPRMC,155109.000,A,4308.4565,N,07726.4144,W,0.42,329.69,050721,,,A*79
$GPGGA,155109.250,4308.4565,N,07726.4144,W,1,05,3.64,179.9,M,-34.4,M,,*50
$GPRMC,155109.500,A,4308.4566,N,07726.4144,W,0.59,287.71,050721,,,A*79
$GPGGA,155109.750,4308.4566,N,07726.4145,W,1,05,3.64,179.9,M,-34.4,M,,*57
$GPRMC,155110.000,A,4308.4566,N,07726.4146,W,1.02,266.81,050721,,,A*79
$GPGGA,155110.250,4308.4566,N,07726.4147,W,1,05,3.64,179.9,M,-34.4,M,,*58
$GPRMC,155110.500,A,4308.4565,N,07726.4148,W,2.37,246.99,050721,,,A*7F
$GPGGA,155110.750,4308.4566,N,07726.4152,W,1,05,3.64,179.8,M,-34.4,M,,*58
$GPRMC,155111.000,A,4308.4567,N,07726.4158,W,3.57,249.24,050721,,,A*76
$GPGGA,155111.250,4308.4569,N,07726.4163,W,1,05,3.64,179.6,M,-34.4,M,,*5F
$GPRMC,155111.500,A,4308.4570,N,07726.4169,W,4.89,254.32,050721,,,A*78
$GPGGA,155111.750,4308.4570,N,07726.4175,W,1,05,3.64,179.5,M,-34.4,M,,*56
$GPRMC,155112.000,A,4308.4572,N,07726.4183,W,6.14,258.99,050721,,,A*73
$GPGGA,155112.250,4308.4572,N,07726.4190,W,1,05,4.09,179.4,M,-34.4,M,,*54
$GPRMC,155112.500,A,4308.4573,N,07726.4197,W,7.00,260.88,050721,,,A*7D
$GPGGA,155112.750,4308.4573,N,07726.4206,W,1,05,4.09,179.4,M,-34.4,M,,*5C
$GPRMC,155113.000,A,4308.4575,N,07726.4215,W,8.02,267.14,050721,,,A*79
$GPGGA,155113.250,4308.4577,N,07726.4224,W,1,05,4.09,179.4,M,-34.4,M,,*5C
$GPRMC,155113.500,A,4308.4578,N,07726.4233,W,8.60,270.19,050721,,,A*7A
$GPGGA,155113.750,4308.4579,N,07726.4242,W,1,05,4.09,179.4,M,-34.4,M,,*57
$GPRMC,155114.000,A,4308.4581,N,07726.4251,W,8.66,273.42,050721,,,A*71
$GPGGA,155114.250,4308.4581,N,07726.4259,W,1,05,4.09,179.4,M,-34.4,M,,*58
$GPRMC,155114.500,A,4308.4583,N,07726.4267,W,8.40,275.22,050721,,,A*77
$GPGGA,155114.750,4308.4584,N,07726.4275,W,1,05,4.09,179.5,M,-34.4,M,,*57
$GPRMC,155115.000,A,4308.4586,N,07726.4284,W,8.49,279.78,050721,,,A*71
$GPGGA,155115.250,4308.4588,N,07726.4292,W,1,05,4.09,179.5,M,-34.4,M,,*56
$GPRMC,155115.500,A,4308.4590,N,07726.4300,W,8.28,282.30,050721,,,A*71
$GPGGA,155115.750,4308.4592,N,07726.4309,W,1,05,4.09,179.3,M,-34.4,M,,*5D
$GPRMC,155116.000,A,4308.4596,N,07726.4318,W,8.77,284.96,050721,,,A*78
$GPGGA,155116.250,4308.4598,N,07726.4328,W,1,05,4.09,179.2,M,-34.4,M,,*53
$GPRMC,155116.500,A,4308.4602,N,07726.4338,W,9.27,286.49,050721,,,A*75
$GPGGA,155116.750,4308.4605,N,07726.4348,W,1,05,4.09,179.1,M,-34.4,M,,*54
$GPRMC,155117.000,A,4308.4608,N,07726.4357,W,9.62,288.67,050721,,,A*71
$GPGGA,155117.250,4308.4610,N,07726.4366,W,1,05,4.09,179.0,M,-34.4,M,,*59
$GPRMC,155117.500,A,4308.4612,N,07726.4376,W,9.92,286.59,050721,,,A*70
$GPGGA,155117.750,4308.4614,N,07726.4386,W,1,05,3.65,179.0,M,-34.4,M,,*5B
$GPRMC,155118.000,A,4308.4616,N,07726.4396,W,10.52,281.21,050721,,,A*4C
$GPGGA,155118.250,4308.4617,N,07726.4407,W,1,05,3.65,178.9,M,-34.4,M,,*54
$GPRMC,155118.500,A,4308.4618,N,07726.4419,W,11.65,274.88,050721,,,A*4B
$GPGGA,155118.750,4308.4619,N,07726.4431,W,1,05,3.65,178.8,M,-34.4,M,,*5B
$GPRMC,155119.000,A,4308.4620,N,07726.4443,W,12.55,271.70,050721,,,A*49
$GPGGA,155119.250,4308.4621,N,07726.4456,W,1,05,3.65,178.8,M,-34.4,M,,*55
$GPRMC,155119.500,A,4308.4621,N,07726.4469,W,13.47,268.84,050721,,,A*44
$GPGGA,155119.750,4308.4621,N,07726.4483,W,1,05,3.66,178.7,M,-34.4,M,,*54
$GPRMC,155120.000,A,4308.4621,N,07726.4496,W,14.16,266.91,050721,,,A*42
$GPGGA,155120.250,4308.4621,N,07726.4510,W,1,05,3.66,178.7,M,-34.4,M,,*50
$GPRMC,155120.500,A,4308.4622,N,07726.4525,W,14.82,265.78,050721,,,A*44
$GPGGA,155120.750,4308.4623,N,07726.4540,W,1,05,3.66,178.7,M,-34.4,M,,*52
$GPRMC,155121.000,A,4308.4625,N,07726.4556,W,15.44,266.30,050721,,,A*47
$GPGGA,155121.250,4308.4628,N,07726.4574,W,1,05,3.66,178.7,M,-34.4,M,,*5A
$GPRMC,155121.500,A,4308.4631,N,07726.4592,W,16.25,268.38,050721,,,A*4D
$GPGGA,155121.750,4308.4634,N,07726.4609,W,1,05,3.66,178.7,M,-34.4,M,,*5B
$GPRMC,155122.000,A,4308.4637,N,07726.4627,W,16.65,269.73,050721,,,A*4A
$GPGGA,155122.250,4308.4639,N,07726.4645,W,1,05,3.66,178.8,M,-34.4,M,,*57
$GPRMC,155122.500,A,4308.4642,N,07726.4662,W,17.05,271.14,050721,,,A*43
$GPGGA,155122.750,4308.4645,N,07726.4680,W,1,05,3.66,178.8,M,-34.4,M,,*50
$GPRMC,155123.000,A,4308.4647,N,07726.4698,W,17.40,272.25,050721,,,A*47
$GPGGA,155123.250,4308.4650,N,07726.4716,W,1,05,3.66,178.9,M,-34.4,M,,*5F
$GPRMC,155123.500,A,4308.4654,N,07726.4735,W,17.97,273.63,050721,,,A*4F
$GPGGA,155123.750,4308.4656,N,07726.4753,W,1,05,3.66,178.9,M,-34.4,M,,*5D
$GPRMC,155124.000,A,4308.4659,N,07726.4772,W,18.48,274.25,050721,,,A*4B
$GPGGA,155124.250,4308.4661,N,07726.4790,W,1,05,3.66,179.0,M,-34.4,M,,*5C
$GPRMC,155124.500,A,4308.4664,N,07726.4809,W,18.90,274.29,050721,,,A*4A
$GPGGA,155124.750,4308.4666,N,07726.4828,W,1,05,3.66,179.1,M,-34.4,M,,*53
$GPRMC,155125.000,A,4308.4668,N,07726.4847,W,19.31,274.06,050721,,,A*4F
$GPGGA,155125.250,4308.4671,N,07726.4867,W,1,05,4.10,179.1,M,-34.4,M,,*5C
$GPRMC,155125.500,A,4308.4674,N,07726.4888,W,19.72,274.63,050721,,,A*40
$GPGGA,155125.750,4308.4678,N,07726.4908,W,1,05,3.66,179.0,M,-34.4,M,,*5F
$GPRMC,155126.000,A,4308.4682,N,07726.4929,W,20.06,275.68,050721,,,A*46
$GPGGA,155126.250,4308.4686,N,07726.4950,W,1,05,4.10,179.0,M,-34.4,M,,*53
$GPRMC,155126.500,A,4308.4689,N,07726.4971,W,20.54,275.81,050721,,,A*45
$GPGGA,155126.750,4308.4691,N,07726.4992,W,1,05,3.66,178.9,M,-34.4,M,,*50
$GPRMC,155127.000,A,4308.4695,N,07726.5013,W,21.03,275.32,050721,,,A*4B
$GPGGA,155127.250,4308.4698,N,07726.5035,W,1,05,4.10,178.8,M,-34.4,M,,*5F
$GPRMC,155127.500,A,4308.4700,N,07726.5056,W,21.29,275.11,050721,,,A*4B
$GPGGA,155127.750,4308.4702,N,07726.5077,W,1,05,3.66,178.7,M,-34.4,M,,*57
$GPRMC,155128.000,A,4308.4704,N,07726.5098,W,21.57,274.57,050721,,,A*4D
$GPGGA,155128.250,4308.4706,N,07726.5119,W,1,05,4.09,178.5,M,-34.4,M,,*5C
$GPRMC,155128.500,A,4308.4708,N,07726.5140,W,21.83,274.16,050721,,,A*4C
$GPGGA,155128.750,4308.4709,N,07726.5161,W,1,05,3.66,178.4,M,-34.4,M,,*56
$GPRMC,155129.000,A,4308.4711,N,07726.5183,W,22.15,273.52,050721,,,A*44
$GPGGA,155129.250,4308.4713,N,07726.5205,W,1,05,4.10,178.3,M,-34.4,M,,*59
$GPRMC,155129.500,A,4308.4715,N,07726.5227,W,22.71,273.09,050721,,,A*44
$GPGGA,155129.750,4308.4717,N,07726.5250,W,1,05,3.67,178.2,M,-34.4,M,,*5E
$GPRMC,155130.000,A,4308.4720,N,07726.5273,W,23.12,272.96,050721,,,A*4D
$GPGGA,155130.250,4308.4722,N,07726.5296,W,1,05,3.67,178.2,M,-34.4,M,,*5F
$GPRMC,155130.500,A,4308.4724,N,07726.5319,W,23.35,272.83,050721,,,A*40
$GPGGA,155130.750,4308.4726,N,07726.5342,W,1,05,3.67,178.2,M,-34.4,M,,*56
$GPRMC,155131.000,A,4308.4727,N,07726.5365,W,23.59,272.34,050721,,,A*4A
$GPGGA,155131.250,4308.4727,N,07726.5387,W,1,05,3.67,178.2,M,-34.4,M,,*5A
$GPRMC,155131.500,A,4308.4727,N,07726.5409,W,23.61,271.54,050721,,,A*4C
$GPGGA,155131.750,4308.4728,N,07726.5431,W,1,05,3.67,178.2,M,-34.4,M,,*5A
$GPRMC,155132.000,A,4308.4728,N,07726.5454,W,23.81,270.90,050721,,,A*4A
$GPGGA,155132.250,4308.4729,N,07726.5477,W,1,05,4.10,178.1,M,-34.4,M,,*5B
$GPRMC,155132.500,A,4308.4730,N,07726.5501,W,23.89,270.87,050721,,,A*49
$GPGGA,155132.750,4308.4731,N,07726.5524,W,1,05,3.67,178.1,M,-34.4,M,,*57
$GPRMC,155133.000,A,4308.4732,N,07726.5548,W,24.20,271.08,050721,,,A*40
$GPGGA,155133.250,4308.4732,N,07726.5571,W,1,05,4.10,178.1,M,-34.4,M,,*57
$GPRMC,155133.500,A,4308.4732,N,07726.5594,W,24.61,270.66,050721,,,A*48
$GPGGA,155133.750,4308.4733,N,07726.5618,W,1,05,3.67,178.1,M,-34.4,M,,*58
$GPRMC,155134.000,A,4308.4732,N,07726.5640,W,24.71,270.28,050721,,,A*4B
$GPGGA,155134.250,4308.4733,N,07726.5665,W,1,05,4.10,178.1,M,-34.4,M,,*57
$GPRMC,155134.500,A,4308.4735,N,07726.5689,W,24.81,270.60,050721,,,A*4F
$GPGGA,155134.750,4308.4736,N,07726.5713,W,1,05,3.67,178.1,M,-34.4,M,,*50
$GPRMC,155135.000,A,4308.4737,N,07726.5737,W,24.89,270.76,050721,,,A*42
$GPGGA,155135.250,4308.4739,N,07726.5762,W,1,05,3.67,178.1,M,-34.4,M,,*5D
$GPRMC,155135.500,A,4308.4740,N,07726.5787,W,25.46,270.66,050721,,,A*4F
$GPGGA,155135.750,4308.4740,N,07726.5811,W,1,05,3.67,178.1,M,-34.4,M,,*5D
$GPRMC,155136.000,A,4308.4741,N,07726.5836,W,25.55,270.83,050721,,,A*44
$GPGGA,155136.250,4308.4742,N,07726.5860,W,1,05,4.10,178.1,M,-34.4,M,,*58
$GPRMC,155136.500,A,4308.4742,N,07726.5885,W,25.59,271.04,050721,,,A*48
$GPGGA,155136.750,4308.4743,N,07726.5909,W,1,05,3.67,178.2,M,-34.4,M,,*56
$GPRMC,155137.000,A,4308.4743,N,07726.5933,W,25.63,270.97,050721,,,A*43
$GPGGA,155137.250,4308.4744,N,07726.5957,W,1,05,3.67,178.2,M,-34.4,M,,*5E
$GPRMC,155137.500,A,4308.4744,N,07726.5981,W,25.61,271.06,050721,,,A*43
$GPGGA,155137.750,4308.4744,N,07726.6005,W,1,05,3.67,178.2,M,-34.4,M,,*56
$GPRMC,155138.000,A,4308.4745,N,07726.6029,W,25.18,271.41,050721,,,A*4D
$GPGGA,155138.250,4308.4745,N,07726.6053,W,1,05,4.10,178.1,M,-34.4,M,,*5A
$GPRMC,155138.500,A,4308.4745,N,07726.6076,W,24.76,271.85,050721,,,A*43
$GPGGA,155138.750,4308.4744,N,07726.6098,W,1,05,3.68,178.2,M,-34.4,M,,*52
$GPRMC,155139.000,A,4308.4744,N,07726.6121,W,24.40,271.93,050721,,,A*47
$GPGGA,155139.250,4308.4743,N,07726.6142,W,1,05,4.10,178.2,M,-34.4,M,,*5F
$GPRMC,155139.500,A,4308.4743,N,07726.6165,W,24.35,271.33,050721,,,A*4D
$GPGGA,155139.750,4308.4742,N,07726.6187,W,1,05,3.68,178.2,M,-34.4,M,,*5A
$GPRMC,155140.000,A,4308.4741,N,07726.6209,W,24.32,270.78,050721,,,A*44
$GPGGA,155140.250,4308.4739,N,07726.6231,W,1,05,3.68,178.4,M,-34.4,M,,*55
$GPRMC,155140.500,A,4308.4738,N,07726.6253,W,24.36,270.16,050721,,,A*4C
$GPGGA,155140.750,4308.4737,N,07726.6275,W,1,05,3.68,178.5,M,-34.4,M,,*5F
$GPRMC,155141.000,A,4308.4736,N,07726.6297,W,24.39,269.95,050721,,,A*42
$GPGGA,155141.250,4308.4735,N,07726.6319,W,1,05,3.68,178.7,M,-34.4,M,,*50
$GPRMC,155141.500,A,4308.4735,N,07726.6341,W,24.33,269.90,050721,,,A*41
$GPGGA,155141.750,4308.4735,N,07726.6365,W,1,05,3.68,178.8,M,-34.4,M,,*51
$GPRMC,155142.000,A,4308.4734,N,07726.6388,W,24.51,269.58,050721,,,A*43
$GPGGA,155142.250,4308.4734,N,07726.6411,W,1,05,3.68,178.9,M,-34.4,M,,*53
$GPRMC,155142.500,A,4308.4733,N,07726.6434,W,24.79,268.97,050721,,,A*49
$GPGGA,155142.750,4308.4732,N,07726.6458,W,1,05,3.68,178.9,M,-34.4,M,,*5D
$GPRMC,155143.000,A,4308.4732,N,07726.6481,W,25.09,268.38,050721,,,A*41
$GPGGA,155143.250,4308.4731,N,07726.6506,W,1,05,4.10,178.9,M,-34.4,M,,*58
$GPRMC,155143.500,A,4308.4730,N,07726.6529,W,25.29,267.95,050721,,,A*4F
$GPGGA,155143.750,4308.4730,N,07726.6553,W,1,05,3.68,178.9,M,-34.4,M,,*54
$GPRMC,155144.000,A,4308.4729,N,07726.6577,W,25.34,267.57,050721,,,A*4C
$GPGGA,155144.250,4308.4728,N,07726.6601,W,1,05,4.11,178.8,M,-34.4,M,,*53
$GPRMC,155144.500,A,4308.4727,N,07726.6626,W,25.61,267.05,050721,,,A*47
$GPGGA,155144.750,4308.4726,N,07726.6651,W,1,05,3.68,178.8,M,-34.4,M,,*54
$GPRMC,155145.000,A,4308.4726,N,07726.6676,W,25.69,267.08,050721,,,A*42
$GPGGA,155145.250,4308.4726,N,07726.6702,W,1,05,3.69,178.8,M,-34.4,M,,*56
$GPRMC,155145.500,A,4308.4727,N,07726.6728,W,25.94,267.07,050721,,,A*41
$GPGGA,155145.750,4308.4726,N,07726.6753,W,1,05,3.69,178.8,M,-34.4,M,,*57
$GPRMC,155146.000,A,4308.4726,N,07726.6778,W,26.01,267.01,050721,,,A*4A
$GPGGA,155146.250,4308.4724,N,07726.6803,W,1,05,4.11,178.7,M,-34.4,M,,*5E
$GPRMC,155146.500,A,4308.4723,N,07726.6828,W,25.96,266.80,050721,,,A*45
$GPGGA,155146.750,4308.4723,N,07726.6853,W,1,05,3.69,178.7,M,-34.4,M,,*51
$GPRMC,155147.000,A,4308.4723,N,07726.6878,W,25.78,266.81,050721,,,A*45
$GPGGA,155147.250,4308.4721,N,07726.6902,W,1,05,4.11,178.6,M,-34.4,M,,*5B
$GPRMC,155147.500,A,4308.4719,N,07726.6926,W,25.55,266.57,050721,,,A*47
$GPGGA,155147.750,4308.4719,N,07726.6950,W,1,05,3.69,178.5,M,-34.4,M,,*59
$GPRMC,155148.000,A,4308.4718,N,07726.6975,W,25.50,266.60,050721,,,A*4B
$GPGGA,155148.250,4308.4718,N,07726.6999,W,1,05,4.11,178.5,M,-34.4,M,,*5F
$GPRMC,155148.500,A,4308.4718,N,07726.7024,W,25.38,266.82,050721,,,A*40
$GPGGA,155148.750,4308.4718,N,07726.7049,W,1,05,3.69,178.4,M,-34.4,M,,*56
$GPRMC,155149.000,A,4308.4718,N,07726.7074,W,25.26,267.16,050721,,,A*42
$GPGGA,155149.250,4308.4719,N,07726.7098,W,1,05,4.11,178.4,M,-34.4,M,,*57
$GPRMC,155149.500,A,4308.4719,N,07726.7123,W,25.13,267.66,050721,,,A*44
$GPGGA,155149.750,4308.4720,N,07726.7148,W,1,05,3.69,178.5,M,-34.4,M,,*5D
$GPRMC,155150.000,A,4308.4720,N,07726.7172,W,25.01,268.18,050721,,,A*42
$GPGGA,155150.250,4308.4720,N,07726.7196,W,1,05,4.11,178.5,M,-34.4,M,,*5B
$GPRMC,155150.500,A,4308.4720,N,07726.7220,W,24.92,268.44,050721,,,A*41
$GPGGA,155150.750,4308.4719,N,07726.7243,W,1,05,3.69,178.6,M,-34.4,M,,*54
$GPRMC,155151.000,A,4308.4718,N,07726.7266,W,24.87,268.34,050721,,,A*4F
$GPGGA,155151.250,4308.4718,N,07726.7289,W,1,05,4.11,178.6,M,-34.4,M,,*5F
$GPRMC,155151.500,A,4308.4716,N,07726.7312,W,24.87,268.13,050721,,,A*43
$GPGGA,155151.750,4308.4715,N,07726.7335,W,1,05,3.69,178.7,M,-34.4,M,,*58
$GPRMC,155152.000,A,4308.4714,N,07726.7358,W,24.85,268.00,050721,,,A*49
$GPGGA,155152.250,4308.4713,N,07726.7381,W,1,05,3.69,178.8,M,-34.4,M,,*58
$GPRMC,155152.500,A,4308.4711,N,07726.7402,W,24.52,267.80,050721,,,A*4C
$GPGGA,155152.750,4308.4709,N,07726.7424,W,1,05,3.69,178.8,M,-34.4,M,,*5E
$GPRMC,155153.000,A,4308.4707,N,07726.7445,W,24.25,267.51,050721,,,A*40
$GPGGA,155153.250,4308.4704,N,07726.7466,W,1,05,3.69,179.0,M,-34.4,M,,*58
$GPRMC,155153.500,A,4308.4702,N,07726.7487,W,24.10,267.11,050721,,,A*4C
$GPGGA,155153.750,4308.4699,N,07726.7508,W,1,05,3.69,179.1,M,-34.4,M,,*50
$GPRMC,155154.000,A,4308.4697,N,07726.7529,W,23.91,266.66,050721,,,A*49
$GPGGA,155154.250,4308.4693,N,07726.7549,W,1,05,3.70,179.2,M,-34.4,M,,*56
$GPRMC,155154.500,A,4308.4690,N,07726.7570,W,23.85,266.05,050721,,,A*47
$GPGGA,155154.750,4308.4687,N,07726.7590,W,1,05,3.70,179.3,M,-34.4,M,,*53
$GPRMC,155155.000,A,4308.4681,N,07726.7608,W,23.45,265.21,050721,,,A*46
$GPGGA,155155.250,4308.4678,N,07726.7629,W,1,05,3.70,179.5,M,-34.4,M,,*50
$GPRMC,155155.500,A,4308.4676,N,07726.7650,W,23.36,265.00,050721,,,A*41
$GPGGA,155155.750,4308.4674,N,07726.7671,W,1,05,3.70,179.6,M,-34.4,M,,*57
$GPRMC,155156.000,A,4308.4671,N,07726.7691,W,22.96,264.95,050721,,,A*4B
$GPGGA,155156.250,4308.4696,N,07726.7735,W,1,06,1.51,179.7,M,-34.4,M,,*5F
$GPRMC,155156.500,A,4308.4700,N,07726.7761,W,23.29,266.11,050721,,,A*4C
$GPGGA,155156.750,4308.4701,N,07726.7785,W,1,06,1.47,179.8,M,-34.4,M,,*56
$GPRMC,155157.000,A,4308.4702,N,07726.7808,W,23.22,265.43,050721,,,A*45
$GPGGA,155157.250,4308.4702,N,07726.7831,W,1,06,1.51,179.9,M,-34.4,M,,*57
$GPRMC,155157.500,A,4308.4701,N,07726.7853,W,23.15,265.01,050721,,,A*4F
$GPGGA,155157.750,4308.4701,N,07726.7876,W,1,06,1.46,180.0,M,-34.4,M,,*5B
$GPRMC,155158.000,A,4308.4700,N,07726.7898,W,23.12,264.65,050721,,,A*47
$GPGGA,155158.250,4308.4700,N,07726.7922,W,1,06,1.51,180.1,M,-34.4,M,,*57
$GPRMC,155158.500,A,4308.4699,N,07726.7945,W,23.36,264.95,050721,,,A*4B
$GPGGA,155158.750,4308.4697,N,07726.7968,W,1,06,1.51,180.2,M,-34.4,M,,*50
$GPRMC,155159.000,A,4308.4696,N,07726.7992,W,23.74,264.98,050721,,,A*41
$GPGGA,155159.250,4308.4694,N,07726.8015,W,1,06,1.51,180.3,M,-34.4,M,,*5A
$GPRMC,155159.500,A,4308.4693,N,07726.8038,W,23.85,265.67,050721,,,A*48
$GPGGA,155159.750,4308.4691,N,07726.8061,W,1,06,1.51,180.4,M,-34.4,M,,*5E
$GPRMC,155200.000,A,4308.4688,N,07726.8084,W,23.93,264.92,050721,,,A*43
$GPGGA,155200.250,4308.4686,N,07726.8107,W,1,06,1.51,180.5,M,-34.4,M,,*52
$GPRMC,155200.500,A,4308.4684,N,07726.8129,W,24.02,264.64,050721,,,A*4A
$GPGGA,155200.750,4308.4683,N,07726.8153,W,1,06,1.51,180.5,M,-34.4,M,,*53
$GPRMC,155201.000,A,4308.4681,N,07726.8176,W,24.06,264.44,050721,,,A*47
$GPGGA,155201.250,4308.4680,N,07726.8200,W,1,06,1.51,180.5,M,-34.4,M,,*51
$GPRMC,155201.500,A,4308.4680,N,07726.8224,W,24.32,264.94,050721,,,A*4D
$GPGGA,155201.750,4308.4680,N,07726.8249,W,1,06,1.51,180.5,M,-34.4,M,,*59
$GPRMC,155202.000,A,4308.4679,N,07726.8273,W,24.34,264.97,050721,,,A*4A
$GPGGA,155202.250,4308.4678,N,07726.8297,W,1,06,1.51,180.5,M,-34.4,M,,*5B
$GPRMC,155202.500,A,4308.4678,N,07726.8321,W,24.34,263.74,050721,,,A*42
$GPGGA,155202.750,4308.4677,N,07726.8346,W,1,06,1.51,180.5,M,-34.4,M,,*5C
$GPRMC,155203.000,A,4308.4676,N,07726.8371,W,24.39,263.78,050721,,,A*4C
$GPGGA,155203.250,4308.4676,N,07726.8395,W,1,06,1.51,180.4,M,-34.4,M,,*56
$GPRMC,155203.500,A,4308.4675,N,07726.8419,W,24.18,263.90,050721,,,A*46
$GPGGA,155203.750,4308.4675,N,07726.8443,W,1,06,1.51,180.4,M,-34.4,M,,*5C
$GPRMC,155204.000,A,4308.4674,N,07726.8466,W,23.80,264.42,050721,,,A*43
$GPGGA,155204.250,4308.4674,N,07726.8489,W,1,06,1.51,180.4,M,-34.4,M,,*59
$GPRMC,155204.500,A,4308.4673,N,07726.8512,W,23.71,264.63,050721,,,A*4E
$GPGGA,155204.750,4308.4672,N,07726.8536,W,1,06,1.51,180.4,M,-34.4,M,,*5F
$GPRMC,155205.000,A,4308.4672,N,07726.8559,W,23.72,265.07,050721,,,A*44
$GPGGA,155205.250,4308.4671,N,07726.8583,W,1,06,1.51,180.5,M,-34.4,M,,*57
$GPRMC,155205.500,A,4308.4670,N,07726.8606,W,23.77,265.37,050721,,,A*4C
$GPGGA,155205.750,4308.4670,N,07726.8630,W,1,06,1.51,180.5,M,-34.4,M,,*58
$GPRMC,155206.000,A,4308.4669,N,07726.8653,W,23.84,265.37,050721,,,A*4E
$GPGGA,155206.250,4308.4668,N,07726.8676,W,1,06,1.51,180.5,M,-34.4,M,,*55
$GPRMC,155206.500,A,4308.4667,N,07726.8699,W,23.89,265.48,050721,,,A*46
$GPGGA,155206.750,4308.4666,N,07726.8722,W,1,06,1.51,180.5,M,-34.4,M,,*5E
$GPRMC,155207.000,A,4308.4665,N,07726.8745,W,23.89,265.56,050721,,,A*4F
$GPGGA,155207.250,4308.4664,N,07726.8768,W,1,06,1.51,180.5,M,-34.4,M,,*56
$GPRMC,155207.500,A,4308.4663,N,07726.8791,W,23.87,265.57,050721,,,A*4A
$GPGGA,155207.750,4308.4662,N,07726.8813,W,1,06,1.51,180.4,M,-34.4,M,,*57
$GPRMC,155208.000,A,4308.4660,N,07726.8836,W,23.83,265.32,050721,,,A*46
$GPGGA,155208.250,4308.4659,N,07726.8858,W,1,06,1.51,180.4,M,-34.4,M,,*5A
$GPRMC,155208.500,A,4308.4657,N,07726.8881,W,23.64,265.23,050721,,,A*42
$GPGGA,155208.750,4308.4656,N,07726.8903,W,1,06,1.51,180.4,M,-34.4,M,,*5F
$GPRMC,155209.000,A,4308.4654,N,07726.8924,W,23.27,264.59,050721,,,A*40
$GPGGA,155209.250,4308.4653,N,07726.8946,W,1,06,1.51,180.3,M,-34.4,M,,*58
$GPRMC,155209.500,A,4308.4651,N,07726.8968,W,23.08,265.18,050721,,,A*41
$GPGGA,155209.750,4308.4650,N,07726.8990,W,1,06,1.51,180.3,M,-34.4,M,,*55
$GPRMC,155210.000,A,4308.4650,N,07726.9011,W,22.90,265.98,050721,,,A*43
$GPGGA,155210.250,4308.4649,N,07726.9033,W,1,06,1.51,180.2,M,-34.4,M,,*50
$GPRMC,155210.500,A,4308.4648,N,07726.9055,W,22.81,266.57,050721,,,A*4F
$GPGGA,155210.750,4308.4647,N,07726.9076,W,1,06,1.51,180.2,M,-34.4,M,,*5A
$GPRMC,155211.000,A,4308.4646,N,07726.9098,W,22.71,266.28,050721,,,A*43
$GPGGA,155211.250,4308.4645,N,07726.9119,W,1,06,1.51,180.3,M,-34.4,M,,*55
$GPRMC,155211.500,A,4308.4644,N,07726.9141,W,22.68,265.87,050721,,,A*4F
$GPGGA,155211.750,4308.4642,N,07726.9162,W,1,06,1.51,180.3,M,-34.4,M,,*5B
$GPRMC,155212.000,A,4308.4641,N,07726.9184,W,22.42,265.29,050721,,,A*49
$GPGGA,155212.250,4308.4640,N,07726.9205,W,1,06,1.51,180.3,M,-34.4,M,,*5D
$GPRMC,155212.500,A,4308.4639,N,07726.9227,W,22.34,265.78,050721,,,A*4C
$GPGGA,155212.750,4308.4638,N,07726.9248,W,1,06,1.51,180.3,M,-34.4,M,,*5E
$GPRMC,155213.000,A,4308.4637,N,07726.9269,W,22.08,265.95,050721,,,A*40
$GPGGA,155213.250,4308.4636,N,07726.9291,W,1,06,1.51,180.2,M,-34.4,M,,*51
$GPRMC,155213.500,A,4308.4635,N,07726.9312,W,22.03,265.77,050721,,,A*4D
$GPGGA,155213.750,4308.4633,N,07726.9332,W,1,06,1.51,180.1,M,-34.4,M,,*5A
$GPRMC,155214.000,A,4308.4632,N,07726.9353,W,21.97,264.85,050721,,,A*4F
$GPGGA,155214.250,4308.4630,N,07726.9374,W,1,06,1.51,180.0,M,-34.4,M,,*58
$GPRMC,155214.500,A,4308.4628,N,07726.9396,W,21.90,264.12,050721,,,A*41
$GPGGA,155214.750,4308.4627,N,07726.9417,W,1,06,1.51,179.7,M,-34.4,M,,*58
$GPRMC,155215.000,A,4308.4625,N,07726.9438,W,21.87,263.63,050721,,,A*4C
$GPGGA,155215.250,4308.4623,N,07726.9459,W,1,06,1.51,179.5,M,-34.4,M,,*50
$GPRMC,155215.500,A,4308.4621,N,07726.9479,W,21.52,262.26,050721,,,A*40
$GPGGA,155215.750,4308.4619,N,07726.9499,W,1,06,1.51,179.2,M,-34.4,M,,*57
$GPRMC,155216.000,A,4308.4616,N,07726.9518,W,21.42,261.69,050721,,,A*4D
$GPGGA,155216.250,4308.4613,N,07726.9537,W,1,06,1.51,178.9,M,-34.4,M,,*54
$GPRMC,155216.500,A,4308.4610,N,07726.9556,W,21.02,261.54,050721,,,A*4E
$GPGGA,155216.750,4308.4608,N,07726.9575,W,1,06,1.51,178.7,M,-34.4,M,,*53
$GPRMC,155217.000,A,4308.4606,N,07726.9593,W,20.36,262.16,050721,,,A*47
$GPGGA,155217.250,4308.4605,N,07726.9611,W,1,06,1.51,178.3,M,-34.4,M,,*5F
$GPRMC,155217.500,A,4308.4605,N,07726.9629,W,18.27,265.28,050721,,,A*42
$GPGGA,155217.750,4308.4604,N,07726.9646,W,1,06,1.51,177.8,M,-34.4,M,,*5D
$GPRMC,155218.000,A,4308.4605,N,07726.9663,W,16.54,269.05,050721,,,A*4F
$GPGGA,155218.250,4308.4605,N,07726.9678,W,1,06,1.51,177.4,M,-34.4,M,,*57
$GPRMC,155218.500,A,4308.4607,N,07726.9695,W,15.14,275.25,050721,,,A*49
$GPGGA,155218.750,4308.4609,N,07726.9709,W,1,06,1.46,176.6,M,-34.4,M,,*5C
$GPRMC,155219.000,A,4308.4612,N,07726.9723,W,14.36,282.33,050721,,,A*4B
$GPGGA,155219.250,4308.4617,N,07726.9739,W,1,06,1.51,175.9,M,-34.4,M,,*5E
$GPRMC,155219.500,A,4308.4623,N,07726.9755,W,14.03,291.50,050721,,,A*4C
$GPGGA,155219.750,4308.4629,N,07726.9769,W,1,06,1.51,175.1,M,-34.4,M,,*5B
$GPRMC,155220.000,A,4308.4635,N,07726.9783,W,14.24,298.96,050721,,,A*49
$GPGGA,155220.250,4308.4640,N,07726.9795,W,1,06,1.51,174.4,M,-34.4,M,,*5C
$GPRMC,155220.500,A,4308.4646,N,07726.9806,W,13.57,305.25,050721,,,A*44
$GPGGA,155220.750,4308.4652,N,07726.9816,W,1,06,1.46,173.9,M,-34.4,M,,*52
$GPRMC,155221.000,A,4308.4659,N,07726.9826,W,13.73,309.92,050721,,,A*4A
$GPGGA,155221.250,4308.4668,N,07726.9834,W,1,06,1.51,173.6,M,-34.4,M,,*56
$GPRMC,155221.500,A,4308.4679,N,07726.9842,W,14.05,324.58,050721,,,A*40
$GPGGA,155221.750,4308.4689,N,07726.9847,W,1,06,1.46,173.1,M,-34.4,M,,*59
$GPRMC,155222.000,A,4308.4699,N,07726.9850,W,14.46,337.23,050721,,,A*42
$GPGGA,155222.250,4308.4709,N,07726.9851,W,1,06,1.51,172.8,M,-34.4,M,,*5F
$GPRMC,155222.500,A,4308.4719,N,07726.9852,W,14.28,348.23,050721,,,A*4C
$GPGGA,155222.750,4308.4729,N,07726.9853,W,1,06,1.51,172.6,M,-34.4,M,,*54
$GPRMC,155223.000,A,4308.4739,N,07726.9853,W,14.28,353.81,050721,,,A*49
$GPGGA,155223.250,4308.4749,N,07726.9852,W,1,06,1.51,172.4,M,-34.4,M,,*55
$GPRMC,155223.500,A,4308.4759,N,07726.9850,W,14.54,359.12,050721,,,A*42
$GPGGA,155223.750,4308.4770,N,07726.9849,W,1,06,1.51,172.2,M,-34.4,M,,*56
$GPRMC,155224.000,A,4308.4781,N,07726.9848,W,15.13,1.38,050721,,,A*48
$GPGGA,155224.250,4308.4791,N,07726.9847,W,1,06,1.51,171.9,M,-34.4,M,,*5D
$GPRMC,155224.500,A,4308.4802,N,07726.9845,W,15.80,2.42,050721,,,A*40
$GPGGA,155224.750,4308.4813,N,07726.9843,W,1,06,1.51,171.6,M,-34.4,M,,*56
$GPRMC,155225.000,A,4308.4825,N,07726.9842,W,16.18,2.99,050721,,,A*42
$GPGGA,155225.250,4308.4836,N,07726.9840,W,1,06,1.51,171.4,M,-34.4,M,,*54
$GPRMC,155225.500,A,4308.4848,N,07726.9839,W,16.64,2.99,050721,,,A*4B
$GPGGA,155225.750,4308.4859,N,07726.9837,W,1,06,1.51,171.1,M,-34.4,M,,*5D
$GPRMC,155226.000,A,4308.4871,N,07726.9836,W,17.13,2.56,050721,,,A*4A
$GPGGA,155226.250,4308.4883,N,07726.9836,W,1,06,1.51,170.7,M,-34.4,M,,*5A
$GPRMC,155226.500,A,4308.4896,N,07726.9835,W,17.56,1.85,050721,,,A*49
$GPGGA,155226.750,4308.4909,N,07726.9835,W,1,06,1.51,170.4,M,-34.4,M,,*5C
$GPRMC,155227.000,A,4308.4921,N,07726.9834,W,17.96,1.49,050721,,,A*4D
$GPGGA,155227.250,4308.4934,N,07726.9834,W,1,06,1.51,170.1,M,-34.4,M,,*52
$GPRMC,155227.500,A,4308.4948,N,07726.9833,W,18.48,1.62,050721,,,A*45
$GPGGA,155227.750,4308.4961,N,07726.9832,W,1,06,1.51,169.8,M,-34.4,M,,*50
$GPRMC,155228.000,A,4308.4974,N,07726.9831,W,18.98,1.59,050721,,,A*47
$GPGGA,155228.250,4308.4988,N,07726.9831,W,1,06,1.51,169.5,M,-34.4,M,,*53
$GPRMC,155228.500,A,4308.5002,N,07726.9831,W,19.32,1.06,050721,,,A*40
$GPGGA,155228.750,4308.5016,N,07726.9830,W,1,06,1.51,169.2,M,-34.4,M,,*5F
$GPRMC,155229.000,A,4308.5029,N,07726.9830,W,19.43,1.13,050721,,,A*4E
$GPGGA,155229.250,4308.5043,N,07726.9830,W,1,06,1.51,168.9,M,-34.4,M,,*51
$GPRMC,155229.500,A,4308.5057,N,07726.9829,W,19.53,1.18,050721,,,A*40
$GPGGA,155229.750,4308.5071,N,07726.9829,W,1,06,1.51,168.7,M,-34.4,M,,*53
$GPRMC,155230.000,A,4308.5085,N,07726.9829,W,19.66,1.29,050721,,,A*46
$GPGGA,155230.250,4308.5100,N,07726.9829,W,1,06,1.51,168.4,M,-34.4,M,,*5A
$GPRMC,155230.500,A,4308.5114,N,07726.9828,W,19.91,1.17,050721,,,A*4E
$GPGGA,155230.750,4308.5128,N,07726.9828,W,1,06,1.51,168.2,M,-34.4,M,,*52
$GPRMC,155231.000,A,4308.5143,N,07726.9828,W,20.30,1.23,050721,,,A*4E
$GPGGA,155231.250,4308.5158,N,07726.9827,W,1,06,1.51,167.9,M,-34.4,M,,*5A
$GPRMC,155231.500,A,4308.5173,N,07726.9826,W,21.02,1.59,050721,,,A*4B
$GPGGA,155231.750,4308.5187,N,07726.9825,W,1,06,1.51,167.9,M,-34.4,M,,*5F
$GPRMC,155232.000,A,4308.5202,N,07726.9825,W,20.41,1.19,050721,,,A*49
$GPGGA,155232.250,4308.5216,N,07726.9824,W,1,06,1.51,168.4,M,-34.4,M,,*51
$GPRMC,155232.500,A,4308.5230,N,07726.9823,W,20.39,1.12,050721,,,A*4F
$GPGGA,155232.750,4308.5245,N,07726.9823,W,1,06,1.51,168.9,M,-34.4,M,,*58
$GPRMC,155233.000,A,4308.5260,N,07726.9821,W,20.61,1.91,050721,,,A*4A
$GPGGA,155233.250,4308.5275,N,07726.9820,W,1,06,1.51,169.5,M,-34.4,M,,*51
$GPRMC,155233.500,A,4308.5290,N,07726.9819,W,21.14,2.25,050721,,,A*44
$GPGGA,155233.750,4308.5305,N,07726.9817,W,1,06,1.51,169.8,M,-34.4,M,,*5B
$GPRMC,155234.000,A,4308.5321,N,07726.9815,W,21.58,2.80,050721,,,A*46
$GPGGA,155234.250,4308.5337,N,07726.9814,W,1,06,1.51,170.1,M,-34.4,M,,*5A
$GPRMC,155234.500,A,4308.5352,N,07726.9813,W,21.79,2.51,050721,,,A*4E
$GPGGA,155234.750,4308.5368,N,07726.9812,W,1,06,1.51,170.2,M,-34.4,M,,*50
$GPRMC,155235.000,A,4308.5385,N,07726.9811,W,22.04,2.31,050721,,,A*4D
$GPGGA,155235.250,4308.5401,N,07726.9810,W,1,06,1.51,170.0,M,-34.4,M,,*5C
$GPRMC,155235.500,A,4308.5417,N,07726.9810,W,22.04,1.98,050721,,,A*45
$GPGGA,155235.750,4308.5433,N,07726.9809,W,1,06,1.51,169.4,M,-34.4,M,,*5C
$GPRMC,155236.000,A,4308.5449,N,07726.9808,W,22.05,1.93,050721,,,A*4B
$GPGGA,155236.250,4308.5465,N,07726.9807,W,1,06,1.51,168.9,M,-34.4,M,,*5B
$GPRMC,155236.500,A,4308.5481,N,07726.9806,W,22.36,1.65,050721,,,A*4D
$GPGGA,155236.750,4308.5498,N,07726.9806,W,1,06,1.51,167.7,M,-34.4,M,,*5C
$GPRMC,155237.000,A,4308.5514,N,07726.9806,W,22.68,1.25,050721,,,A*4B
$GPGGA,155237.250,4308.5531,N,07726.9805,W,1,06,1.51,166.8,M,-34.4,M,,*57
$GPRMC,155237.500,A,4308.5547,N,07726.9805,W,22.81,1.43,050721,,,A*4C
$GPGGA,155237.750,4308.5564,N,07726.9804,W,1,06,1.51,166.1,M,-34.4,M,,*5A
$GPRMC,155238.000,A,4308.5581,N,07726.9803,W,23.20,1.32,050721,,,A*46
$GPGGA,155238.250,4308.5598,N,07726.9803,W,1,06,1.51,165.7,M,-34.4,M,,*51
$GPRMC,155238.500,A,4308.5615,N,07726.9802,W,23.49,0.93,050721,,,A*49
$GPGGA,155238.750,4308.5631,N,07726.9801,W,1,06,1.51,165.3,M,-34.4,M,,*52
$GPRMC,155239.000,A,4308.5648,N,07726.9801,W,23.76,0.65,050721,,,A*43
$GPGGA,155239.250,4308.5665,N,07726.9800,W,1,06,1.51,165.0,M,-34.4,M,,*55
$GPRMC,155239.500,A,4308.5683,N,07726.9800,W,24.00,0.70,050721,,,A*42
$GPGGA,155239.750,4308.5700,N,07726.9799,W,1,06,1.51,164.7,M,-34.4,M,,*5B
$GPRMC,155240.000,A,4308.5717,N,07726.9799,W,24.13,1.16,050721,,,A*49
$GPGGA,155240.250,4308.5735,N,07726.9798,W,1,06,1.51,164.4,M,-34.4,M,,*54
$GPRMC,155240.500,A,4308.5753,N,07726.9798,W,24.45,0.96,050721,,,A*47
$GPGGA,155240.750,4308.5771,N,07726.9798,W,1,06,1.51,163.8,M,-34.4,M,,*5A
$GPRMC,155241.000,A,4308.5789,N,07726.9798,W,24.56,0.83,050721,,,A*42
$GPGGA,155241.250,4308.5806,N,07726.9797,W,1,06,1.51,163.2,M,-34.4,M,,*54
$GPRMC,155241.500,A,4308.5824,N,07726.9797,W,24.70,0.99,050721,,,A*4F
$GPGGA,155241.750,4308.5842,N,07726.9796,W,1,06,1.51,162.6,M,-34.4,M,,*55
$GPRMC,155242.000,A,4308.5860,N,07726.9795,W,24.92,1.63,050721,,,A*43
$GPGGA,155242.250,4308.5878,N,07726.9794,W,1,06,1.51,161.9,M,-34.4,M,,*54
$GPRMC,155242.500,A,4308.5896,N,07726.9794,W,25.19,1.61,050721,,,A*4E
$GPGGA,155242.750,4308.5914,N,07726.9794,W,1,06,1.51,161.3,M,-34.4,M,,*50
$GPRMC,155243.000,A,4308.5932,N,07726.9793,W,25.21,1.33,050721,,,A*4E
$GPGGA,155243.250,4308.5950,N,07726.9793,W,1,06,1.51,160.7,M,-34.4,M,,*56
$GPRMC,155243.500,A,4308.5968,N,07726.9792,W,25.29,0.85,050721,,,A*41
$GPGGA,155243.750,4308.5987,N,07726.9791,W,1,06,1.46,160.4,M,-34.4,M,,*5E
$GPRMC,155244.000,A,4308.6005,N,07726.9790,W,25.13,0.79,050721,,,A*4A
$GPGGA,155244.250,4308.6023,N,07726.9789,W,1,06,1.46,160.4,M,-34.4,M,,*51
$GPRMC,155244.500,A,4308.6042,N,07726.9789,W,25.16,0.27,050721,,,A*4A
$GPGGA,155244.750,4308.6060,N,07726.9788,W,1,06,1.51,160.4,M,-34.4,M,,*54
$GPRMC,155245.000,A,4308.6079,N,07726.9788,W,25.24,0.44,050721,,,A*43
$GPGGA,155245.250,4308.6097,N,07726.9787,W,1,06,1.51,160.4,M,-34.4,M,,*57
$GPRMC,155245.500,A,4308.6115,N,07726.9787,W,25.27,0.26,050721,,,A*45
$GPGGA,155245.750,4308.6133,N,07726.9786,W,1,06,1.51,160.4,M,-34.4,M,,*5C
$GPRMC,155246.000,A,4308.6152,N,07726.9785,W,25.25,0.73,050721,,,A*40
$GPGGA,155246.250,4308.6170,N,07726.9784,W,1,06,1.51,160.3,M,-34.4,M,,*58
$GPRMC,155246.500,A,4308.6188,N,07726.9783,W,25.26,1.17,050721,,,A*44
$GPGGA,155246.750,4308.6206,N,07726.9783,W,1,06,1.46,160.2,M,-34.4,M,,*5F
$GPRMC,155247.000,A,4308.6224,N,07726.9781,W,25.59,1.54,050721,,,A*48
$GPGGA,155247.250,4308.6243,N,07726.9780,W,1,06,1.46,160.1,M,-34.4,M,,*5A
$GPRMC,155247.500,A,4308.6261,N,07726.9779,W,25.50,1.91,050721,,,A*4B
$GPGGA,155247.750,4308.6279,N,07726.9778,W,1,06,1.46,160.1,M,-34.4,M,,*51
$GPRMC,155248.000,A,4308.6298,N,07726.9776,W,25.39,2.06,050721,,,A*4A
$GPGGA,155248.250,4308.6316,N,07726.9775,W,1,06,1.51,160.0,M,-34.4,M,,*59
$GPRMC,155248.500,A,4308.6334,N,07726.9774,W,25.37,1.59,050721,,,A*4D
$GPGGA,155248.750,4308.6352,N,07726.9773,W,1,06,1.46,159.9,M,-34.4,M,,*5F
$GPRMC,155249.000,A,4308.6370,N,07726.9771,W,25.67,1.47,050721,,,A*46
$GPGGA,155249.250,4308.6389,N,07726.9770,W,1,06,1.51,159.7,M,-34.4,M,,*56
$GPRMC,155249.500,A,4308.6407,N,07726.9768,W,25.85,1.52,050721,,,A*44
$GPGGA,155249.750,4308.6425,N,07726.9767,W,1,06,1.46,159.6,M,-34.4,M,,*53
$GPRMC,155250.000,A,4308.6443,N,07726.9766,W,25.89,1.70,050721,,,A*4B
$GPGGA,155250.250,4308.6461,N,07726.9764,W,1,06,1.51,159.5,M,-34.4,M,,*58
$GPRMC,155250.500,A,4308.6479,N,07726.9762,W,26.02,2.11,050721,,,A*47
$GPGGA,155250.750,4308.6497,N,07726.9760,W,1,06,1.51,159.3,M,-34.4,M,,*56
$GPRMC,155251.000,A,4308.6515,N,07726.9758,W,26.07,2.21,050721,,,A*47
$GPGGA,155251.250,4308.6533,N,07726.9756,W,1,06,1.51,159.1,M,-34.4,M,,*5A
$GPRMC,155251.500,A,4308.6551,N,07726.9755,W,25.88,2.35,050721,,,A*4E
$GPGGA,155251.750,4308.6569,N,07726.9753,W,1,06,1.46,159.0,M,-34.4,M,,*52
$GPRMC,155252.000,A,4308.6586,N,07726.9752,W,25.81,2.04,050721,,,A*4E
$GPGGA,155252.250,4308.6604,N,07726.9750,W,1,06,1.51,158.8,M,-34.4,M,,*50
$GPRMC,155252.500,A,4308.6622,N,07726.9749,W,25.89,1.67,050721,,,A*42
$GPGGA,155252.750,4308.6640,N,07726.9748,W,1,06,1.46,158.6,M,-34.4,M,,*54
$GPRMC,155253.000,A,4308.6658,N,07726.9747,W,26.09,1.11,050721,,,A*4F
$GPGGA,155253.250,4308.6676,N,07726.9747,W,1,06,1.51,158.4,M,-34.4,M,,*5E
$GPRMC,155253.500,A,4308.6694,N,07726.9746,W,25.98,1.25,050721,,,A*47
$GPGGA,155253.750,4308.6711,N,07726.9745,W,1,06,1.46,158.2,M,-34.4,M,,*59
$GPRMC,155254.000,A,4308.6729,N,07726.9744,W,25.55,1.49,050721,,,A*4B
$GPGGA,155254.250,4308.6746,N,07726.9743,W,1,06,1.51,158.0,M,-34.4,M,,*5B
$GPRMC,155254.500,A,4308.6764,N,07726.9742,W,25.63,1.66,050721,,,A*49
$GPGGA,155254.750,4308.6781,N,07726.9741,W,1,06,1.51,157.8,M,-34.4,M,,*50
$GPRMC,155255.000,A,4308.6799,N,07726.9740,W,25.43,1.80,050721,,,A*47
$GPGGA,155255.250,4308.6817,N,07726.9740,W,1,06,1.51,157.6,M,-34.4,M,,*5B
$GPRMC,155255.500,A,4308.6834,N,07726.9739,W,25.54,1.34,050721,,,A*4D
$GPGGA,155255.750,4308.6852,N,07726.9738,W,1,06,1.46,157.4,M,-34.4,M,,*54
$GPRMC,155256.000,A,4308.6870,N,07726.9738,W,25.90,0.89,050721,,,A*45
$GPGGA,155256.250,4308.6888,N,07726.9738,W,1,06,1.51,157.2,M,-34.4,M,,*55
$GPRMC,155256.500,A,4308.6906,N,07726.9737,W,26.11,0.40,050721,,,A*40
$GPGGA,155256.750,4308.6924,N,07726.9737,W,1,06,1.51,157.0,M,-34.4,M,,*5A
$GPRMC,155257.000,A,4308.6942,N,07726.9737,W,26.26,0.33,050721,,,A*44
$GPGGA,155257.250,4308.6960,N,07726.9736,W,1,06,1.51,156.8,M,-34.4,M,,*56
$GPRMC,155257.500,A,4308.6978,N,07726.9736,W,26.26,1.04,050721,,,A*4C
$GPGGA,155257.750,4308.6995,N,07726.9735,W,1,06,1.51,156.6,M,-34.4,M,,*54
$GPRMC,155258.000,A,4308.7013,N,07726.9735,W,26.32,1.42,050721,,,A*47
$GPGGA,155258.250,4308.7031,N,07726.9734,W,1,06,1.51,156.4,M,-34.4,M,,*5B
$GPRMC,155258.500,A,4308.7049,N,07726.9734,W,26.32,1.10,050721,,,A*4B
$GPGGA,155258.750,4308.7067,N,07726.9734,W,1,06,1.51,156.2,M,-34.4,M,,*5B
$GPRMC,155259.000,A,4308.7085,N,07726.9734,W,26.26,1.01,050721,,,A*4A
$GPGGA,155259.250,4308.7102,N,07726.9734,W,1,06,1.51,156.0,M,-34.4,M,,*5F
$GPRMC,155259.500,A,4308.7120,N,07726.9733,W,26.04,1.00,050721,,,A*47
$GPGGA,155259.750,4308.7138,N,07726.9733,W,1,06,1.46,155.9,M,-34.4,M,,*58
$GPRMC,155300.000,A,4308.7156,N,07726.9733,W,26.05,1.19,050721,,,A*47
$GPGGA,155300.250,4308.7174,N,07726.9733,W,1,06,1.51,155.9,M,-34.4,M,,*5E
$GPRMC,155300.500,A,4308.7192,N,07726.9732,W,26.22,1.70,050721,,,A*41
$GPGGA,155300.750,4308.7210,N,07726.9731,W,1,06,1.51,155.8,M,-34.4,M,,*59
$GPRMC,155301.000,A,4308.7228,N,07726.9730,W,26.48,2.04,050721,,,A*49
$GPGGA,155301.250,4308.7246,N,07726.9729,W,1,06,1.51,155.8,M,-34.4,M,,*57
$GPRMC,155301.500,A,4308.7265,N,07726.9727,W,26.55,2.14,050721,,,A*4E
$GPGGA,155301.750,4308.7283,N,07726.9726,W,1,06,1.46,155.9,M,-34.4,M,,*53
$GPRMC,155302.000,A,4308.7301,N,07726.9725,W,26.36,2.14,050721,,,A*4C
$GPGGA,155302.250,4308.7319,N,07726.9724,W,1,06,1.51,155.9,M,-34.4,M,,*53
$GPRMC,155302.500,A,4308.7337,N,07726.9724,W,26.02,1.59,050721,,,A*40
$GPGGA,155302.750,4308.7355,N,07726.9723,W,1,06,1.51,155.9,M,-34.4,M,,*59
$GPRMC,155303.000,A,4308.7373,N,07726.9722,W,26.00,1.46,050721,,,A*4E
$GPGGA,155303.250,4308.7391,N,07726.9722,W,1,06,1.51,155.9,M,-34.4,M,,*54
$GPRMC,155303.500,A,4308.7409,N,07726.9721,W,26.02,1.19,050721,,,A*4A
$GPGGA,155303.750,4308.7427,N,07726.9721,W,1,06,1.51,156.0,M,-34.4,M,,*52
$GPRMC,155304.000,A,4308.7445,N,07726.9721,W,25.58,0.85,050721,,,A*48
$GPGGA,155304.250,4308.7462,N,07726.9721,W,1,06,1.51,156.1,M,-34.4,M,,*50
$GPRMC,155304.500,A,4308.7480,N,07726.9720,W,25.00,0.40,050721,,,A*41
$GPGGA,155304.750,4308.7497,N,07726.9720,W,1,06,1.51,156.1,M,-34.4,M,,*5E
$GPRMC,155305.000,A,4308.7515,N,07726.9720,W,24.87,0.27,050721,,,A*47
$GPGGA,155305.250,4308.7532,N,07726.9720,W,1,06,1.51,156.2,M,-34.4,M,,*57
$GPRMC,155305.500,A,4308.7549,N,07726.9719,W,24.50,0.21,050721,,,A*4D
$GPGGA,155305.750,4308.7566,N,07726.9719,W,1,06,1.51,156.1,M,-34.4,M,,*5A
$GPRMC,155306.000,A,4308.7583,N,07726.9719,W,24.46,0.13,050721,,,A*4B
$GPGGA,155306.250,4308.7601,N,07726.9719,W,1,06,1.51,155.9,M,-34.4,M,,*55
$GPRMC,155306.500,A,4308.7618,N,07726.9719,W,24.54,0.20,050721,,,A*4C
$GPGGA,155306.750,4308.7636,N,07726.9718,W,1,06,1.51,155.8,M,-34.4,M,,*54
$GPRMC,155307.000,A,4308.7653,N,07726.9717,W,24.63,0.77,050721,,,A*4F
$GPGGA,155307.250,4308.7670,N,07726.9717,W,1,06,1.51,155.8,M,-34.4,M,,*5D
$GPRMC,155307.500,A,4308.7687,N,07726.9715,W,24.23,1.71,050721,,,A*42
$GPGGA,155307.750,4308.7703,N,07726.9714,W,1,06,1.51,155.6,M,-34.4,M,,*50
$GPRMC,155308.000,A,4308.7720,N,07726.9713,W,24.05,1.92,050721,,,A*4B
$GPGGA,155308.250,4308.7737,N,07726.9712,W,1,06,1.51,155.5,M,-34.4,M,,*58
$GPRMC,155308.500,A,4308.7754,N,07726.9711,W,24.29,1.73,050721,,,A*4E
$GPGGA,155308.750,4308.7771,N,07726.9710,W,1,06,1.51,155.4,M,-34.4,M,,*5C
$GPRMC,155309.000,A,4308.7788,N,07726.9708,W,24.29,2.21,050721,,,A*47
$GPGGA,155309.250,4308.7805,N,07726.9707,W,1,06,1.51,155.2,M,-34.4,M,,*54
$GPRMC,155309.500,A,4308.7822,N,07726.9706,W,24.08,2.57,050721,,,A*41
$GPGGA,155309.750,4308.7838,N,07726.9703,W,1,06,1.51,155.2,M,-34.4,M,,*5B
$GPRMC,155310.000,A,4308.7855,N,07726.9702,W,24.09,3.04,050721,,,A*4E
$GPGGA,155310.250,4308.7872,N,07726.9701,W,1,06,1.51,155.2,M,-34.4,M,,*5A
$GPRMC,155310.500,A,4308.7890,N,07726.9700,W,24.57,2.35,050721,,,A*48
$GPGGA,155310.750,4308.7907,N,07726.9699,W,1,06,1.51,155.0,M,-34.4,M,,*5E
$GPRMC,155311.000,A,4308.7925,N,07726.9699,W,24.82,1.69,050721,,,A*40
$GPGGA,155311.250,4308.7943,N,07726.9699,W,1,06,1.51,154.7,M,-34.4,M,,*5C
$GPRMC,155311.500,A,4308.7961,N,07726.9699,W,25.10,1.08,050721,,,A*48
$GPGGA,155311.750,4308.7979,N,07726.9698,W,1,06,1.51,154.5,M,-34.4,M,,*53
$GPRMC,155312.000,A,4308.7997,N,07726.9698,W,25.32,0.71,050721,,,A*49
$GPGGA,155312.250,4308.8014,N,07726.9698,W,1,06,1.51,154.4,M,-34.4,M,,*59
$GPRMC,155312.500,A,4308.8032,N,07726.9697,W,25.10,1.04,050721,,,A*49
$GPGGA,155312.750,4308.8050,N,07726.9698,W,1,06,1.51,154.4,M,-34.4,M,,*5C
$GPRMC,155313.000,A,4308.8067,N,07726.9698,W,24.98,0.62,050721,,,A*42
$GPGGA,155313.250,4308.8085,N,07726.9698,W,1,06,1.51,154.3,M,-34.4,M,,*57
$GPRMC,155313.500,A,4308.8102,N,07726.9699,W,24.88,0.31,050721,,,A*43
$GPGGA,155313.750,4308.8120,N,07726.9699,W,1,06,1.51,154.1,M,-34.4,M,,*5F
$GPRMC,155314.000,A,4308.8137,N,07726.9700,W,24.82,359.79,050721,,,A*4F
$GPGGA,155314.250,4308.8155,N,07726.9701,W,1,06,1.51,154.1,M,-34.4,M,,*5F
$GPRMC,155314.500,A,4308.8172,N,07726.9702,W,24.87,359.21,050721,,,A*41
$GPGGA,155314.750,4308.8190,N,07726.9703,W,1,06,1.51,154.2,M,-34.4,M,,*52
$GPRMC,155315.000,A,4308.8208,N,07726.9704,W,25.15,358.50,050721,,,A*40
$GPGGA,155315.250,4308.8226,N,07726.9705,W,1,06,1.50,154.2,M,-34.4,M,,*5F
$GPRMC,155315.500,A,4308.8243,N,07726.9707,W,25.17,357.70,050721,,,A*46
$GPGGA,155315.750,4308.8260,N,07726.9709,W,1,06,1.50,154.2,M,-34.4,M,,*54
$GPRMC,155316.000,A,4308.8277,N,07726.9710,W,24.95,357.03,050721,,,A*4E
$GPGGA,155316.250,4308.8294,N,07726.9712,W,1,06,1.51,154.2,M,-34.4,M,,*52
$GPRMC,155316.500,A,4308.8311,N,07726.9714,W,24.72,356.45,050721,,,A*44
$GPGGA,155316.750,4308.8328,N,07726.9716,W,1,06,1.51,154.3,M,-34.4,M,,*54
$GPRMC,155317.000,A,4308.8345,N,07726.9718,W,24.65,355.86,050721,,,A*47
$GPGGA,155317.250,4308.8362,N,07726.9720,W,1,06,1.51,154.4,M,-34.4,M,,*5C
$GPRMC,155317.500,A,4308.8379,N,07726.9722,W,24.64,355.38,050721,,,A*40
$GPGGA,155317.750,4308.8396,N,07726.9725,W,1,06,1.51,154.4,M,-34.4,M,,*57
$GPRMC,155318.000,A,4308.8413,N,07726.9727,W,24.64,354.83,050721,,,A*45
$GPGGA,155318.250,4308.8431,N,07726.9730,W,1,06,1.51,154.1,M,-34.4,M,,*56
$GPRMC,155318.500,A,4308.8448,N,07726.9734,W,24.74,353.83,050721,,,A*4A
$GPGGA,155318.750,4308.8466,N,07726.9737,W,1,06,1.50,153.7,M,-34.4,M,,*56
$GPRMC,155319.000,A,4308.8483,N,07726.9740,W,24.84,353.45,050721,,,A*4F
$GPGGA,155319.250,4308.8500,N,07726.9743,W,1,06,1.50,153.9,M,-34.4,M,,*5E
$GPRMC,155319.500,A,4308.8518,N,07726.9746,W,24.86,353.02,050721,,,A*4E
$GPGGA,155319.750,4308.8535,N,07726.9750,W,1,06,1.50,153.9,M,-34.4,M,,*5F
$GPRMC,155320.000,A,4308.8552,N,07726.9753,W,24.59,352.36,050721,,,A*4F
$GPGGA,155320.250,4308.8569,N,07726.9757,W,1,06,1.50,153.9,M,-34.4,M,,*5E
$GPRMC,155320.500,A,4308.8585,N,07726.9762,W,24.26,351.61,050721,,,A*4B
$GPGGA,155320.750,4308.8602,N,07726.9766,W,1,06,1.50,153.7,M,-34.4,M,,*59
$GPRMC,155321.000,A,4308.8618,N,07726.9770,W,24.02,350.57,050721,,,A*49
$GPGGA,155321.250,4308.8634,N,07726.9775,W,1,06,1.50,153.7,M,-34.4,M,,*5A
$GPRMC,155321.500,A,4308.8650,N,07726.9780,W,23.97,350.01,050721,,,A*47
$GPGGA,155321.750,4308.8666,N,07726.9784,W,1,06,1.51,153.9,M,-34.4,M,,*59
$GPRMC,155322.000,A,4308.8682,N,07726.9789,W,23.81,349.90,050721,,,A*40
$GPGGA,155322.250,4308.8698,N,07726.9793,W,1,06,1.50,154.0,M,-34.4,M,,*57
$GPRMC,155322.500,A,4308.8714,N,07726.9798,W,23.78,349.76,050721,,,A*45
$GPGGA,155322.750,4308.8730,N,07726.9802,W,1,06,1.51,154.4,M,-34.4,M,,*53
$GPRMC,155323.000,A,4308.8745,N,07726.9806,W,23.49,349.34,050721,,,A*49
$GPGGA,155323.250,4308.8761,N,07726.9811,W,1,06,1.51,154.7,M,-34.4,M,,*52
$GPRMC,155323.500,A,4308.8777,N,07726.9816,W,23.36,348.94,050721,,,A*4F
$GPGGA,155323.750,4308.8792,N,07726.9821,W,1,06,1.50,154.9,M,-34.4,M,,*57
$GPRMC,155324.000,A,4308.8808,N,07726.9826,W,23.26,348.28,050721,,,A*4F
$GPGGA,155324.250,4308.8824,N,07726.9831,W,1,06,1.50,155.0,M,-34.4,M,,*5E
$GPRMC,155324.500,A,4308.8839,N,07726.9836,W,23.17,347.46,050721,,,A*4C
$GPGGA,155324.750,4308.8854,N,07726.9842,W,1,06,1.50,155.2,M,-34.4,M,,*5A
$GPRMC,155325.000,A,4308.8869,N,07726.9847,W,23.15,346.59,050721,,,A*46
$GPGGA,155325.250,4308.8884,N,07726.9853,W,1,06,1.50,155.7,M,-34.4,M,,*56
$GPRMC,155325.500,A,4308.8899,N,07726.9859,W,23.16,345.57,050721,,,A*4D
$GPGGA,155325.750,4308.8915,N,07726.9865,W,1,06,1.50,156.2,M,-34.4,M,,*59
$GPRMC,155326.000,A,4308.8930,N,07726.9870,W,23.13,344.97,050721,,,A*4A
$GPGGA,155326.250,4308.8945,N,07726.9876,W,1,06,1.50,156.5,M,-34.4,M,,*5F
$GPRMC,155326.500,A,4308.8960,N,07726.9881,W,23.06,344.94,050721,,,A*43
$GPGGA,155326.750,4308.8975,N,07726.9886,W,1,06,1.50,156.6,M,-34.4,M,,*55
$GPRMC,155327.000,A,4308.8991,N,07726.9892,W,22.97,345.05,050721,,,A*4B
$GPGGA,155327.250,4308.9006,N,07726.9897,W,1,06,1.50,156.6,M,-34.4,M,,*5D
$GPRMC,155327.500,A,4308.9022,N,07726.9902,W,22.93,344.85,050721,,,A*4B
$GPGGA,155327.750,4308.9037,N,07726.9908,W,1,06,1.50,156.5,M,-34.4,M,,*5E
$GPRMC,155328.000,A,4308.9053,N,07726.9913,W,23.09,344.39,050721,,,A*42
$GPGGA,155328.250,4308.9069,N,07726.9919,W,1,06,1.50,156.5,M,-34.4,M,,*5F
$GPRMC,155328.500,A,4308.9084,N,07726.9925,W,23.15,344.02,050721,,,A*4D
$GPGGA,155328.750,4308.9100,N,07726.9930,W,1,06,1.50,156.2,M,-34.4,M,,*58
$GPRMC,155329.000,A,4308.9116,N,07726.9935,W,23.18,344.23,050721,,,A*4C
$GPGGA,155329.250,4308.9132,N,07726.9941,W,1,06,1.50,156.0,M,-34.4,M,,*59
$GPRMC,155329.500,A,4308.9147,N,07726.9946,W,23.18,344.65,050721,,,A*4B
$GPGGA,155329.750,4308.9163,N,07726.9951,W,1,06,1.50,155.9,M,-34.4,M,,*53
$GPRMC,155330.000,A,4308.9179,N,07726.9957,W,23.19,344.53,050721,,,A*4F
$GPGGA,155330.250,4308.9194,N,07726.9962,W,1,06,1.50,155.8,M,-34.4,M,,*57
$GPRMC,155330.500,A,4308.9210,N,07726.9968,W,23.57,344.11,050721,,,A*46
$GPGGA,155330.750,4308.9226,N,07726.9974,W,1,06,1.50,155.7,M,-34.4,M,,*50
$GPRMC,155331.000,A,4308.9242,N,07726.9980,W,23.66,343.93,050721,,,A*4C
$GPGGA,155331.250,4308.9257,N,07726.9986,W,1,06,1.50,155.6,M,-34.4,M,,*5E
$GPRMC,155331.500,A,4308.9274,N,07726.9991,W,23.88,344.10,050721,,,A*40
$GPGGA,155331.750,4308.9290,N,07726.9997,W,1,06,1.50,155.4,M,-34.4,M,,*52
$GPRMC,155332.000,A,4308.9306,N,07727.0002,W,23.92,345.20,050721,,,A*40
$GPGGA,155332.250,4308.9323,N,07727.0007,W,1,06,1.50,155.3,M,-34.4,M,,*52
$GPRMC,155332.500,A,4308.9339,N,07727.0012,W,23.92,346.07,050721,,,A*4E
$GPGGA,155332.750,4308.9355,N,07727.0016,W,1,06,1.50,155.1,M,-34.4,M,,*54
$GPRMC,155333.000,A,4308.9372,N,07727.0021,W,23.89,346.77,050721,,,A*48
$GPGGA,155333.250,4308.9388,N,07727.0025,W,1,06,1.50,154.9,M,-34.4,M,,*59
$GPRMC,155333.500,A,4308.9404,N,07727.0029,W,23.87,347.55,050721,,,A*4C
$GPGGA,155333.750,4308.9421,N,07727.0033,W,1,06,1.50,154.9,M,-34.4,M,,*5F
$GPRMC,155334.000,A,4308.9437,N,07727.0037,W,23.87,348.53,050721,,,A*48
$GPGGA,155334.250,4308.9454,N,07727.0041,W,1,06,1.50,154.7,M,-34.4,M,,*54
$GPRMC,155334.500,A,4308.9470,N,07727.0044,W,23.89,349.38,050721,,,A*48
$GPGGA,155334.750,4308.9487,N,07727.0048,W,1,06,1.50,154.8,M,-34.4,M,,*59
$GPRMC,155335.000,A,4308.9503,N,07727.0051,W,24.16,350.09,050721,,,A*46
$GPGGA,155335.250,4308.9520,N,07727.0055,W,1,06,1.50,154.8,M,-34.4,M,,*5D
$GPRMC,155335.500,A,4308.9537,N,07727.0059,W,24.43,350.59,050721,,,A*49
$GPGGA,155335.750,4308.9555,N,07727.0062,W,1,06,1.50,154.8,M,-34.4,M,,*5E
$GPRMC,155336.000,A,4308.9572,N,07727.0065,W,24.57,351.35,050721,,,A*4F
$GPGGA,155336.250,4308.9589,N,07727.0068,W,1,06,1.50,154.7,M,-34.4,M,,*5C
$GPRMC,155336.500,A,4308.9607,N,07727.0071,W,24.68,352.17,050721,,,A*41
$GPGGA,155336.750,4308.9624,N,07727.0074,W,1,06,1.50,154.4,M,-34.4,M,,*53
$GPRMC,155337.000,A,4308.9641,N,07727.0076,W,24.76,353.35,050721,,,A*4E
$GPGGA,155337.250,4308.9659,N,07727.0079,W,1,06,1.50,154.4,M,-34.4,M,,*50
$GPRMC,155337.500,A,4308.9676,N,07727.0082,W,25.00,353.44,050721,,,A*42
$GPGGA,155337.750,4308.9693,N,07727.0084,W,1,06,1.50,155.0,M,-34.4,M,,*54
$GPRMC,155338.000,A,4308.9710,N,07727.0086,W,25.21,354.25,050721,,,A*4E
$GPGGA,155338.250,4308.9728,N,07727.0088,W,1,06,1.50,155.2,M,-34.4,M,,*51
$GPRMC,155338.500,A,4308.9746,N,07727.0090,W,25.42,355.20,050721,,,A*4E
$GPGGA,155338.750,4308.9763,N,07727.0092,W,1,06,1.50,155.3,M,-34.4,M,,*51
$GPRMC,155339.000,A,4308.9781,N,07727.0094,W,25.45,355.85,050721,,,A*4D
$GPGGA,155339.250,4308.9799,N,07727.0095,W,1,06,1.50,155.2,M,-34.4,M,,*56
$GPRMC,155339.500,A,4308.9817,N,07727.0096,W,25.63,356.81,050721,,,A*49
$GPGGA,155339.750,4308.9835,N,07727.0097,W,1,06,1.50,155.1,M,-34.4,M,,*5B
$GPRMC,155340.000,A,4308.9853,N,07727.0098,W,25.70,357.79,050721,,,A*48
$GPGGA,155340.250,4308.9872,N,07727.0098,W,1,06,1.50,154.8,M,-34.4,M,,*54
$GPRMC,155340.500,A,4308.9890,N,07727.0098,W,25.90,358.63,050721,,,A*48
$GPGGA,155340.750,4308.9908,N,07727.0098,W,1,06,1.50,154.5,M,-34.4,M,,*50
$GPRMC,155341.000,A,4308.9927,N,07727.0099,W,26.23,359.08,050721,,,A*47
$GPGGA,155341.250,4308.9945,N,07727.0099,W,1,06,1.50,154.2,M,-34.4,M,,*5B
$GPRMC,155341.500,A,4308.9964,N,07727.0098,W,26.38,359.61,050721,,,A*41
$GPGGA,155341.750,4308.9982,N,07727.0098,W,1,06,1.50,153.8,M,-34.4,M,,*59
$GPRMC,155342.000,A,4309.0001,N,07727.0098,W,26.39,359.89,050721,,,A*42
$GPGGA,155342.250,4309.0019,N,07727.0097,W,1,06,1.50,153.4,M,-34.4,M,,*5F
$GPRMC,155342.500,A,4309.0038,N,07727.0096,W,26.60,0.60,050721,,,A*47
$GPGGA,155342.750,4309.0056,N,07727.0096,W,1,06,1.50,153.1,M,-34.4,M,,*55
$GPRMC,155343.000,A,4309.0075,N,07727.0095,W,26.58,0.17,050721,,,A*42
$GPGGA,155343.250,4309.0093,N,07727.0095,W,1,06,1.50,152.9,M,-34.4,M,,*52
$GPRMC,155343.500,A,4309.0111,N,07727.0095,W,26.12,0.20,050721,,,A*4E
$GPGGA,155343.750,4309.0129,N,07727.0095,W,1,06,1.50,152.9,M,-34.4,M,,*57
$GPRMC,155344.000,A,4309.0147,N,07727.0095,W,26.09,0.62,050721,,,A*43
$GPGGA,155344.250,4309.0165,N,07727.0094,W,1,06,1.50,152.8,M,-34.4,M,,*5D
$GPRMC,155344.500,A,4309.0183,N,07727.0094,W,25.82,0.56,050721,,,A*48
$GPGGA,155344.750,4309.0200,N,07727.0094,W,1,06,1.50,152.6,M,-34.4,M,,*56
$GPRMC,155345.000,A,4309.0218,N,07727.0093,W,25.59,0.64,050721,,,A*4D
$GPGGA,155345.250,4309.0236,N,07727.0093,W,1,06,1.50,152.5,M,-34.4,M,,*53
$GPRMC,155345.500,A,4309.0253,N,07727.0092,W,25.13,0.76,050721,,,A*4B
$GPGGA,155345.750,4309.0270,N,07727.0092,W,1,06,1.50,152.6,M,-34.4,M,,*56
$GPRMC,155346.000,A,4309.0287,N,07727.0092,W,24.91,0.39,050721,,,A*44
$GPGGA,155346.250,4309.0304,N,07727.0091,W,1,06,1.50,152.8,M,-34.4,M,,*5F
$GPRMC,155346.500,A,4309.0321,N,07727.0091,W,24.85,0.55,050721,,,A*40
$GPGGA,155346.750,4309.0338,N,07727.0091,W,1,06,1.50,152.9,M,-34.4,M,,*54
$GPRMC,155347.000,A,4309.0355,N,07727.0091,W,24.89,0.27,050721,,,A*4E
$GPGGA,155347.250,4309.0372,N,07727.0090,W,1,06,1.50,152.8,M,-34.4,M,,*5E
$GPRMC,155347.500,A,4309.0389,N,07727.0089,W,24.39,0.74,050721,,,A*4E
$GPGGA,155347.750,4309.0405,N,07727.0089,W,1,06,1.50,152.7,M,-34.4,M,,*5B
$GPRMC,155348.000,A,4309.0420,N,07727.0088,W,23.89,1.02,050721,,,A*4D
$GPGGA,155348.250,4309.0436,N,07727.0087,W,1,06,1.50,152.9,M,-34.4,M,,*51
$GPRMC,155348.500,A,4309.0452,N,07727.0086,W,23.69,1.64,050721,,,A*4D
$GPGGA,155348.750,4309.0468,N,07727.0085,W,1,06,1.50,153.0,M,-34.4,M,,*55
$GPRMC,155349.000,A,4309.0484,N,07727.0083,W,23.61,2.37,050721,,,A*4A
$GPGGA,155349.250,4309.0500,N,07727.0082,W,1,06,1.50,153.3,M,-34.4,M,,*5A
$GPRMC,155349.500,A,4309.0517,N,07727.0080,W,23.56,2.58,050721,,,A*4A
$GPGGA,155349.750,4309.0532,N,07727.0079,W,1,06,1.50,153.3,M,-34.4,M,,*5A
$GPRMC,155350.000,A,4309.0548,N,07727.0077,W,23.31,2.80,050721,,,A*41
$GPGGA,155350.250,4309.0564,N,07727.0076,W,1,06,1.50,153.3,M,-34.4,M,,*5B
$GPRMC,155350.500,A,4309.0580,N,07727.0074,W,23.30,2.46,050721,,,A*48
$GPGGA,155350.750,4309.0596,N,07727.0073,W,1,06,1.50,153.3,M,-34.4,M,,*56
$GPRMC,155351.000,A,4309.0612,N,07727.0073,W,23.36,1.43,050721,,,A*43
$GPGGA,155351.250,4309.0628,N,07727.0072,W,1,06,1.50,153.1,M,-34.4,M,,*57
$GPRMC,155351.500,A,4309.0644,N,07727.0072,W,23.42,1.02,050721,,,A*42
$GPGGA,155351.750,4309.0661,N,07727.0072,W,1,06,1.50,152.7,M,-34.4,M,,*58
$GPRMC,155352.000,A,4309.0677,N,07727.0071,W,23.23,1.52,050721,,,A*45
$GPGGA,155352.250,4309.0693,N,07727.0071,W,1,06,1.50,152.3,M,-34.4,M,,*54
$GPRMC,155352.500,A,4309.0709,N,07727.0070,W,23.14,1.52,050721,,,A*4D
$GPGGA,155352.750,4309.0725,N,07727.0070,W,1,06,1.50,152.0,M,-34.4,M,,*5F
$GPRMC,155353.000,A,4309.0741,N,07727.0069,W,23.00,1.65,050721,,,A*4C
$GPGGA,155353.250,4309.0757,N,07727.0068,W,1,06,1.50,151.7,M,-34.4,M,,*53
$GPRMC,155353.500,A,4309.0773,N,07727.0068,W,22.70,1.67,050721,,,A*4D
$GPGGA,155353.750,4309.0788,N,07727.0067,W,1,06,1.50,151.3,M,-34.4,M,,*5F
$GPRMC,155354.000,A,4309.0803,N,07727.0066,W,22.07,2.09,050721,,,A*42
$GPGGA,155354.250,4309.0818,N,07727.0065,W,1,06,1.50,150.9,M,-34.4,M,,*52
$GPRMC,155354.500,A,4309.0833,N,07727.0064,W,21.22,2.54,050721,,,A*4A
$GPGGA,155354.750,4309.0847,N,07727.0063,W,1,06,1.50,150.5,M,-34.4,M,,*57
$GPRMC,155355.000,A,4309.0861,N,07727.0063,W,20.48,2.56,050721,,,A*41
$GPGGA,155355.250,4309.0875,N,07727.0062,W,1,06,1.50,150.0,M,-34.4,M,,*56
$GPRMC,155355.500,A,4309.0889,N,07727.0061,W,19.91,2.24,050721,,,A*4B
$GPGGA,155355.750,4309.0903,N,07727.0061,W,1,06,1.50,149.6,M,-34.4,M,,*5E
$GPRMC,155356.000,A,4309.0916,N,07727.0060,W,19.48,2.60,050721,,,A*4F
$GPGGA,155356.250,4309.0929,N,07727.0059,W,1,07,1.20,149.8,M,-34.4,M,,*53
$GPRMC,155356.500,A,4309.0940,N,07727.0057,W,19.38,2.38,050721,,,A*47
$GPGGA,155356.750,4309.0952,N,07727.0056,W,1,07,1.20,151.3,M,-34.4,M,,*57
$GPRMC,155357.000,A,4309.0965,N,07727.0055,W,19.42,1.66,050721,,,A*43
$GPGGA,155357.250,4309.0978,N,07727.0054,W,1,07,1.20,151.8,M,-34.4,M,,*52
$GPRMC,155357.500,A,4309.0991,N,07727.0054,W,19.46,1.01,050721,,,A*49
$GPGGA,155357.750,4309.1004,N,07727.0053,W,1,07,1.20,152.2,M,-34.4,M,,*5A
$GPRMC,155358.000,A,4309.1017,N,07727.0053,W,19.47,1.14,050721,,,A*47
$GPGGA,155358.250,4309.1029,N,07727.0052,W,1,07,1.20,152.5,M,-34.4,M,,*59
$GPRMC,155358.500,A,4309.1042,N,07727.0053,W,19.39,0.84,050721,,,A*43
$GPGGA,155358.750,4309.1055,N,07727.0052,W,1,07,1.20,152.7,M,-34.4,M,,*55
$GPRMC,155359.000,A,4309.1069,N,07727.0052,W,19.41,1.14,050721,,,A*48
$GPGGA,155359.250,4309.1082,N,07727.0051,W,1,07,1.20,152.8,M,-34.4,M,,*57
$GPRMC,155359.500,A,4309.1096,N,07727.0051,W,19.67,0.75,050721,,,A*4C
$GPGGA,155359.750,4309.1109,N,07727.0050,W,1,07,1.20,153.0,M,-34.4,M,,*58
$GPRMC,155400.000,A,4309.1122,N,07727.0049,W,19.59,1.21,050721,,,A*48
$GPGGA,155400.250,4309.1135,N,07727.0048,W,1,07,1.20,153.0,M,-34.4,M,,*50
$GPRMC,155400.500,A,4309.1149,N,07727.0048,W,19.51,1.14,050721,,,A*4F
$GPGGA,155400.750,4309.1162,N,07727.0047,W,1,07,1.20,153.0,M,-34.4,M,,*58
$GPRMC,155401.000,A,4309.1176,N,07727.0046,W,19.67,1.37,050721,,,A*4D
$GPGGA,155401.250,4309.1191,N,07727.0045,W,1,07,1.20,152.9,M,-34.4,M,,*5A
$GPRMC,155401.500,A,4309.1205,N,07727.0045,W,19.93,1.86,050721,,,A*4D
$GPGGA,155401.750,4309.1219,N,07727.0044,W,1,07,1.20,152.8,M,-34.4,M,,*5C
$GPRMC,155402.000,A,4309.1233,N,07727.0044,W,20.05,1.11,050721,,,A*44
$GPGGA,155402.250,4309.1247,N,07727.0044,W,1,07,1.20,152.6,M,-34.4,M,,*5F
$GPRMC,155402.500,A,4309.1260,N,07727.0043,W,19.50,0.57,050721,,,A*49
$GPGGA,155402.750,4309.1272,N,07727.0042,W,1,07,1.20,152.7,M,-34.4,M,,*5B
$GPRMC,155403.000,A,4309.1284,N,07727.0040,W,18.37,1.76,050721,,,A*46
$GPGGA,155403.250,4309.1296,N,07727.0039,W,1,07,1.20,153.1,M,-34.4,M,,*5E
$GPRMC,155403.500,A,4309.1306,N,07727.0038,W,16.90,2.73,050721,,,A*42
$GPGGA,155403.750,4309.1318,N,07727.0036,W,1,07,1.20,153.2,M,-34.4,M,,*50
$GPRMC,155404.000,A,4309.1329,N,07727.0034,W,15.67,3.65,050721,,,A*4C
$GPGGA,155404.250,4309.1339,N,07727.0032,W,1,07,1.20,153.1,M,-34.4,M,,*56
$GPRMC,155404.500,A,4309.1351,N,07727.0030,W,14.49,3.93,050721,,,A*46
$GPGGA,155404.750,4309.1361,N,07727.0029,W,1,07,1.20,153.2,M,-34.4,M,,*57
$GPRMC,155405.000,A,4309.1371,N,07727.0029,W,13.47,2.61,050721,,,A*4D
$GPGGA,155405.250,4309.1380,N,07727.0028,W,1,07,1.20,153.4,M,-34.4,M,,*5B
$GPRMC,155405.500,A,4309.1389,N,07727.0028,W,12.08,1.54,050721,,,A*41
$GPGGA,155405.750,4309.1397,N,07727.0028,W,1,07,1.20,153.4,M,-34.4,M,,*58
$GPRMC,155406.000,A,4309.1404,N,07727.0027,W,10.72,1.71,050721,,,A*42
$GPGGA,155406.250,4309.1410,N,07727.0026,W,1,07,1.20,153.4,M,-34.4,M,,*58
$GPRMC,155406.500,A,4309.1416,N,07727.0026,W,9.11,1.66,050721,,,A*7E
$GPGGA,155406.750,4309.1422,N,07727.0026,W,1,07,1.20,153.5,M,-34.4,M,,*5D
$GPRMC,155407.000,A,4309.1427,N,07727.0026,W,7.99,0.68,050721,,,A*79
$GPGGA,155407.250,4309.1431,N,07727.0026,W,1,07,1.20,153.5,M,-34.4,M,,*5B
$GPRMC,155407.500,A,4309.1435,N,07727.0026,W,7.00,0.15,050721,,,A*75
$GPGGA,155407.750,4309.1440,N,07727.0026,W,1,07,1.20,153.5,M,-34.4,M,,*58
$GPRMC,155408.000,A,4309.1443,N,07727.0026,W,6.25,1.15,050721,,,A*79
$GPGGA,155408.250,4309.1447,N,07727.0026,W,1,07,1.20,153.6,M,-34.4,M,,*56
$GPRMC,155408.500,A,4309.1451,N,07727.0026,W,5.71,0.85,050721,,,A*75
$GPGGA,155408.750,4309.1455,N,07727.0026,W,1,07,1.20,153.6,M,-34.4,M,,*50
$GPRMC,155409.000,A,4309.1459,N,07727.0026,W,5.65,0.53,050721,,,A*77
$GPGGA,155409.250,4309.1462,N,07727.0026,W,1,07,1.20,153.6,M,-34.4,M,,*50
$GPRMC,155409.500,A,4309.1466,N,07727.0026,W,5.60,357.45,050721,,,A*7D
$GPGGA,155409.750,4309.1470,N,07727.0027,W,1,07,1.20,153.8,M,-34.4,M,,*59
$GPRMC,155410.000,A,4309.1475,N,07727.0029,W,6.08,349.11,050721,,,A*7E
$GPGGA,155410.250,4309.1479,N,07727.0031,W,1,07,1.20,153.9,M,-34.4,M,,*5B
$GPRMC,155410.500,A,4309.1482,N,07727.0034,W,6.22,342.22,050721,,,A*7C
$GPGGA,155410.750,4309.1486,N,07727.0036,W,1,07,1.20,154.2,M,-34.4,M,,*55
$GPRMC,155411.000,A,4309.1489,N,07727.0039,W,6.25,336.12,050721,,,A*79
$GPGGA,155411.250,4309.1493,N,07727.0043,W,1,07,1.20,154.6,M,-34.4,M,,*53
$GPRMC,155411.500,A,4309.1496,N,07727.0049,W,7.04,327.14,050721,,,A*71
$GPGGA,155411.750,4309.1500,N,07727.0054,W,1,07,1.20,154.9,M,-34.4,M,,*54
$GPRMC,155412.000,A,4309.1502,N,07727.0061,W,7.33,318.01,050721,,,A*7D
$GPGGA,155412.250,4309.1505,N,07727.0067,W,1,07,1.20,155.1,M,-34.4,M,,*5E
$GPRMC,155412.500,A,4309.1510,N,07727.0075,W,8.02,311.31,050721,,,A*79
$GPGGA,155412.750,4309.1513,N,07727.0082,W,1,07,1.20,155.5,M,-34.4,M,,*53
$GPRMC,155413.000,A,4309.1515,N,07727.0091,W,8.72,300.37,050721,,,A*73
$GPGGA,155413.250,4309.1516,N,07727.0101,W,1,07,1.20,156.0,M,-34.4,M,,*5E
$GPRMC,155413.500,A,4309.1518,N,07727.0112,W,9.92,288.81,050721,,,A*72
$GPGGA,155413.750,4309.1519,N,07727.0122,W,1,07,1.17,156.3,M,-34.4,M,,*52
$GPRMC,155414.000,A,4309.1520,N,07727.0132,W,10.54,280.97,050721,,,A*44
$GPGGA,155414.250,4309.1520,N,07727.0142,W,1,07,1.20,156.5,M,-34.4,M,,*5E
$GPRMC,155414.500,A,4309.1520,N,07727.0153,W,11.45,273.43,050721,,,A*42
$GPGGA,155414.750,4309.1520,N,07727.0164,W,1,07,1.20,156.7,M,-34.4,M,,*5D
$GPRMC,155415.000,A,4309.1521,N,07727.0175,W,11.73,270.85,050721,,,A*4F
$GPGGA,155415.250,4309.1521,N,07727.0187,W,1,07,1.20,156.7,M,-34.4,M,,*55
$GPRMC,155415.500,A,4309.1521,N,07727.0200,W,12.21,267.83,050721,,,A*4F
$GPGGA,155415.750,4309.1520,N,07727.0212,W,1,07,1.20,156.7,M,-34.4,M,,*5E
$GPRMC,155416.000,A,4309.1520,N,07727.0226,W,12.79,266.44,050721,,,A*4B
$GPGGA,155416.250,4309.1519,N,07727.0239,W,1,07,1.20,157.0,M,-34.4,M,,*5D
$GPRMC,155416.500,A,4309.1518,N,07727.0252,W,13.41,264.72,050721,,,A*4B
$GPGGA,155416.750,4309.1518,N,07727.0266,W,1,07,1.20,157.3,M,-34.4,M,,*50
$GPRMC,155417.000,A,4309.1518,N,07727.0281,W,13.76,265.44,050721,,,A*41
$GPGGA,155417.250,4309.1519,N,07727.0295,W,1,07,1.20,157.6,M,-34.4,M,,*5C
$GPRMC,155417.500,A,4309.1521,N,07727.0311,W,13.95,267.57,050721,,,A*4B
$GPGGA,155417.750,4309.1522,N,07727.0326,W,1,07,1.20,158.0,M,-34.4,M,,*51
$GPRMC,155418.000,A,4309.1523,N,07727.0341,W,14.40,268.73,050721,,,A*40
$GPGGA,155418.250,4309.1524,N,07727.0356,W,1,07,1.20,158.6,M,-34.4,M,,*5C
$GPRMC,155418.500,A,4309.1524,N,07727.0372,W,14.77,269.07,050721,,,A*44
$GPGGA,155418.750,4309.1525,N,07727.0387,W,1,07,1.20,159.0,M,-34.4,M,,*53
$GPRMC,155419.000,A,4309.1526,N,07727.0402,W,14.86,270.00,050721,,,A*43
$GPGGA,155419.250,4309.1527,N,07727.0416,W,1,07,1.20,159.3,M,-34.4,M,,*59
$GPRMC,155419.500,A,4309.1528,N,07727.0431,W,14.89,270.86,050721,,,A*49
$GPGGA,155419.750,4309.1529,N,07727.0446,W,1,07,1.20,159.7,M,-34.4,M,,*53
$GPRMC,155420.000,A,4309.1529,N,07727.0460,W,14.95,271.37,050721,,,A*45
$GPGGA,155420.250,4309.1531,N,07727.0475,W,1,07,1.20,160.2,M,-34.4,M,,*5A
$GPRMC,155420.500,A,4309.1531,N,07727.0489,W,14.91,270.56,050721,,,A*4C
$GPGGA,155420.750,4309.1531,N,07727.0503,W,1,07,1.17,160.8,M,-34.4,M,,*51
$GPRMC,155421.000,A,4309.1531,N,07727.0517,W,14.88,270.31,050721,,,A*47
$GPGGA,155421.250,4309.1531,N,07727.0531,W,1,07,1.20,161.4,M,-34.4,M,,*5D
$GPRMC,155421.500,A,4309.1530,N,07727.0545,W,14.89,269.44,050721,,,A*4F
$GPGGA,155421.750,4309.1529,N,07727.0558,W,1,07,1.20,161.9,M,-34.4,M,,*53
$GPRMC,155422.000,A,4309.1529,N,07727.0573,W,14.89,268.76,050721,,,A*44
$GPGGA,155422.250,4309.1529,N,07727.0588,W,1,07,1.20,162.1,M,-34.4,M,,*53
$GPRMC,155422.500,A,4309.1529,N,07727.0602,W,14.93,267.95,050721,,,A*4D
