Vers 81
USE_SERIAL_FEEDBACK=true
DEVELOPMENT_MODE=false
USE_RMC_ONLY=false

$GPRMC,160958.000,A,4308.2840,N,07726.2536,W,0.21,246.68,130821,,,A*7C
$GPGGA,160958.250,4308.2849,N,07726.2540,W,1,04,1.64,88.7,M,-34.4,M,,*6B
$GPRMC,160958.500,A,4308.2857,N,07726.2544,W,0.22,280.81,130821,,,A*74
$GPGGA,160958.750,4308.2864,N,07726.2548,W,1,04,1.64,93.4,M,-34.4,M,,*60
$GPRMC,160959.000,A,4308.2871,N,07726.2552,W,0.21,262.74,130821,,,A*76
$GPGGA,160959.250,4308.2877,N,07726.2555,W,1,04,1.64,97.5,M,-34.4,M,,*6F
$GPRMC,160959.500,A,4308.2881,N,07726.2558,W,0.17,245.97,130821,,,A*7B
$GPGGA,160959.750,4308.2887,N,07726.2561,W,1,04,1.64,101.1,M,-34.4,M,,*58
$GPRMC,161000.000,A,4308.2891,N,07726.2564,W,0.15,277.99,130821,,,A*79
$GPGGA,161000.250,4308.2896,N,07726.2567,W,1,04,1.64,104.7,M,-34.4,M,,*5C
$GPRMC,161000.500,A,4308.2902,N,07726.2570,W,0.21,310.11,130821,,,A*75
$GPGGA,161000.750,4308.2906,N,07726.2573,W,1,04,1.64,108.2,M,-34.4,M,,*5D
$GPRMC,161001.000,A,4308.2910,N,07726.2575,W,0.18,302.89,130821,,,A*7F
$GPGGA,161001.250,4308.2913,N,07726.2577,W,1,04,1.64,110.7,M,-34.4,M,,*55
$GPRMC,161001.500,A,4308.2915,N,07726.2579,W,0.19,308.23,130821,,,A*78
$GPGGA,161001.750,4308.2918,N,07726.2581,W,1,04,1.64,112.8,M,-34.4,M,,*5F
$GPRMC,161002.000,A,4308.2920,N,07726.2582,W,0.14,348.92,130821,,,A*7F
$GPGGA,161002.250,4308.2931,N,07726.2591,W,1,05,2.82,118.9,M,-34.4,M,,*52
$GPRMC,161002.500,A,4308.2936,N,07726.2595,W,0.15,28.47,130821,,,A*47
$GPGGA,161002.750,4308.2940,N,07726.2597,W,1,05,1.52,122.8,M,-34.4,M,,*51
$GPRMC,161003.000,A,4308.2943,N,07726.2599,W,0.14,31.83,130821,,,A*4C
$GPGGA,161003.250,4308.2944,N,07726.2601,W,1,05,1.52,124.8,M,-34.4,M,,*5B
$GPRMC,161003.500,A,4308.2945,N,07726.2602,W,0.08,9.13,130821,,,A*71
$GPGGA,161003.750,4308.2946,N,07726.2603,W,1,05,2.82,125.9,M,-34.4,M,,*50
$GPRMC,161004.000,A,4308.2947,N,07726.2604,W,0.06,70.43,130821,,,A*42
$GPGGA,161004.250,4308.2949,N,07726.2606,W,1,05,1.52,127.6,M,-34.4,M,,*5B
$GPRMC,161004.500,A,4308.2951,N,07726.2608,W,0.04,27.51,130821,,,A*4F
$GPGGA,161004.750,4308.2952,N,07726.2609,W,1,05,1.52,128.5,M,-34.4,M,,*57
$GPRMC,161005.000,A,4308.2954,N,07726.2610,W,0.12,340.40,130821,,,A*72
$GPGGA,161005.250,4308.2956,N,07726.2612,W,1,05,1.52,130.4,M,-34.4,M,,*55
$GPRMC,161005.500,A,4308.2958,N,07726.2614,W,0.18,343.59,130821,,,A*7E
$GPGGA,161005.750,4308.2959,N,07726.2615,W,1,05,1.52,132.1,M,-34.4,M,,*5F
$GPRMC,161006.000,A,4308.2961,N,07726.2616,W,0.18,339.27,130821,,,A*74
$GPGGA,161006.250,4308.2962,N,07726.2617,W,1,05,1.52,133.4,M,-34.4,M,,*57
$GPRMC,161006.500,A,4308.2962,N,07726.2618,W,0.12,298.69,130821,,,A*76
$GPGGA,161006.750,4308.2964,N,07726.2619,W,1,05,1.52,134.7,M,-34.4,M,,*5E
$GPRMC,161007.000,A,4308.2965,N,07726.2620,W,0.12,308.78,130821,,,A*76
$GPGGA,161007.250,4308.2966,N,07726.2622,W,1,05,1.52,136.0,M,-34.4,M,,*55
$GPRMC,161007.500,A,4308.2967,N,07726.2623,W,0.11,294.73,130821,,,A*7E
$GPGGA,161007.750,4308.2968,N,07726.2624,W,1,05,1.52,137.3,M,-34.4,M,,*5A
$GPRMC,161008.000,A,4308.2970,N,07726.2624,W,0.13,317.56,130821,,,A*7A
$GPGGA,161008.250,4308.2971,N,07726.2625,W,1,05,1.52,138.4,M,-34.4,M,,*51
$GPRMC,161008.500,A,4308.2971,N,07726.2626,W,0.21,313.26,130821,,,A*7E
$GPGGA,161008.750,4308.2972,N,07726.2626,W,1,05,1.52,139.1,M,-34.4,M,,*50
$GPRMC,161009.000,A,4308.2972,N,07726.2627,W,0.09,322.42,130821,,,A*72
$GPGGA,161009.250,4308.2974,N,07726.2627,W,1,05,1.52,140.2,M,-34.4,M,,*5E
$GPRMC,161009.500,A,4308.2974,N,07726.2628,W,0.12,3.18,130821,,,A*7B
$GPGGA,161009.750,4308.2975,N,07726.2628,W,1,05,2.81,140.7,M,-34.4,M,,*5D
$GPRMC,161010.000,A,4308.2976,N,07726.2628,W,0.10,340.90,130821,,,A*72
$GPGGA,161010.250,4308.2976,N,07726.2628,W,1,05,1.52,141.0,M,-34.4,M,,*58
$GPRMC,161010.500,A,4308.2976,N,07726.2628,W,0.13,325.25,130821,,,A*79
$GPGGA,161010.750,4308.2977,N,07726.2628,W,1,05,1.52,141.0,M,-34.4,M,,*5C
$GPRMC,161011.000,A,4308.2977,N,07726.2628,W,0.13,312.65,130821,,,A*7C
$GPGGA,161011.250,4308.2977,N,07726.2628,W,1,05,1.52,141.0,M,-34.4,M,,*58
$GPRMC,161011.500,A,4308.2976,N,07726.2627,W,0.04,323.43,130821,,,A*77
$GPGGA,161011.750,4308.2977,N,07726.2627,W,1,05,1.52,141.1,M,-34.4,M,,*53
$GPRMC,161012.000,A,4308.2976,N,07726.2626,W,0.03,230.31,130821,,,A*71
$GPGGA,161012.250,4308.2977,N,07726.2626,W,1,05,1.52,141.1,M,-34.4,M,,*54
$GPRMC,161012.500,A,4308.2977,N,07726.2626,W,0.07,50.80,130821,,,A*4F
$GPGGA,161012.750,4308.2978,N,07726.2626,W,1,05,1.52,141.3,M,-34.4,M,,*5C
$GPRMC,161013.000,A,4308.2978,N,07726.2626,W,0.08,355.87,130821,,,A*7A
$GPGGA,161013.250,4308.2978,N,07726.2625,W,1,05,2.81,141.5,M,-34.4,M,,*50
$GPRMC,161013.500,A,4308.2978,N,07726.2625,W,0.08,52.75,130821,,,A*45
$GPGGA,161013.750,4308.2978,N,07726.2624,W,1,05,1.52,141.4,M,-34.4,M,,*58
$GPRMC,161014.000,A,4308.2977,N,07726.2624,W,0.10,92.96,130821,,,A*41
$GPGGA,161014.250,4308.2977,N,07726.2623,W,1,05,1.52,141.2,M,-34.4,M,,*54
$GPRMC,161014.500,A,4308.2977,N,07726.2622,W,0.17,83.67,130821,,,A*4B
$GPGGA,161014.750,4308.2977,N,07726.2622,W,1,05,1.52,141.1,M,-34.4,M,,*53
$GPRMC,161015.000,A,4308.2977,N,07726.2622,W,0.13,92.46,130821,,,A*48
$GPGGA,161015.250,4308.2976,N,07726.2622,W,1,05,1.52,140.8,M,-34.4,M,,*5E
$GPRMC,161015.500,A,4308.2976,N,07726.2621,W,0.13,102.49,130821,,,A*78
$GPGGA,161015.750,4308.2976,N,07726.2620,W,1,05,1.52,140.4,M,-34.4,M,,*55
$GPRMC,161016.000,A,4308.2975,N,07726.2620,W,0.13,83.36,130821,,,A*4C
$GPGGA,161016.250,4308.2975,N,07726.2620,W,1,05,1.52,140.1,M,-34.4,M,,*55
$GPRMC,161016.500,A,4308.2975,N,07726.2620,W,0.01,64.22,130821,,,A*46
$GPGGA,161016.750,4308.2974,N,07726.2620,W,1,05,1.52,139.8,M,-34.4,M,,*56
$GPRMC,161017.000,A,4308.2974,N,07726.2619,W,0.12,139.68,130821,,,A*7C
$GPGGA,161017.250,4308.2974,N,07726.2619,W,1,05,1.52,139.8,M,-34.4,M,,*58
$GPRMC,161017.500,A,4308.2974,N,07726.2619,W,0.14,125.44,130821,,,A*7C
$GPGGA,161017.750,4308.2974,N,07726.2619,W,1,05,1.52,139.7,M,-34.4,M,,*52
$GPRMC,161018.000,A,4308.2974,N,07726.2619,W,0.14,136.69,130821,,,A*7B
$GPGGA,161018.250,4308.2974,N,07726.2619,W,1,05,1.52,139.9,M,-34.4,M,,*56
$GPRMC,161018.500,A,4308.2974,N,07726.2618,W,0.21,144.12,130821,,,A*70
$GPGGA,161018.750,4308.2974,N,07726.2618,W,1,05,1.52,140.1,M,-34.4,M,,*54
$GPRMC,161019.000,A,4308.2974,N,07726.2619,W,0.22,150.51,130821,,,A*74
$GPGGA,161019.250,4308.2975,N,07726.2619,W,1,05,1.52,140.3,M,-34.4,M,,*52
$GPRMC,161019.500,A,4308.2976,N,07726.2619,W,0.13,161.71,130821,,,A*71
$GPGGA,161019.750,4308.2976,N,07726.2619,W,1,05,1.52,140.6,M,-34.4,M,,*51
$GPRMC,161020.000,A,4308.2977,N,07726.2620,W,0.10,154.11,130821,,,A*76
$GPGGA,161020.250,4308.2977,N,07726.2619,W,1,06,1.40,140.9,M,-34.4,M,,*50
$GPRMC,161020.500,A,4308.2977,N,07726.2619,W,0.11,118.84,130821,,,A*7C
$GPGGA,161020.750,4308.2978,N,07726.2619,W,1,06,1.40,141.1,M,-34.4,M,,*53
$GPRMC,161021.000,A,4308.2978,N,07726.2619,W,0.14,81.16,130821,,,A*48
$GPGGA,161021.250,4308.2978,N,07726.2619,W,1,06,1.40,141.3,M,-34.4,M,,*55
$GPRMC,161021.500,A,4308.2978,N,07726.2619,W,0.16,102.32,130821,,,A*73
$GPGGA,161021.750,4308.2978,N,07726.2619,W,1,06,1.40,141.6,M,-34.4,M,,*55
$GPRMC,161022.000,A,4308.2978,N,07726.2619,W,0.13,151.31,130821,,,A*75
$GPGGA,161022.250,4308.2978,N,07726.2620,W,1,06,1.40,141.9,M,-34.4,M,,*56
$GPRMC,161022.500,A,4308.2979,N,07726.2620,W,0.05,106.84,130821,,,A*70
$GPGGA,161022.750,4308.2980,N,07726.2620,W,1,06,1.40,142.2,M,-34.4,M,,*5C
$GPRMC,161023.000,A,4308.2980,N,07726.2620,W,0.03,123.03,130821,,,A*7C
$GPGGA,161023.250,4308.2980,N,07726.2621,W,1,06,1.40,142.5,M,-34.4,M,,*5E
$GPRMC,161023.500,A,4308.2981,N,07726.2622,W,0.14,294.74,130821,,,A*73
$GPGGA,161023.750,4308.2981,N,07726.2622,W,1,06,1.40,142.8,M,-34.4,M,,*54
$GPRMC,161024.000,A,4308.2981,N,07726.2622,W,0.12,305.93,130821,,,A*77
$GPGGA,161024.250,4308.2981,N,07726.2622,W,1,06,1.40,143.1,M,-34.4,M,,*5E
$GPRMC,161024.500,A,4308.2981,N,07726.2622,W,0.08,314.79,130821,,,A*7D
$GPGGA,161024.750,4308.2981,N,07726.2623,W,1,06,1.40,143.4,M,-34.4,M,,*5F
$GPRMC,161025.000,A,4308.2981,N,07726.2623,W,0.02,272.70,130821,,,A*7A
$GPGGA,161025.250,4308.2981,N,07726.2623,W,1,06,1.40,143.7,M,-34.4,M,,*58
$GPRMC,161025.500,A,4308.2981,N,07726.2624,W,0.11,231.03,130821,,,A*79
$GPGGA,161025.750,4308.2981,N,07726.2625,W,1,06,1.40,144.1,M,-34.4,M,,*5A
$GPRMC,161026.000,A,4308.2982,N,07726.2625,W,0.09,253.20,130821,,,A*71
$GPGGA,161026.250,4308.2982,N,07726.2625,W,1,07,1.38,144.4,M,-34.4,M,,*54
$GPRMC,161026.500,A,4308.2982,N,07726.2625,W,0.04,93.44,130821,,,A*45
$GPGGA,161026.750,4308.2982,N,07726.2625,W,1,07,1.38,144.7,M,-34.4,M,,*52
$GPRMC,161027.000,A,4308.2983,N,07726.2626,W,0.05,77.36,130821,,,A*4D
$GPGGA,161027.250,4308.2983,N,07726.2626,W,1,07,1.38,144.9,M,-34.4,M,,*5A
$GPRMC,161027.500,A,4308.2983,N,07726.2626,W,0.10,38.03,130821,,,A*41
$GPGGA,161027.750,4308.2984,N,07726.2626,W,1,07,1.38,145.1,M,-34.4,M,,*51
$GPRMC,161028.000,A,4308.2984,N,07726.2627,W,0.08,356.68,130821,,,A*72
$GPGGA,161028.250,4308.2983,N,07726.2627,W,1,07,1.81,145.2,M,-34.4,M,,*5C
$GPRMC,161028.500,A,4308.2983,N,07726.2627,W,0.07,293.62,130821,,,A*7D
$GPGGA,161028.750,4308.2983,N,07726.2628,W,1,07,1.38,145.3,M,-34.4,M,,*55
$GPRMC,161029.000,A,4308.2984,N,07726.2628,W,0.09,316.90,130821,,,A*7E
$GPGGA,161029.250,4308.2984,N,07726.2628,W,1,07,1.38,145.5,M,-34.4,M,,*50
$GPRMC,161029.500,A,4308.2984,N,07726.2629,W,0.12,308.55,130821,,,A*76
$GPGGA,161029.750,4308.2984,N,07726.2629,W,1,07,1.38,145.6,M,-34.4,M,,*57
$GPRMC,161030.000,A,4308.2984,N,07726.2629,W,0.07,347.19,130821,,,A*7C
$GPGGA,161030.250,4308.2984,N,07726.2629,W,1,07,1.81,145.6,M,-34.4,M,,*58
$GPRMC,161030.500,A,4308.2984,N,07726.2629,W,0.04,173.06,130821,,,A*71
$GPGGA,161030.750,4308.2984,N,07726.2629,W,1,07,1.38,145.6,M,-34.4,M,,*5F
$GPRMC,161031.000,A,4308.2984,N,07726.2629,W,0.04,263.94,130821,,,A*7C
$GPGGA,161031.250,4308.2984,N,07726.2629,W,1,07,1.38,145.6,M,-34.4,M,,*5B
$GPRMC,161031.500,A,4308.2984,N,07726.2629,W,0.12,255.38,130821,,,A*7D
$GPGGA,161031.750,4308.2984,N,07726.2629,W,1,07,1.38,145.6,M,-34.4,M,,*5E
$GPRMC,161032.000,A,4308.2984,N,07726.2629,W,0.15,270.34,130821,,,A*77
$GPGGA,161032.250,4308.2984,N,07726.2630,W,1,07,1.38,145.6,M,-34.4,M,,*50
$GPRMC,161032.500,A,4308.2984,N,07726.2630,W,0.18,254.26,130821,,,A*72
$GPGGA,161032.750,4308.2984,N,07726.2630,W,1,07,1.38,145.7,M,-34.4,M,,*54
$GPRMC,161033.000,A,4308.2984,N,07726.2630,W,0.12,237.69,130821,,,A*72
$GPGGA,161033.250,4308.2984,N,07726.2630,W,1,07,1.38,145.7,M,-34.4,M,,*50
$GPRMC,161033.500,A,4308.2984,N,07726.2630,W,0.15,203.11,130821,,,A*78
$GPGGA,161033.750,4308.2984,N,07726.2630,W,1,07,1.38,145.7,M,-34.4,M,,*55
$GPRMC,161034.000,A,4308.2984,N,07726.2630,W,0.16,206.27,130821,,,A*79
$GPGGA,161034.250,4308.2984,N,07726.2630,W,1,07,1.38,145.7,M,-34.4,M,,*57
$GPRMC,161034.500,A,4308.2984,N,07726.2630,W,0.19,168.12,130821,,,A*7E
$GPGGA,161034.750,4308.2984,N,07726.2630,W,1,07,1.38,145.7,M,-34.4,M,,*52
$GPRMC,161035.000,A,4308.2983,N,07726.2630,W,0.15,154.80,130821,,,A*75
$GPGGA,161035.250,4308.2983,N,07726.2630,W,1,07,1.38,145.7,M,-34.4,M,,*51
$GPRMC,161035.500,A,4308.2983,N,07726.2630,W,0.09,181.23,130821,,,A*7C
$GPGGA,161035.750,4308.2983,N,07726.2630,W,1,07,1.38,145.7,M,-34.4,M,,*54
$GPRMC,161036.000,A,4308.2983,N,07726.2630,W,0.04,166.31,130821,,,A*7D
$GPGGA,161036.250,4308.2983,N,07726.2630,W,1,07,1.38,145.7,M,-34.4,M,,*52
$GPRMC,161036.500,A,4308.2983,N,07726.2630,W,0.12,206.11,130821,,,A*78
$GPGGA,161036.750,4308.2983,N,07726.2630,W,1,07,1.38,145.7,M,-34.4,M,,*57
$GPRMC,161037.000,A,4308.2983,N,07726.2630,W,0.18,217.00,130821,,,A*76
$GPGGA,161037.250,4308.2983,N,07726.2631,W,1,07,1.38,145.7,M,-34.4,M,,*52
$GPRMC,161037.500,A,4308.2983,N,07726.2631,W,0.06,219.99,130821,,,A*73
$GPGGA,161037.750,4308.2983,N,07726.2631,W,1,07,1.38,145.7,M,-34.4,M,,*57
$GPRMC,161038.000,A,4308.2983,N,07726.2631,W,0.01,216.00,130821,,,A*71
$GPGGA,161038.250,4308.2983,N,07726.2631,W,1,07,1.38,145.7,M,-34.4,M,,*5D
$GPRMC,161038.500,A,4308.2983,N,07726.2631,W,0.06,160.84,130821,,,A*7D
$GPGGA,161038.750,4308.2983,N,07726.2631,W,1,07,1.38,145.7,M,-34.4,M,,*58
$GPRMC,161039.000,A,4308.2983,N,07726.2631,W,0.10,165.24,130821,,,A*71
$GPGGA,161039.250,4308.2983,N,07726.2631,W,1,07,1.38,145.7,M,-34.4,M,,*5C
$GPRMC,161039.500,A,4308.2983,N,07726.2631,W,0.12,176.16,130821,,,A*75
$GPGGA,161039.750,4308.2982,N,07726.2631,W,1,07,1.38,145.7,M,-34.4,M,,*58
$GPRMC,161040.000,A,4308.2982,N,07726.2631,W,0.08,185.30,130821,,,A*7C
$GPGGA,161040.250,4308.2982,N,07726.2631,W,1,07,1.38,145.7,M,-34.4,M,,*53
$GPRMC,161040.500,A,4308.2982,N,07726.2631,W,0.10,38.47,130821,,,A*47
$GPGGA,161040.750,4308.2982,N,07726.2631,W,1,07,1.38,145.7,M,-34.4,M,,*56
$GPRMC,161041.000,A,4308.2983,N,07726.2631,W,0.12,11.46,130821,,,A*4A
$GPGGA,161041.250,4308.2983,N,07726.2631,W,1,07,1.80,145.7,M,-34.4,M,,*50
$GPRMC,161041.500,A,4308.2983,N,07726.2631,W,0.25,346.82,130821,,,A*72
$GPGGA,161041.750,4308.2983,N,07726.2631,W,1,07,1.80,145.7,M,-34.4,M,,*55
$GPRMC,161042.000,A,4308.2983,N,07726.2631,W,0.31,326.56,130821,,,A*7E
$GPGGA,161042.250,4308.2983,N,07726.2631,W,1,07,1.38,145.7,M,-34.4,M,,*50
$GPRMC,161042.500,A,4308.2984,N,07726.2631,W,0.27,310.30,130821,,,A*7E
$GPGGA,161042.750,4308.2984,N,07726.2631,W,1,07,1.38,145.7,M,-34.4,M,,*52
$GPRMC,161043.000,A,4308.2984,N,07726.2631,W,0.22,317.11,130821,,,A*7B
$GPGGA,161043.250,4308.2984,N,07726.2632,W,1,07,1.38,145.7,M,-34.4,M,,*55
$GPRMC,161043.500,A,4308.2984,N,07726.2632,W,0.25,347.44,130821,,,A*7F
$GPGGA,161043.750,4308.2984,N,07726.2632,W,1,07,1.80,145.7,M,-34.4,M,,*53
$GPRMC,161044.000,A,4308.2984,N,07726.2632,W,0.26,329.44,130821,,,A*76
$GPGGA,161044.250,4308.2985,N,07726.2632,W,1,07,1.38,145.7,M,-34.4,M,,*53
$GPRMC,161044.500,A,4308.2985,N,07726.2632,W,0.29,326.79,130821,,,A*7C
$GPGGA,161044.750,4308.2985,N,07726.2632,W,1,07,1.38,145.7,M,-34.4,M,,*56
$GPRMC,161045.000,A,4308.2985,N,07726.2632,W,0.20,348.27,130821,,,A*72
$GPGGA,161045.250,4308.2985,N,07726.2632,W,1,07,1.80,145.7,M,-34.4,M,,*51
$GPRMC,161045.500,A,4308.2985,N,07726.2632,W,0.14,336.98,130821,,,A*7D
$GPGGA,161045.750,4308.2985,N,07726.2633,W,1,07,1.38,145.7,M,-34.4,M,,*56
$GPRMC,161046.000,A,4308.2986,N,07726.2633,W,0.12,308.41,130821,,,A*76
$GPGGA,161046.250,4308.2986,N,07726.2633,W,1,07,1.38,145.7,M,-34.4,M,,*53
$GPRMC,161046.500,A,4308.2986,N,07726.2633,W,0.08,20.10,130821,,,A*45
$GPGGA,161046.750,4308.2986,N,07726.2633,W,1,07,1.38,145.7,M,-34.4,M,,*56
$GPRMC,161047.000,A,4308.2986,N,07726.2633,W,0.13,11.35,130821,,,A*4E
$GPGGA,161047.250,4308.2986,N,07726.2633,W,1,07,1.80,145.7,M,-34.4,M,,*51
$GPRMC,161047.500,A,4308.2986,N,07726.2633,W,0.19,10.18,130821,,,A*4F
$GPGGA,161047.750,4308.2986,N,07726.2633,W,1,07,1.80,145.7,M,-34.4,M,,*54
$GPRMC,161048.000,A,4308.2986,N,07726.2633,W,0.21,343.56,130821,,,A*71
$GPGGA,161048.250,4308.2986,N,07726.2633,W,1,07,1.38,145.7,M,-34.4,M,,*5D
$GPRMC,161048.500,A,4308.2987,N,07726.2633,W,0.24,331.46,130821,,,A*74
$GPGGA,161048.750,4308.2987,N,07726.2633,W,1,07,1.38,145.7,M,-34.4,M,,*59
$GPRMC,161049.000,A,4308.2987,N,07726.2633,W,0.22,335.73,130821,,,A*74
$GPGGA,161049.250,4308.2987,N,07726.2633,W,1,07,1.38,145.7,M,-34.4,M,,*5D
$GPRMC,161049.500,A,4308.2987,N,07726.2633,W,0.23,339.59,130821,,,A*74
$GPGGA,161049.750,4308.2987,N,07726.2633,W,1,07,1.38,145.7,M,-34.4,M,,*58
$GPRMC,161050.000,A,4308.2988,N,07726.2633,W,0.26,338.33,130821,,,A*7E
$GPGGA,161050.250,4308.2988,N,07726.2634,W,1,07,1.38,145.7,M,-34.4,M,,*5D
$GPRMC,161050.500,A,4308.2988,N,07726.2634,W,0.24,352.65,130821,,,A*71
$GPGGA,161050.750,4308.2988,N,07726.2634,W,1,07,1.80,145.7,M,-34.4,M,,*5B
$GPRMC,161051.000,A,4308.2988,N,07726.2634,W,0.22,349.42,130821,,,A*7C
$GPGGA,161051.250,4308.2988,N,07726.2634,W,1,07,1.80,145.7,M,-34.4,M,,*5F
$GPRMC,161051.500,A,4308.2989,N,07726.2634,W,0.16,9.75,130821,,,A*7C
$GPGGA,161051.750,4308.2989,N,07726.2634,W,1,07,1.80,145.7,M,-34.4,M,,*5B
$GPRMC,161052.000,A,4308.2989,N,07726.2634,W,0.15,23.96,130821,,,A*4C
$GPGGA,161052.250,4308.2989,N,07726.2634,W,1,07,1.38,145.7,M,-34.4,M,,*5E
$GPRMC,161052.500,A,4308.2989,N,07726.2634,W,0.15,339.99,130821,,,A*7E
$GPGGA,161052.750,4308.2989,N,07726.2634,W,1,07,1.38,145.7,M,-34.4,M,,*5B
$GPRMC,161053.000,A,4308.2989,N,07726.2634,W,0.13,324.24,130821,,,A*76
$GPGGA,161053.250,4308.2989,N,07726.2634,W,1,07,1.38,145.7,M,-34.4,M,,*5F
$GPRMC,161053.500,A,4308.2989,N,07726.2634,W,0.18,334.09,130821,,,A*76
$GPGGA,161053.750,4308.2989,N,07726.2634,W,1,07,1.38,145.7,M,-34.4,M,,*5A
$GPRMC,161054.000,A,4308.2990,N,07726.2634,W,0.19,323.37,130821,,,A*76
$GPGGA,161054.250,4308.2990,N,07726.2634,W,1,07,1.38,145.7,M,-34.4,M,,*50
$GPRMC,161054.500,A,4308.2990,N,07726.2634,W,0.14,331.22,130821,,,A*79
$GPGGA,161054.750,4308.2990,N,07726.2634,W,1,07,1.38,145.7,M,-34.4,M,,*55
$GPRMC,161055.000,A,4308.2990,N,07726.2634,W,0.18,357.04,130821,,,A*75
$GPGGA,161055.250,4308.2990,N,07726.2634,W,1,07,1.80,145.7,M,-34.4,M,,*52
$GPRMC,161055.500,A,4308.2990,N,07726.2634,W,0.17,19.30,130821,,,A*41
$GPGGA,161055.750,4308.2990,N,07726.2634,W,1,07,1.38,145.7,M,-34.4,M,,*54
$GPRMC,161056.000,A,4308.2990,N,07726.2634,W,0.16,355.28,130821,,,A*74
$GPGGA,161056.250,4308.2991,N,07726.2634,W,1,07,1.80,145.7,M,-34.4,M,,*50
$GPRMC,161056.500,A,4308.2991,N,07726.2634,W,0.14,356.59,130821,,,A*77
$GPGGA,161056.750,4308.2991,N,07726.2634,W,1,07,1.80,145.7,M,-34.4,M,,*55
$GPRMC,161057.000,A,4308.2991,N,07726.2634,W,0.16,0.00,130821,,,A*7D
$GPGGA,161057.250,4308.2991,N,07726.2634,W,1,07,1.80,145.7,M,-34.4,M,,*51
$GPRMC,161057.500,A,4308.2991,N,07726.2634,W,0.13,43.10,130821,,,A*4B
$GPGGA,161057.750,4308.2991,N,07726.2634,W,1,07,1.38,145.7,M,-34.4,M,,*57
$GPRMC,161058.000,A,4308.2991,N,07726.2634,W,0.18,35.51,130821,,,A*4E
$GPGGA,161058.250,4308.2991,N,07726.2634,W,1,07,1.38,145.7,M,-34.4,M,,*5D
$GPRMC,161058.500,A,4308.2991,N,07726.2634,W,0.16,56.76,130821,,,A*45
$GPGGA,161058.750,4308.2992,N,07726.2634,W,1,07,1.38,145.7,M,-34.4,M,,*5B
$GPRMC,161059.000,A,4308.2992,N,07726.2634,W,0.15,53.52,130821,,,A*42
$GPGGA,161059.250,4308.2992,N,07726.2633,W,1,07,1.38,145.7,M,-34.4,M,,*58
$GPRMC,161059.500,A,4308.2992,N,07726.2633,W,0.14,41.48,130821,,,A*49
$GPGGA,161059.750,4308.2992,N,07726.2633,W,1,07,1.38,145.7,M,-34.4,M,,*5D
$GPRMC,161100.000,A,4308.2992,N,07726.2633,W,0.09,64.64,130821,,,A*44
$GPGGA,161100.250,4308.2992,N,07726.2633,W,1,07,1.38,145.7,M,-34.4,M,,*55
$GPRMC,161100.500,A,4308.2992,N,07726.2633,W,0.06,208.55,130821,,,A*74
$GPGGA,161100.750,4308.2992,N,07726.2633,W,1,07,1.38,145.7,M,-34.4,M,,*50
$GPRMC,161101.000,A,4308.2992,N,07726.2633,W,0.04,212.86,130821,,,A*77
$GPGGA,161101.250,4308.2992,N,07726.2633,W,1,07,1.38,145.7,M,-34.4,M,,*54
$GPRMC,161101.500,A,4308.2992,N,07726.2633,W,0.09,207.98,130821,,,A*74
$GPGGA,161101.750,4308.2992,N,07726.2633,W,1,07,1.38,145.7,M,-34.4,M,,*51
$GPRMC,161102.000,A,4308.2992,N,07726.2633,W,0.04,199.99,130821,,,A*7A
$GPGGA,161102.250,4308.2992,N,07726.2633,W,1,07,1.38,145.7,M,-34.4,M,,*57
$GPRMC,161102.500,A,4308.2992,N,07726.2633,W,0.15,256.32,130821,,,A*7E
$GPGGA,161102.750,4308.2992,N,07726.2634,W,1,07,1.38,145.7,M,-34.4,M,,*55
$GPRMC,161103.000,A,4308.2992,N,07726.2634,W,0.14,253.07,130821,,,A*7F
$GPGGA,161103.250,4308.2992,N,07726.2634,W,1,07,1.38,145.7,M,-34.4,M,,*51
$GPRMC,161103.500,A,4308.2992,N,07726.2634,W,0.07,244.95,130821,,,A*75
$GPGGA,161103.750,4308.2991,N,07726.2634,W,1,07,1.38,145.7,M,-34.4,M,,*57
$GPRMC,161104.000,A,4308.2991,N,07726.2634,W,0.05,222.60,130821,,,A*7C
$GPGGA,161104.250,4308.2991,N,07726.2634,W,1,07,1.38,145.7,M,-34.4,M,,*55
$GPRMC,161104.500,A,4308.2991,N,07726.2634,W,0.07,158.94,130821,,,A*7E
$GPGGA,161104.750,4308.2991,N,07726.2634,W,1,07,1.38,145.7,M,-34.4,M,,*50
$GPRMC,161105.000,A,4308.2991,N,07726.2634,W,0.04,180.48,130821,,,A*7D
$GPGGA,161105.250,4308.2991,N,07726.2634,W,1,07,1.38,145.7,M,-34.4,M,,*54
$GPRMC,161105.500,A,4308.2991,N,07726.2634,W,0.07,262.37,130821,,,A*7C
$GPGGA,161105.750,4308.2991,N,07726.2634,W,1,07,1.38,145.7,M,-34.4,M,,*51
$GPRMC,161106.000,A,4308.2991,N,07726.2634,W,0.05,267.77,130821,,,A*79
$GPGGA,161106.250,4308.2991,N,07726.2634,W,1,07,1.38,145.7,M,-34.4,M,,*57
$GPRMC,161106.500,A,4308.2991,N,07726.2634,W,0.05,338.64,130821,,,A*75
$GPGGA,161106.750,4308.2991,N,07726.2634,W,1,07,1.38,145.7,M,-34.4,M,,*52
$GPRMC,161107.000,A,4308.2991,N,07726.2634,W,0.07,312.41,130821,,,A*7C
$GPGGA,161107.250,4308.2991,N,07726.2634,W,1,07,1.38,145.7,M,-34.4,M,,*56
$GPRMC,161107.500,A,4308.2991,N,07726.2635,W,0.13,273.15,130821,,,A*7A
$GPGGA,161107.750,4308.2991,N,07726.2635,W,1,07,1.38,145.7,M,-34.4,M,,*52
$GPRMC,161108.000,A,4308.2991,N,07726.2635,W,0.05,351.64,130821,,,A*70
$GPGGA,161106.250,4308.2992,N,07726.2635,W,1,07,1.80,145.7,M,-34.4,M,,*56
$GPRMC,161106.500,A,4308.2993,N,07726.2635,W,0.06,341.33,130821,,,A*79
$GPGGA,161106.750,4308.2993,N,07726.2635,W,1,07,1.38,145.8,M,-34.4,M,,*5E
$GPRMC,161107.000,A,4308.2993,N,07726.2635,W,0.07,298.17,130821,,,A*7F
$GPGGA,161107.250,4308.2994,N,07726.2635,W,1,07,1.38,145.8,M,-34.4,M,,*5D
$GPRMC,161107.500,A,4308.2994,N,07726.2635,W,0.04,332.33,130821,,,A*79
$GPGGA,161107.750,4308.2994,N,07726.2635,W,1,07,1.38,145.8,M,-34.4,M,,*58
$GPRMC,161108.000,A,4308.2994,N,07726.2635,W,0.10,60.30,130821,,,A*41
$GPGGA,161108.250,4308.2995,N,07726.2635,W,1,07,1.38,145.8,M,-34.4,M,,*53
$GPRMC,161108.500,A,4308.2995,N,07726.2635,W,0.13,29.66,130821,,,A*48
$GPGGA,161108.750,4308.2995,N,07726.2635,W,1,07,1.38,145.7,M,-34.4,M,,*59
$GPRMC,161109.000,A,4308.2995,N,07726.2635,W,0.11,16.07,130821,,,A*45
$GPGGA,161109.250,4308.2995,N,07726.2635,W,1,07,1.38,145.7,M,-34.4,M,,*5D
$GPRMC,161109.500,A,4308.2995,N,07726.2635,W,0.12,34.78,130821,,,A*4B
$GPGGA,161109.750,4308.2995,N,07726.2635,W,1,07,1.38,145.6,M,-34.4,M,,*59
$GPRMC,161110.000,A,4308.2995,N,07726.2635,W,0.10,25.36,130821,,,A*4E
$GPGGA,161110.250,4308.2996,N,07726.2635,W,1,07,1.38,145.5,M,-34.4,M,,*54
$GPRMC,161110.500,A,4308.2996,N,07726.2635,W,0.12,4.13,130821,,,A*7E
$GPGGA,161110.750,4308.2996,N,07726.2635,W,1,07,1.80,145.5,M,-34.4,M,,*52
$GPRMC,161111.000,A,4308.2996,N,07726.2635,W,0.11,8.01,130821,,,A*76
$GPGGA,161111.250,4308.2996,N,07726.2635,W,1,07,1.80,145.4,M,-34.4,M,,*57
$GPRMC,161111.500,A,4308.2995,N,07726.2634,W,0.09,76.38,130821,,,A*4B
$GPGGA,161111.750,4308.2995,N,07726.2635,W,1,07,1.38,145.3,M,-34.4,M,,*55
$GPRMC,161112.000,A,4308.2995,N,07726.2635,W,0.08,63.13,130821,,,A*40
$GPGGA,161112.250,4308.2995,N,07726.2635,W,1,07,1.38,145.2,M,-34.4,M,,*52
$GPRMC,161112.500,A,4308.2995,N,07726.2635,W,0.03,255.97,130821,,,A*75
$GPGGA,161112.750,4308.2995,N,07726.2635,W,1,07,1.38,145.1,M,-34.4,M,,*54
$GPRMC,161113.000,A,4308.2995,N,07726.2635,W,0.07,229.82,130821,,,A*7A
$GPGGA,161113.250,4308.2995,N,07726.2635,W,1,07,1.38,145.0,M,-34.4,M,,*51
$GPRMC,161113.500,A,4308.2995,N,07726.2636,W,0.03,220.73,130821,,,A*7F
$GPGGA,161113.750,4308.2995,N,07726.2636,W,1,07,1.38,144.8,M,-34.4,M,,*5E
$GPRMC,161114.000,A,4308.2995,N,07726.2635,W,0.09,62.99,130821,,,A*44
$GPGGA,161114.250,4308.2995,N,07726.2636,W,1,07,1.38,144.7,M,-34.4,M,,*53
$GPRMC,161114.500,A,4308.2995,N,07726.2636,W,0.06,35.99,130821,,,A*4F
$GPGGA,161114.750,4308.2995,N,07726.2636,W,1,07,1.38,144.6,M,-34.4,M,,*57
$GPRMC,161115.000,A,4308.2995,N,07726.2636,W,0.06,263.41,130821,,,A*7F
$GPGGA,161115.250,4308.2995,N,07726.2637,W,1,07,1.38,144.6,M,-34.4,M,,*52
$GPRMC,161115.500,A,4308.2994,N,07726.2637,W,0.14,258.38,130821,,,A*7F
$GPGGA,161115.750,4308.2995,N,07726.2637,W,1,07,1.38,144.5,M,-34.4,M,,*54
$GPRMC,161116.000,A,4308.2995,N,07726.2638,W,0.15,263.50,130821,,,A*70
$GPGGA,161116.250,4308.2995,N,07726.2638,W,1,07,1.38,144.5,M,-34.4,M,,*5D
$GPRMC,161116.500,A,4308.2995,N,07726.2639,W,0.26,268.08,130821,,,A*72
$GPGGA,161116.750,4308.2995,N,07726.2639,W,1,07,1.38,144.4,M,-34.4,M,,*58
$GPRMC,161117.000,A,4308.2995,N,07726.2639,W,0.17,274.84,130821,,,A*7D
$GPGGA,161117.250,4308.2995,N,07726.2639,W,1,07,1.38,144.3,M,-34.4,M,,*5B
$GPRMC,161117.500,A,4308.2995,N,07726.2639,W,0.08,319.02,130821,,,A*72
$GPGGA,161117.750,4308.2995,N,07726.2639,W,1,07,1.38,144.3,M,-34.4,M,,*5E
$GPRMC,161118.000,A,4308.2994,N,07726.2639,W,0.07,260.58,130821,,,A*76
$GPGGA,161118.250,4308.2995,N,07726.2639,W,1,07,1.38,144.3,M,-34.4,M,,*54
$GPRMC,161118.500,A,4308.2995,N,07726.2638,W,0.08,51.93,130821,,,A*4B
$GPGGA,161118.750,4308.2994,N,07726.2638,W,1,07,1.38,144.3,M,-34.4,M,,*51
$GPRMC,161119.000,A,4308.2994,N,07726.2637,W,0.22,84.26,130821,,,A*4F
$GPGGA,161119.250,4308.2994,N,07726.2637,W,1,07,1.37,144.3,M,-34.4,M,,*55
$GPRMC,161119.500,A,4308.2994,N,07726.2637,W,0.12,90.42,130821,,,A*4E
$GPGGA,161119.750,4308.2994,N,07726.2637,W,1,07,1.38,144.3,M,-34.4,M,,*5F
$GPRMC,161120.000,A,4308.2994,N,07726.2637,W,0.08,117.17,130821,,,A*74
$GPGGA,161120.250,4308.2994,N,07726.2637,W,1,07,1.38,144.3,M,-34.4,M,,*50
$GPRMC,161120.500,A,4308.2994,N,07726.2637,W,0.06,154.32,130821,,,A*7F
$GPGGA,161120.750,4308.2994,N,07726.2637,W,1,07,1.38,144.3,M,-34.4,M,,*55
$GPRMC,161121.000,A,4308.2994,N,07726.2637,W,0.04,168.85,130821,,,A*7A
$GPGGA,161121.250,4308.2994,N,07726.2637,W,1,07,1.38,144.2,M,-34.4,M,,*50
$GPRMC,161121.500,A,4308.2994,N,07726.2637,W,0.12,144.69,130821,,,A*74
$GPGGA,161121.750,4308.2994,N,07726.2637,W,1,07,1.37,144.2,M,-34.4,M,,*5A
$GPRMC,161122.000,A,4308.2994,N,07726.2637,W,0.15,129.62,130821,,,A*75
$GPGGA,161122.250,4308.2994,N,07726.2637,W,1,07,1.38,144.2,M,-34.4,M,,*53
$GPRMC,161122.500,A,4308.2994,N,07726.2636,W,0.14,134.15,130821,,,A*7C
$GPGGA,161122.750,4308.2994,N,07726.2636,W,1,07,1.38,144.2,M,-34.4,M,,*57
$GPRMC,161123.000,A,4308.2994,N,07726.2636,W,0.12,148.17,130821,,,A*77
$GPGGA,161123.250,4308.2993,N,07726.2636,W,1,07,1.38,144.2,M,-34.4,M,,*54
$GPRMC,161123.500,A,4308.2993,N,07726.2636,W,0.09,134.80,130821,,,A*7A
$GPGGA,161123.750,4308.2993,N,07726.2636,W,1,07,1.38,144.2,M,-34.4,M,,*51
$GPRMC,161124.000,A,4308.2993,N,07726.2636,W,0.07,77.96,130821,,,A*47
$GPGGA,161124.250,4308.2993,N,07726.2636,W,1,07,1.38,144.2,M,-34.4,M,,*53
$GPRMC,161124.500,A,4308.2993,N,07726.2636,W,0.06,343.23,130821,,,A*79
$GPGGA,161124.750,4308.2993,N,07726.2636,W,1,07,1.37,144.2,M,-34.4,M,,*59
$GPRMC,161125.000,A,4308.2994,N,07726.2636,W,0.06,333.68,130821,,,A*72
$GPGGA,161125.250,4308.2994,N,07726.2636,W,1,07,1.38,144.2,M,-34.4,M,,*55
$GPRMC,161125.500,A,4308.2994,N,07726.2636,W,0.11,307.63,130821,,,A*7D
$GPGGA,161125.750,4308.2994,N,07726.2636,W,1,07,1.38,144.2,M,-34.4,M,,*50
$GPRMC,161126.000,A,4308.2994,N,07726.2636,W,0.12,319.04,130821,,,A*76
$GPGGA,161126.250,4308.2994,N,07726.2636,W,1,07,1.38,144.2,M,-34.4,M,,*56
$GPRMC,161126.500,A,4308.2994,N,07726.2636,W,0.14,359.75,130821,,,A*77
$GPGGA,161126.750,4308.2994,N,07726.2636,W,1,07,1.79,144.2,M,-34.4,M,,*56
$GPRMC,161127.000,A,4308.2994,N,07726.2636,W,0.20,4.14,130821,,,A*78
$GPGGA,161127.250,4308.2994,N,07726.2636,W,1,07,1.79,144.2,M,-34.4,M,,*52
$GPRMC,161127.500,A,4308.2994,N,07726.2636,W,0.22,328.47,130821,,,A*74
$GPGGA,161127.750,4308.2995,N,07726.2636,W,1,07,1.38,144.2,M,-34.4,M,,*53
$GPRMC,161128.000,A,4308.2995,N,07726.2637,W,0.28,333.41,130821,,,A*78
$GPGGA,161128.250,4308.2995,N,07726.2637,W,1,07,1.38,144.2,M,-34.4,M,,*58
$GPRMC,161128.500,A,4308.2995,N,07726.2637,W,0.29,348.54,130821,,,A*74
$GPGGA,161128.750,4308.2995,N,07726.2637,W,1,07,1.79,144.2,M,-34.4,M,,*58
$GPRMC,161129.000,A,4308.2995,N,07726.2637,W,0.29,328.20,130821,,,A*75
$GPGGA,161129.250,4308.2996,N,07726.2637,W,1,07,1.37,144.2,M,-34.4,M,,*55
$GPRMC,161129.500,A,4308.2996,N,07726.2637,W,0.32,331.77,130821,,,A*73
$GPGGA,161129.750,4308.2996,N,07726.2637,W,1,07,1.37,144.2,M,-34.4,M,,*50
$GPRMC,161130.000,A,4308.2996,N,07726.2638,W,0.38,319.79,130821,,,A*7F
$GPGGA,161130.250,4308.2997,N,07726.2638,W,1,07,1.38,144.2,M,-34.4,M,,*5C
$GPRMC,161130.500,A,4308.2997,N,07726.2638,W,0.31,331.68,130821,,,A*78
$GPGGA,161130.750,4308.2997,N,07726.2638,W,1,07,1.37,144.2,M,-34.4,M,,*56
$GPRMC,161131.000,A,4308.2997,N,07726.2639,W,0.23,329.17,130821,,,A*7F
$GPGGA,161131.250,4308.2997,N,07726.2639,W,1,07,1.38,144.2,M,-34.4,M,,*5C
$GPRMC,161131.500,A,4308.2997,N,07726.2639,W,0.17,328.03,130821,,,A*79
$GPGGA,161131.750,4308.2997,N,07726.2639,W,1,07,1.37,144.2,M,-34.4,M,,*56
$GPRMC,161132.000,A,4308.2997,N,07726.2639,W,0.23,325.21,130821,,,A*75
$GPGGA,161132.250,4308.2997,N,07726.2639,W,1,07,1.38,144.2,M,-34.4,M,,*5F
$GPRMC,161132.500,A,4308.2998,N,07726.2639,W,0.25,322.92,130821,,,A*76
$GPGGA,161132.750,4308.2998,N,07726.2640,W,1,07,1.38,144.2,M,-34.4,M,,*5B
$GPRMC,161133.000,A,4308.2998,N,07726.2640,W,0.27,321.39,130821,,,A*7C
$GPGGA,161133.250,4308.2998,N,07726.2640,W,1,07,1.38,144.2,M,-34.4,M,,*5F
$GPRMC,161133.500,A,4308.2998,N,07726.2640,W,0.27,321.12,130821,,,A*70
$GPGGA,161133.750,4308.2998,N,07726.2640,W,1,07,1.38,144.2,M,-34.4,M,,*5A
$GPRMC,161134.000,A,4308.2999,N,07726.2640,W,0.31,323.62,130821,,,A*71
$GPGGA,161134.250,4308.2999,N,07726.2641,W,1,07,1.38,144.2,M,-34.4,M,,*58
$GPRMC,161134.500,A,4308.2999,N,07726.2641,W,0.33,325.16,130821,,,A*72
$GPGGA,161134.750,4308.2999,N,07726.2641,W,1,07,1.37,144.2,M,-34.4,M,,*52
$GPRMC,161135.000,A,4308.2999,N,07726.2641,W,0.34,327.42,130821,,,A*72
$GPGGA,161135.250,4308.3000,N,07726.2641,W,1,07,1.38,144.2,M,-34.4,M,,*51
$GPRMC,161135.500,A,4308.3000,N,07726.2641,W,0.40,331.41,130821,,,A*78
$GPGGA,161135.750,4308.3000,N,07726.2641,W,1,07,1.79,144.2,M,-34.4,M,,*51
$GPRMC,161136.000,A,4308.3000,N,07726.2641,W,0.39,334.10,130821,,,A*71
$GPGGA,161136.250,4308.3001,N,07726.2641,W,1,07,1.38,144.2,M,-34.4,M,,*53
$GPRMC,161136.500,A,4308.3001,N,07726.2642,W,0.30,333.82,130821,,,A*73
$GPGGA,161136.750,4308.3001,N,07726.2642,W,1,07,1.38,144.2,M,-34.4,M,,*55
$GPRMC,161137.000,A,4308.3001,N,07726.2642,W,0.23,333.40,130821,,,A*7B
$GPGGA,161137.250,4308.3001,N,07726.2642,W,1,07,1.37,144.2,M,-34.4,M,,*5E
$GPRMC,161137.500,A,4308.3001,N,07726.2642,W,0.16,334.51,130821,,,A*7F
$GPGGA,161137.750,4308.3002,N,07726.2642,W,1,07,1.79,144.2,M,-34.4,M,,*52
$GPRMC,161138.000,A,4308.3002,N,07726.2642,W,0.15,337.73,130821,,,A*76
$GPGGA,161138.250,4308.3002,N,07726.2642,W,1,07,1.37,144.2,M,-34.4,M,,*52
$GPRMC,161138.500,A,4308.3002,N,07726.2642,W,0.18,342.68,130821,,,A*76
$GPGGA,161138.750,4308.3002,N,07726.2642,W,1,07,1.38,144.2,M,-34.4,M,,*58
$GPRMC,161139.000,A,4308.3002,N,07726.2641,W,0.17,348.72,130821,,,A*7F
$GPGGA,161139.250,4308.3002,N,07726.2641,W,1,07,1.38,144.2,M,-34.4,M,,*5F
$GPRMC,161139.500,A,4308.3002,N,07726.2641,W,0.18,73.61,130821,,,A*4C
$GPGGA,161139.750,4308.3002,N,07726.2641,W,1,07,1.37,144.2,M,-34.4,M,,*55
$GPRMC,161140.000,A,4308.3002,N,07726.2641,W,0.11,87.94,130821,,,A*4F
$GPGGA,161140.250,4308.3002,N,07726.2641,W,1,07,1.37,144.2,M,-34.4,M,,*5E
$GPRMC,161140.500,A,4308.3002,N,07726.2641,W,0.16,114.28,130821,,,A*71
$GPGGA,161140.750,4308.3002,N,07726.2640,W,1,07,1.38,144.2,M,-34.4,M,,*55
$GPRMC,161141.000,A,4308.3002,N,07726.2640,W,0.12,131.39,130821,,,A*77
$GPGGA,161141.250,4308.3002,N,07726.2640,W,1,07,1.37,144.2,M,-34.4,M,,*5E
$GPRMC,161141.500,A,4308.3002,N,07726.2640,W,0.15,108.94,130821,,,A*78
$GPGGA,161141.750,4308.3002,N,07726.2640,W,1,07,1.38,144.2,M,-34.4,M,,*54
$GPRMC,161142.000,A,4308.3002,N,07726.2640,W,0.18,94.31,130821,,,A*48
$GPGGA,161142.250,4308.3002,N,07726.2640,W,1,07,1.38,144.2,M,-34.4,M,,*52
$GPRMC,161142.500,A,4308.3002,N,07726.2640,W,0.15,109.56,130821,,,A*74
$GPGGA,161142.750,4308.3002,N,07726.2639,W,1,07,1.38,144.2,M,-34.4,M,,*59
$GPRMC,161143.000,A,4308.3002,N,07726.2639,W,0.18,84.90,130821,,,A*4D
$GPGGA,161143.250,4308.3002,N,07726.2639,W,1,07,1.37,144.2,M,-34.4,M,,*52
$GPRMC,161143.500,A,4308.3002,N,07726.2639,W,0.17,84.40,130821,,,A*4A
$GPGGA,161143.750,4308.3002,N,07726.2639,W,1,07,1.37,144.2,M,-34.4,M,,*57
$GPRMC,161144.000,A,4308.3002,N,07726.2639,W,0.11,93.07,130821,,,A*4B
$GPGGA,161144.250,4308.3002,N,07726.2639,W,1,07,1.37,144.2,M,-34.4,M,,*55
$GPRMC,161144.500,A,4308.3002,N,07726.2638,W,0.16,95.38,130821,,,A*42
$GPGGA,161144.750,4308.3002,N,07726.2638,W,1,07,1.37,144.2,M,-34.4,M,,*51
$GPRMC,161145.000,A,4308.3002,N,07726.2638,W,0.11,103.88,130821,,,A*74
$GPGGA,161145.250,4308.3002,N,07726.2638,W,1,07,1.37,144.2,M,-34.4,M,,*55
$GPRMC,161145.500,A,4308.3002,N,07726.2638,W,0.09,92.85,130821,,,A*4C
$GPGGA,161145.750,4308.3002,N,07726.2638,W,1,07,1.37,144.2,M,-34.4,M,,*50
$GPRMC,161146.000,A,4308.3002,N,07726.2638,W,0.07,98.03,130821,,,A*40
$GPGGA,161146.250,4308.3002,N,07726.2638,W,1,07,1.37,144.2,M,-34.4,M,,*56
$GPRMC,161146.500,A,4308.3002,N,07726.2638,W,0.02,188.75,130821,,,A*71
$GPGGA,161146.750,4308.3002,N,07726.2638,W,1,07,1.37,144.2,M,-34.4,M,,*53
$GPRMC,161147.000,A,4308.3002,N,07726.2638,W,0.02,28.82,130821,,,A*46
$GPGGA,161147.250,4308.3002,N,07726.2638,W,1,07,1.37,144.2,M,-34.4,M,,*57
$GPRMC,161147.500,A,4308.3002,N,07726.2638,W,0.04,350.65,130821,,,A*70
$GPGGA,161147.750,4308.3002,N,07726.2638,W,1,07,1.79,144.2,M,-34.4,M,,*58
$GPRMC,161148.000,A,4308.3002,N,07726.2638,W,0.08,341.55,130821,,,A*75
$GPGGA,161148.250,4308.3002,N,07726.2638,W,1,07,1.37,144.2,M,-34.4,M,,*58
$GPRMC,161148.500,A,4308.3002,N,07726.2638,W,0.13,1.92,130821,,,A*76
$GPGGA,161148.750,4308.3002,N,07726.2638,W,1,07,1.79,144.2,M,-34.4,M,,*57
$GPRMC,161149.000,A,4308.3002,N,07726.2638,W,0.18,21.75,130821,,,A*42
$GPGGA,161149.250,4308.3002,N,07726.2638,W,1,07,1.37,144.2,M,-34.4,M,,*59
$GPRMC,161149.500,A,4308.3003,N,07726.2638,W,0.17,0.98,130821,,,A*79
$GPGGA,161149.750,4308.3003,N,07726.2638,W,1,07,1.79,144.2,M,-34.4,M,,*57
$GPRMC,161150.000,A,4308.3003,N,07726.2638,W,0.19,317.50,130821,,,A*7B
$GPGGA,161150.250,4308.3003,N,07726.2638,W,1,07,1.37,144.2,M,-34.4,M,,*50
$GPRMC,161150.500,A,4308.3003,N,07726.2638,W,0.06,339.20,130821,,,A*7B
$GPGGA,161150.750,4308.3003,N,07726.2638,W,1,07,1.79,144.2,M,-34.4,M,,*5F
$GPRMC,161151.000,A,4308.3003,N,07726.2638,W,0.09,295.63,130821,,,A*70
$GPGGA,161151.250,4308.3003,N,07726.2638,W,1,07,1.79,144.2,M,-34.4,M,,*5B
$GPRMC,161151.500,A,4308.3003,N,07726.2638,W,0.08,330.99,130821,,,A*7F
$GPGGA,161151.750,4308.3003,N,07726.2638,W,1,07,1.79,144.2,M,-34.4,M,,*5E
$GPRMC,161152.000,A,4308.3003,N,07726.2638,W,0.01,283.21,130821,,,A*7A
$GPGGA,161152.250,4308.3003,N,07726.2638,W,1,07,1.79,144.2,M,-34.4,M,,*58
$GPRMC,161152.500,A,4308.3003,N,07726.2638,W,0.01,27.61,130821,,,A*47
$GPGGA,161152.750,4308.3003,N,07726.2638,W,1,07,1.79,144.2,M,-34.4,M,,*5D
$GPRMC,161153.000,A,4308.3003,N,07726.2638,W,0.01,260.96,130821,,,A*7A
$GPGGA,161153.250,4308.3003,N,07726.2638,W,1,07,1.79,144.2,M,-34.4,M,,*59
$GPRMC,161153.500,A,4308.3003,N,07726.2638,W,0.01,230.15,130821,,,A*71
$GPGGA,161153.750,4308.3003,N,07726.2638,W,1,07,1.79,144.2,M,-34.4,M,,*5C
$GPRMC,161154.000,A,4308.3003,N,07726.2638,W,0.02,322.86,130821,,,A*78
$GPGGA,161154.250,4308.3003,N,07726.2638,W,1,07,1.79,144.2,M,-34.4,M,,*5E
$GPRMC,161154.500,A,4308.3003,N,07726.2638,W,0.03,344.52,130821,,,A*75
$GPGGA,161154.750,4308.3003,N,07726.2638,W,1,07,1.79,144.2,M,-34.4,M,,*5B
$GPRMC,161155.000,A,4308.3003,N,07726.2638,W,0.01,339.92,130821,,,A*75
$GPGGA,161155.250,4308.3003,N,07726.2638,W,1,07,1.79,144.2,M,-34.4,M,,*5F
$GPRMC,161155.500,A,4308.3003,N,07726.2638,W,0.02,276.78,130821,,,A*7D
$GPGGA,161155.750,4308.3003,N,07726.2638,W,1,07,1.79,144.2,M,-34.4,M,,*5A
$GPRMC,161156.000,A,4308.3003,N,07726.2638,W,0.03,163.63,130821,,,A*77
$GPGGA,161156.250,4308.3003,N,07726.2638,W,1,07,1.79,144.2,M,-34.4,M,,*5C
$GPRMC,161156.500,A,4308.3003,N,07726.2638,W,0.04,134.14,130821,,,A*77
$GPGGA,161156.750,4308.3003,N,07726.2638,W,1,07,1.79,144.2,M,-34.4,M,,*59
$GPRMC,161157.000,A,4308.3003,N,07726.2638,W,0.00,188.32,130821,,,A*74
$GPGGA,161157.250,4308.3003,N,07726.2638,W,1,07,1.79,144.2,M,-34.4,M,,*5D
$GPRMC,161157.500,A,4308.3003,N,07726.2638,W,0.01,353.26,130821,,,A*71
$GPGGA,161157.750,4308.3003,N,07726.2638,W,1,07,1.79,144.2,M,-34.4,M,,*58
$GPRMC,161158.000,A,4308.3003,N,07726.2638,W,0.01,357.58,130821,,,A*76
$GPGGA,161158.250,4308.3003,N,07726.2638,W,1,07,1.79,144.2,M,-34.4,M,,*52
$GPRMC,161158.500,A,4308.3003,N,07726.2638,W,0.00,35.24,130821,,,A*4E
$GPGGA,161158.750,4308.3003,N,07726.2638,W,1,07,1.79,144.2,M,-34.4,M,,*57
$GPRMC,161159.000,A,4308.3003,N,07726.2638,W,0.01,303.51,130821,,,A*7F
$GPGGA,161159.250,4308.3003,N,07726.2638,W,1,07,1.79,144.2,M,-34.4,M,,*53
$GPRMC,161159.500,A,4308.3003,N,07726.2638,W,0.02,312.34,130821,,,A*7A
$GPGGA,161159.750,4308.3003,N,07726.2638,W,1,07,1.79,144.2,M,-34.4,M,,*56
$GPRMC,161200.000,A,4308.3003,N,07726.2638,W,0.01,122.08,130821,,,A*7D
$GPGGA,161200.250,4308.3003,N,07726.2638,W,1,07,1.79,144.2,M,-34.4,M,,*5C
$GPRMC,161200.500,A,4308.3003,N,07726.2638,W,0.01,282.45,130821,,,A*78
$GPGGA,161200.750,4308.3003,N,07726.2638,W,1,07,1.79,144.2,M,-34.4,M,,*59
$GPRMC,161201.000,A,4308.3003,N,07726.2638,W,0.01,238.23,130821,,,A*7D
$GPGGA,161201.250,4308.3003,N,07726.2638,W,1,07,1.79,144.2,M,-34.4,M,,*5D
$GPRMC,161201.500,A,4308.3003,N,07726.2638,W,0.01,260.39,130821,,,A*7E
$GPGGA,161201.750,4308.3003,N,07726.2638,W,1,07,1.78,144.2,M,-34.4,M,,*59
$GPRMC,161202.000,A,4308.3003,N,07726.2638,W,0.01,257.34,130821,,,A*71
$GPGGA,161202.250,4308.3003,N,07726.2638,W,1,07,1.79,144.2,M,-34.4,M,,*5E
$GPRMC,161202.500,A,4308.3003,N,07726.2638,W,0.00,197.42,130821,,,A*7B
$GPGGA,161202.750,4308.3003,N,07726.2638,W,1,07,1.78,144.2,M,-34.4,M,,*5A
$GPRMC,161203.000,A,4308.3003,N,07726.2638,W,0.01,129.13,130821,,,A*7F
$GPGGA,161203.250,4308.3003,N,07726.2638,W,1,07,1.79,144.2,M,-34.4,M,,*5F
$GPRMC,161203.500,A,4308.3003,N,07726.2638,W,0.02,80.37,130821,,,A*4D
$GPGGA,161203.750,4308.3003,N,07726.2638,W,1,07,1.78,144.2,M,-34.4,M,,*5B
$GPRMC,161204.000,A,4308.3003,N,07726.2638,W,0.00,298.26,130821,,,A*76
$GPGGA,161204.250,4308.3003,N,07726.2638,W,1,07,1.78,144.2,M,-34.4,M,,*59
$GPRMC,161204.500,A,4308.3003,N,07726.2638,W,0.00,145.25,130821,,,A*73
$GPGGA,161204.750,4308.3003,N,07726.2638,W,1,07,1.78,144.2,M,-34.4,M,,*5C
$GPRMC,161205.000,A,4308.3003,N,07726.2638,W,0.00,0.00,130821,,,A*70
$GPGGA,161205.250,4308.3003,N,07726.2638,W,1,07,1.78,144.2,M,-34.4,M,,*58
$GPRMC,161205.500,A,4308.3003,N,07726.2638,W,0.02,333.18,130821,,,A*7D
$GPGGA,161205.750,4308.3003,N,07726.2638,W,1,07,1.78,144.2,M,-34.4,M,,*5D
$GPRMC,161206.000,A,4308.3003,N,07726.2638,W,0.00,332.75,130821,,,A*73
$GPGGA,161206.250,4308.3003,N,07726.2638,W,1,07,1.78,144.2,M,-34.4,M,,*5B
$GPRMC,161206.500,A,4308.3003,N,07726.2638,W,0.00,60.92,130821,,,A*4B
$GPGGA,161206.750,4308.3003,N,07726.2638,W,1,07,1.78,144.2,M,-34.4,M,,*5E
$GPRMC,161207.000,A,4308.3003,N,07726.2638,W,0.01,54.46,130821,,,A*40
$GPGGA,161207.250,4308.3003,N,07726.2638,W,1,07,1.78,144.2,M,-34.4,M,,*5A
$GPRMC,161207.500,A,4308.3003,N,07726.2638,W,0.01,344.75,130821,,,A*77
$GPGGA,161207.750,4308.3003,N,07726.2638,W,1,07,1.78,144.2,M,-34.4,M,,*5F
$GPRMC,161208.000,A,4308.3003,N,07726.2638,W,0.01,242.42,130821,,,A*7E
$GPGGA,161208.250,4308.3003,N,07726.2638,W,1,07,1.78,144.2,M,-34.4,M,,*55
$GPRMC,161208.500,A,4308.3003,N,07726.2638,W,0.00,327.12,130821,,,A*7D
$GPGGA,161208.750,4308.3003,N,07726.2638,W,1,07,1.78,144.2,M,-34.4,M,,*50
$GPRMC,161209.000,A,4308.3003,N,07726.2638,W,0.01,132.19,130821,,,A*75
$GPGGA,161209.250,4308.3003,N,07726.2638,W,1,07,1.78,144.2,M,-34.4,M,,*54
$GPRMC,161209.500,A,4308.3003,N,07726.2638,W,0.00,197.23,130821,,,A*77
$GPGGA,161209.750,4308.3003,N,07726.2638,W,1,07,1.78,144.2,M,-34.4,M,,*51
$GPRMC,161210.000,A,4308.3003,N,07726.2638,W,0.01,27.87,130821,,,A*4F
$GPGGA,161210.250,4308.3003,N,07726.2638,W,1,07,1.78,144.2,M,-34.4,M,,*5C
$GPRMC,161210.500,A,4308.3003,N,07726.2638,W,0.01,0.98,130821,,,A*71
$GPGGA,161210.750,4308.3003,N,07726.2638,W,1,07,1.78,144.2,M,-34.4,M,,*59
$GPRMC,161211.000,A,4308.3003,N,07726.2638,W,0.01,10.92,130821,,,A*4E
$GPGGA,161211.250,4308.3003,N,07726.2638,W,1,07,1.78,144.2,M,-34.4,M,,*5D
$GPRMC,161211.500,A,4308.3003,N,07726.2638,W,0.01,301.05,130821,,,A*76
$GPGGA,161211.750,4308.3003,N,07726.2638,W,1,07,1.78,144.2,M,-34.4,M,,*58
$GPRMC,161212.000,A,4308.3003,N,07726.2638,W,0.01,138.66,130821,,,A*7D
$GPGGA,161212.250,4308.3003,N,07726.2638,W,1,07,1.78,144.2,M,-34.4,M,,*5E
$GPRMC,161212.500,A,4308.3003,N,07726.2638,W,0.01,243.06,130821,,,A*71
$GPGGA,161212.750,4308.3003,N,07726.2638,W,1,07,1.78,144.3,M,-34.4,M,,*5A
$GPRMC,161213.000,A,4308.3003,N,07726.2638,W,0.01,94.70,130821,,,A*4C
$GPGGA,161213.250,4308.3003,N,07726.2638,W,1,07,1.78,144.3,M,-34.4,M,,*5E
$GPRMC,161213.500,A,4308.3003,N,07726.2638,W,0.02,243.19,130821,,,A*7D
$GPGGA,161213.750,4308.3003,N,07726.2638,W,1,07,1.78,144.3,M,-34.4,M,,*5B
$GPRMC,161214.000,A,4308.3003,N,07726.2638,W,0.01,143.00,130821,,,A*77
$GPGGA,161214.250,4308.3003,N,07726.2638,W,1,07,1.78,144.3,M,-34.4,M,,*59
$GPRMC,161214.500,A,4308.3003,N,07726.2638,W,0.01,191.35,130821,,,A*7B
$GPGGA,161214.750,4308.3003,N,07726.2638,W,1,07,1.78,144.3,M,-34.4,M,,*5C
$GPRMC,161215.000,A,4308.3003,N,07726.2638,W,0.01,63.05,130821,,,A*40
$GPGGA,161215.250,4308.3003,N,07726.2638,W,1,07,1.78,144.3,M,-34.4,M,,*58
$GPRMC,161215.500,A,4308.3003,N,07726.2638,W,0.00,11.62,130821,,,A*40
$GPGGA,161215.750,4308.3003,N,07726.2638,W,1,07,1.78,144.3,M,-34.4,M,,*5D
$GPRMC,161216.000,A,4308.3003,N,07726.2638,W,0.01,1.96,130821,,,A*7D
$GPGGA,161216.250,4308.3003,N,07726.2638,W,1,07,1.78,144.3,M,-34.4,M,,*5B
$GPRMC,161216.500,A,4308.3003,N,07726.2638,W,0.01,266.71,130821,,,A*72
$GPGGA,161216.750,4308.3003,N,07726.2638,W,1,07,1.78,144.3,M,-34.4,M,,*5E
$GPRMC,161217.000,A,4308.3003,N,07726.2638,W,0.01,247.85,130821,,,A*7E
$GPGGA,161217.250,4308.3003,N,07726.2638,W,1,07,1.78,144.3,M,-34.4,M,,*5A
$GPRMC,161217.500,A,4308.3003,N,07726.2638,W,0.01,162.89,130821,,,A*73
$GPGGA,161217.750,4308.3003,N,07726.2638,W,1,07,1.78,144.3,M,-34.4,M,,*5F
$GPRMC,161218.000,A,4308.3003,N,07726.2638,W,0.00,72.30,130821,,,A*4A
$GPGGA,161218.250,4308.3003,N,07726.2638,W,1,07,1.78,144.3,M,-34.4,M,,*55
$GPRMC,161218.500,A,4308.3003,N,07726.2638,W,0.01,259.25,130821,,,A*71
$GPGGA,161218.750,4308.3003,N,07726.2638,W,1,07,1.78,144.3,M,-34.4,M,,*50
$GPRMC,161219.000,A,4308.3003,N,07726.2638,W,0.00,342.83,130821,,,A*73
$GPGGA,161219.250,4308.3003,N,07726.2638,W,1,07,1.78,144.3,M,-34.4,M,,*54
$GPRMC,161219.500,A,4308.3003,N,07726.2638,W,0.02,69.39,130821,,,A*4F
$GPGGA,161219.750,4308.3003,N,07726.2638,W,1,07,1.78,144.3,M,-34.4,M,,*51
$GPRMC,161220.000,A,4308.3003,N,07726.2638,W,0.00,191.51,130821,,,A*7A
$GPGGA,161220.250,4308.3003,N,07726.2638,W,1,07,1.78,144.3,M,-34.4,M,,*5E
$GPRMC,161220.500,A,4308.3003,N,07726.2638,W,0.01,210.41,130821,,,A*75
$GPGGA,161220.750,4308.3003,N,07726.2638,W,1,07,1.78,144.3,M,-34.4,M,,*5B
$GPRMC,161221.000,A,4308.3003,N,07726.2638,W,0.01,316.28,130821,,,A*79
$GPGGA,161221.250,4308.3003,N,07726.2638,W,1,07,1.78,144.3,M,-34.4,M,,*5F
$GPRMC,161221.500,A,4308.3003,N,07726.2638,W,0.00,179.61,130821,,,A*7B
$GPGGA,161221.750,4308.3003,N,07726.2638,W,1,07,1.78,144.3,M,-34.4,M,,*5A
$GPRMC,161222.000,A,4308.3003,N,07726.2638,W,0.00,229.25,130821,,,A*7B
$GPGGA,161222.250,4308.3003,N,07726.2638,W,1,07,1.78,144.3,M,-34.4,M,,*5C
$GPRMC,161222.500,A,4308.3003,N,07726.2638,W,0.01,225.76,130821,,,A*75
$GPGGA,161222.750,4308.3003,N,07726.2638,W,1,07,1.78,144.3,M,-34.4,M,,*59
$GPRMC,161223.000,A,4308.3003,N,07726.2638,W,0.00,87.44,130821,,,A*4B
$GPGGA,161223.250,4308.3003,N,07726.2638,W,1,07,1.78,144.3,M,-34.4,M,,*5D
$GPRMC,161223.500,A,4308.3003,N,07726.2638,W,0.00,275.50,130821,,,A*74
$GPGGA,161223.750,4308.3003,N,07726.2638,W,1,07,1.78,144.3,M,-34.4,M,,*58
$GPRMC,161224.000,A,4308.3003,N,07726.2638,W,0.00,170.40,130821,,,A*71
$GPGGA,161224.250,4308.3003,N,07726.2638,W,1,07,1.78,144.3,M,-34.4,M,,*5A
$GPRMC,161224.500,A,4308.3003,N,07726.2638,W,0.01,206.14,130821,,,A*76
$GPGGA,161224.750,4308.3003,N,07726.2638,W,1,07,1.78,144.3,M,-34.4,M,,*5F
$GPRMC,161225.000,A,4308.3003,N,07726.2638,W,0.00,101.96,130821,,,A*7D
$GPGGA,161225.250,4308.3003,N,07726.2638,W,1,07,1.78,144.3,M,-34.4,M,,*5B
$GPRMC,161225.500,A,4308.3003,N,07726.2638,W,0.02,44.26,130821,,,A*41
$GPGGA,161225.750,4308.3003,N,07726.2638,W,1,07,1.78,144.3,M,-34.4,M,,*5E
$GPRMC,161226.000,A,4308.3003,N,07726.2638,W,0.00,81.92,130821,,,A*43
$GPGGA,161226.250,4308.3003,N,07726.2638,W,1,07,1.78,144.2,M,-34.4,M,,*59
$GPRMC,161226.500,A,4308.3003,N,07726.2638,W,0.02,256.69,130821,,,A*78
$GPGGA,161226.750,4308.3003,N,07726.2638,W,1,07,1.78,144.2,M,-34.4,M,,*5C
$GPRMC,161227.000,A,4308.3003,N,07726.2638,W,0.00,2.68,130821,,,A*7C
$GPGGA,161227.250,4308.3003,N,07726.2638,W,1,07,1.78,144.2,M,-34.4,M,,*58
$GPRMC,161227.500,A,4308.3003,N,07726.2638,W,0.00,237.26,130821,,,A*77
$GPGGA,161227.750,4308.3003,N,07726.2638,W,1,07,1.78,144.2,M,-34.4,M,,*5D
$GPRMC,161228.000,A,4308.3003,N,07726.2638,W,0.01,235.06,130821,,,A*7C
$GPGGA,161228.250,4308.3003,N,07726.2638,W,1,07,1.78,144.2,M,-34.4,M,,*57
$GPRMC,161228.500,A,4308.3003,N,07726.2638,W,0.02,254.05,130821,,,A*7E
$GPGGA,161228.750,4308.3003,N,07726.2638,W,1,07,1.78,144.2,M,-34.4,M,,*52
$GPRMC,161229.000,A,4308.3003,N,07726.2638,W,0.01,64.03,130821,,,A*4E
$GPGGA,161229.250,4308.3003,N,07726.2638,W,1,07,1.78,144.2,M,-34.4,M,,*56
$GPRMC,161229.500,A,4308.3003,N,07726.2638,W,0.01,281.54,130821,,,A*70
$GPGGA,161229.750,4308.3003,N,07726.2638,W,1,07,1.78,144.2,M,-34.4,M,,*53
$GPRMC,161230.000,A,4308.3003,N,07726.2638,W,0.00,53.67,130821,,,A*41
$GPGGA,161230.250,4308.3003,N,07726.2638,W,1,09,0.93,144.2,M,-34.4,M,,*54
$GPRMC,161230.500,A,4308.3003,N,07726.2638,W,0.01,7.20,130821,,,A*77
$GPGGA,161230.750,4308.3003,N,07726.2638,W,1,09,0.93,144.2,M,-34.4,M,,*51
$GPRMC,161231.000,A,4308.3003,N,07726.2638,W,0.02,36.56,130821,,,A*43
$GPGGA,161231.250,4308.3003,N,07726.2638,W,1,09,0.93,144.2,M,-34.4,M,,*55
$GPRMC,161231.500,A,4308.3003,N,07726.2638,W,0.01,0.44,130821,,,A*73
$GPGGA,161231.750,4308.3003,N,07726.2638,W,1,09,0.93,144.2,M,-34.4,M,,*50
$GPRMC,161232.000,A,4308.3003,N,07726.2638,W,0.01,45.41,130821,,,A*41
$GPGGA,161232.250,4308.3003,N,07726.2638,W,1,09,0.93,144.2,M,-34.4,M,,*56
$GPRMC,161232.500,A,4308.3003,N,07726.2638,W,0.00,43.26,130821,,,A*42
$GPGGA,161232.750,4308.3003,N,07726.2638,W,1,09,0.92,144.2,M,-34.4,M,,*52
$GPRMC,161233.000,A,4308.3003,N,07726.2638,W,0.01,306.77,130821,,,A*71
$GPGGA,161233.250,4308.3003,N,07726.2638,W,1,09,0.93,144.2,M,-34.4,M,,*57
$GPRMC,161233.500,A,4308.3003,N,07726.2638,W,0.00,29.90,130821,,,A*42
$GPGGA,161233.750,4308.3003,N,07726.2638,W,1,09,0.93,144.2,M,-34.4,M,,*52
$GPRMC,161234.000,A,4308.3003,N,07726.2638,W,0.01,315.53,130821,,,A*72
$GPGGA,161234.250,4308.3003,N,07726.2638,W,1,09,0.93,144.2,M,-34.4,M,,*50
$GPRMC,161234.500,A,4308.3004,N,07726.2638,W,0.01,356.04,130821,,,A*75
$GPGGA,161234.750,4308.3004,N,07726.2638,W,1,09,0.93,144.2,M,-34.4,M,,*52
$GPRMC,161235.000,A,4308.3004,N,07726.2638,W,0.01,300.82,130821,,,A*7C
$GPGGA,161235.250,4308.3004,N,07726.2638,W,1,09,0.93,144.2,M,-34.4,M,,*56
$GPRMC,161235.500,A,4308.3004,N,07726.2639,W,0.01,347.14,130821,,,A*74
$GPGGA,161235.750,4308.3004,N,07726.2639,W,1,09,0.92,144.2,M,-34.4,M,,*53
$GPRMC,161236.000,A,4308.3004,N,07726.2639,W,0.01,282.47,130821,,,A*7C
$GPGGA,161236.250,4308.3004,N,07726.2639,W,1,09,0.93,144.3,M,-34.4,M,,*55
$GPRMC,161236.500,A,4308.3004,N,07726.2639,W,0.01,305.32,130821,,,A*75
$GPGGA,161236.750,4308.3004,N,07726.2639,W,1,09,0.93,144.3,M,-34.4,M,,*50
$GPRMC,161237.000,A,4308.3004,N,07726.2639,W,0.01,1.95,130821,,,A*7B
$GPGGA,161237.250,4308.3004,N,07726.2639,W,1,09,0.93,144.3,M,-34.4,M,,*54
$GPRMC,161237.500,A,4308.3004,N,07726.2639,W,0.01,23.49,130821,,,A*4F
$GPGGA,161237.750,4308.3004,N,07726.2639,W,1,09,0.93,144.3,M,-34.4,M,,*51
$GPRMC,161238.000,A,4308.3004,N,07726.2639,W,0.01,293.37,130821,,,A*75
$GPGGA,161238.250,4308.3004,N,07726.2639,W,1,09,0.93,144.3,M,-34.4,M,,*5B
$GPRMC,161238.500,A,4308.3004,N,07726.2639,W,0.00,325.11,130821,,,A*79
$GPGGA,161238.750,4308.3004,N,07726.2639,W,1,09,0.93,144.3,M,-34.4,M,,*5E
$GPRMC,161239.000,A,4308.3004,N,07726.2639,W,0.01,8.18,130821,,,A*79
$GPGGA,161239.250,4308.3004,N,07726.2639,W,1,09,0.93,144.3,M,-34.4,M,,*5A
$GPRMC,161239.500,A,4308.3004,N,07726.2639,W,0.01,40.74,130821,,,A*4A
$GPGGA,161239.750,4308.3004,N,07726.2639,W,1,09,0.93,144.3,M,-34.4,M,,*5F
$GPRMC,161240.000,A,4308.3004,N,07726.2639,W,0.01,358.75,130821,,,A*7A
$GPGGA,161240.250,4308.3004,N,07726.2639,W,1,09,0.93,144.3,M,-34.4,M,,*54
$GPRMC,161240.500,A,4308.3004,N,07726.2639,W,0.01,296.90,130821,,,A*77
$GPGGA,161240.750,4308.3004,N,07726.2639,W,1,09,0.93,144.3,M,-34.4,M,,*51
$GPRMC,161241.000,A,4308.3004,N,07726.2639,W,0.01,315.18,130821,,,A*79
$GPGGA,161241.250,4308.3004,N,07726.2639,W,1,09,0.93,144.3,M,-34.4,M,,*55
$GPRMC,161241.500,A,4308.3004,N,07726.2639,W,0.01,295.55,130821,,,A*7C
$GPGGA,161241.750,4308.3004,N,07726.2639,W,1,09,0.92,144.3,M,-34.4,M,,*51
$GPRMC,161242.000,A,4308.3004,N,07726.2639,W,0.01,320.04,130821,,,A*71
$GPGGA,161242.250,4308.3004,N,07726.2639,W,1,09,0.93,144.3,M,-34.4,M,,*56
$GPRMC,161242.500,A,4308.3004,N,07726.2639,W,0.02,17.15,130821,,,A*40
$GPGGA,161242.750,4308.3004,N,07726.2639,W,1,09,0.93,144.3,M,-34.4,M,,*53
$GPRMC,161243.000,A,4308.3004,N,07726.2639,W,0.01,326.23,130821,,,A*73
$GPGGA,161243.250,4308.3004,N,07726.2639,W,1,09,0.93,144.3,M,-34.4,M,,*57
$GPRMC,161243.500,A,4308.3004,N,07726.2639,W,0.01,349.97,130821,,,A*70
$GPGGA,161243.750,4308.3004,N,07726.2639,W,1,09,0.93,144.3,M,-34.4,M,,*52
$GPRMC,161244.000,A,4308.3004,N,07726.2639,W,0.01,341.09,130821,,,A*7D
$GPGGA,161244.250,4308.3004,N,07726.2639,W,1,09,0.93,144.3,M,-34.4,M,,*50
$GPRMC,161244.500,A,4308.3004,N,07726.2639,W,0.01,342.77,130821,,,A*72
$GPGGA,161244.750,4308.3004,N,07726.2639,W,1,09,0.93,144.3,M,-34.4,M,,*55
$GPRMC,161245.000,A,4308.3004,N,07726.2639,W,0.01,300.16,130821,,,A*77
$GPGGA,161245.250,4308.3004,N,07726.2639,W,1,09,0.92,144.3,M,-34.4,M,,*50
$GPRMC,161245.500,A,4308.3004,N,07726.2639,W,0.01,356.27,130821,,,A*73
$GPGGA,161245.750,4308.3004,N,07726.2639,W,1,09,0.93,144.3,M,-34.4,M,,*54
$GPRMC,161246.000,A,4308.3004,N,07726.2639,W,0.01,328.75,130821,,,A*7B
$GPGGA,161246.250,4308.3004,N,07726.2639,W,1,09,0.92,144.3,M,-34.4,M,,*53
$GPRMC,161246.500,A,4308.3004,N,07726.2639,W,0.01,357.38,130821,,,A*7F
$GPGGA,161246.750,4308.3004,N,07726.2639,W,1,09,0.92,144.3,M,-34.4,M,,*56
$GPRMC,161247.000,A,4308.3004,N,07726.2639,W,0.01,343.25,130821,,,A*72
$GPGGA,161247.250,4308.3004,N,07726.2639,W,1,09,0.93,144.3,M,-34.4,M,,*53
$GPRMC,161247.500,A,4308.3004,N,07726.2639,W,0.00,282.12,130821,,,A*7E
$GPGGA,161247.750,4308.3004,N,07726.2639,W,1,09,0.93,144.3,M,-34.4,M,,*56
$GPRMC,161248.000,A,4308.3004,N,07726.2639,W,0.01,284.63,130821,,,A*75
$GPGGA,161248.250,4308.3004,N,07726.2639,W,1,10,0.88,144.3,M,-34.4,M,,*5E
$GPRMC,161248.500,A,4308.3004,N,07726.2639,W,0.01,345.20,130821,,,A*7B
$GPGGA,161248.750,4308.3004,N,07726.2639,W,1,10,0.88,144.3,M,-34.4,M,,*5B
$GPRMC,161249.000,A,4308.3004,N,07726.2639,W,0.01,309.21,130821,,,A*76
$GPGGA,161249.250,4308.3004,N,07726.2639,W,1,10,0.88,144.3,M,-34.4,M,,*5F
$GPRMC,161249.500,A,4308.3004,N,07726.2639,W,0.01,279.16,130821,,,A*71
$GPGGA,161249.750,4308.3004,N,07726.2639,W,1,10,0.88,144.3,M,-34.4,M,,*5A
$GPRMC,161250.000,A,4308.3004,N,07726.2639,W,0.01,32.12,130821,,,A*45
$GPGGA,161250.250,4308.3004,N,07726.2639,W,1,10,0.88,144.3,M,-34.4,M,,*57
$GPRMC,161250.500,A,4308.3004,N,07726.2639,W,0.01,347.92,130821,,,A*79
$GPGGA,161250.750,4308.3004,N,07726.2639,W,1,10,0.88,144.3,M,-34.4,M,,*52
$GPRMC,161251.000,A,4308.3004,N,07726.2639,W,0.01,305.42,130821,,,A*76
$GPGGA,161251.250,4308.3004,N,07726.2639,W,1,10,0.88,144.3,M,-34.4,M,,*56
$GPRMC,161251.500,A,4308.3004,N,07726.2639,W,0.01,268.55,130821,,,A*7F
$GPGGA,161251.750,4308.3004,N,07726.2639,W,1,10,0.88,144.3,M,-34.4,M,,*53
$GPRMC,161252.000,A,4308.3004,N,07726.2639,W,0.01,272.77,130821,,,A*72
$GPGGA,161252.250,4308.3004,N,07726.2639,W,1,10,0.88,144.3,M,-34.4,M,,*55
$GPRMC,161252.500,A,4308.3004,N,07726.2639,W,0.01,328.39,130821,,,A*73
$GPGGA,161252.750,4308.3005,N,07726.2639,W,1,10,0.88,144.3,M,-34.4,M,,*51
$GPRMC,161253.000,A,4308.3005,N,07726.2639,W,0.01,262.98,130821,,,A*72
$GPGGA,161253.250,4308.3005,N,07726.2639,W,1,10,0.88,144.3,M,-34.4,M,,*55
$GPRMC,161253.500,A,4308.3005,N,07726.2639,W,0.00,236.39,130821,,,A*7C
$GPGGA,161253.750,4308.3005,N,07726.2639,W,1,10,0.88,144.3,M,-34.4,M,,*50
$GPRMC,161254.000,A,4308.3005,N,07726.2639,W,0.00,192.37,130821,,,A*7D
$GPGGA,161254.250,4308.3005,N,07726.2639,W,1,10,0.88,144.3,M,-34.4,M,,*52
$GPRMC,161254.500,A,4308.3005,N,07726.2639,W,0.00,262.90,130821,,,A*79
$GPGGA,161254.750,4308.3005,N,07726.2639,W,1,10,0.88,144.3,M,-34.4,M,,*57
$GPRMC,161255.000,A,4308.3005,N,07726.2639,W,0.01,309.18,130821,,,A*70
$GPGGA,161255.250,4308.3005,N,07726.2639,W,1,10,0.88,144.3,M,-34.4,M,,*53
$GPRMC,161255.500,A,4308.3005,N,07726.2639,W,0.01,4.65,130821,,,A*71
$GPGGA,161255.750,4308.3005,N,07726.2639,W,1,10,0.88,144.3,M,-34.4,M,,*56
$GPRMC,161256.000,A,4308.3005,N,07726.2639,W,0.00,0.00,130821,,,A*71
$GPGGA,161256.250,4308.3005,N,07726.2639,W,1,10,0.88,144.3,M,-34.4,M,,*50
$GPRMC,161256.500,A,4308.3005,N,07726.2639,W,0.01,302.58,130821,,,A*79
$GPGGA,161256.750,4308.3005,N,07726.2639,W,1,10,0.88,144.3,M,-34.4,M,,*55
$GPRMC,161257.000,A,4308.3005,N,07726.2639,W,0.01,39.17,130821,,,A*4D
$GPGGA,161257.250,4308.3005,N,07726.2639,W,1,10,0.88,144.3,M,-34.4,M,,*51
$GPRMC,161257.500,A,4308.3005,N,07726.2639,W,0.01,310.19,130821,,,A*7E
$GPGGA,161257.750,4308.3005,N,07726.2639,W,1,10,0.88,144.3,M,-34.4,M,,*54
$GPRMC,161258.000,A,4308.3005,N,07726.2639,W,0.01,325.96,130821,,,A*75
$GPGGA,161258.250,4308.3005,N,07726.2639,W,1,10,0.88,144.3,M,-34.4,M,,*5E
$GPRMC,161258.500,A,4308.3005,N,07726.2639,W,0.01,18.93,130821,,,A*48
$GPGGA,161258.750,4308.3005,N,07726.2639,W,1,10,0.88,144.4,M,-34.4,M,,*5C
$GPRMC,161259.000,A,4308.3005,N,07726.2639,W,0.01,39.22,130821,,,A*45
$GPGGA,161259.250,4308.3005,N,07726.2639,W,1,10,0.88,144.4,M,-34.4,M,,*58
$GPRMC,161259.500,A,4308.3005,N,07726.2639,W,0.01,278.04,130821,,,A*73
$GPGGA,161259.750,4308.3005,N,07726.2639,W,1,10,0.88,144.4,M,-34.4,M,,*5D
$GPRMC,161300.000,A,4308.3005,N,07726.2639,W,0.00,23.43,130821,,,A*45
$GPGGA,161300.250,4308.3005,N,07726.2639,W,1,10,0.88,144.4,M,-34.4,M,,*55
$GPRMC,161300.500,A,4308.3005,N,07726.2639,W,0.01,326.15,130821,,,A*74
$GPGGA,161300.750,4308.3005,N,07726.2639,W,1,10,0.88,144.4,M,-34.4,M,,*50
$GPRMC,161301.000,A,4308.3005,N,07726.2639,W,0.00,335.38,130821,,,A*7C
$GPGGA,161301.250,4308.3005,N,07726.2639,W,1,10,0.88,144.4,M,-34.4,M,,*54
$GPRMC,161301.500,A,4308.3005,N,07726.2640,W,0.02,279.92,130821,,,A*7C
$GPGGA,161301.750,4308.3005,N,07726.2640,W,1,10,0.88,144.4,M,-34.4,M,,*5F
$GPRMC,161302.000,A,4308.3005,N,07726.2640,W,0.01,308.33,130821,,,A*75
$GPGGA,161302.250,4308.3005,N,07726.2640,W,1,10,0.88,144.4,M,-34.4,M,,*59
$GPRMC,161302.500,A,4308.3005,N,07726.2640,W,0.01,271.84,130821,,,A*73
$GPGGA,161302.750,4308.3005,N,07726.2640,W,1,10,0.88,144.4,M,-34.4,M,,*5C
$GPRMC,161303.000,A,4308.3005,N,07726.2640,W,0.01,345.80,130821,,,A*75
$GPGGA,161303.250,4308.3005,N,07726.2640,W,1,10,0.88,144.4,M,-34.4,M,,*58
$GPRMC,161303.500,A,4308.3005,N,07726.2640,W,0.01,63.50,130821,,,A*4A
$GPGGA,161303.750,4308.3005,N,07726.2640,W,1,10,0.88,144.4,M,-34.4,M,,*5D
$GPRMC,161304.000,A,4308.3005,N,07726.2640,W,0.01,293.81,130821,,,A*79
$GPGGA,161304.250,4308.3005,N,07726.2640,W,1,10,0.88,144.4,M,-34.4,M,,*5F
$GPRMC,161304.500,A,4308.3005,N,07726.2640,W,0.02,288.65,130821,,,A*7F
$GPGGA,161304.750,4308.3005,N,07726.2640,W,1,10,0.88,144.4,M,-34.4,M,,*5A
$GPRMC,161305.000,A,4308.3005,N,07726.2640,W,0.01,321.39,130821,,,A*73
$GPGGA,161305.250,4308.3005,N,07726.2640,W,1,10,0.88,144.4,M,-34.4,M,,*5E
$GPRMC,161305.500,A,4308.3005,N,07726.2640,W,0.01,9.11,130821,,,A*75
$GPGGA,161305.750,4308.3005,N,07726.2640,W,1,10,0.88,144.4,M,-34.4,M,,*5B
$GPRMC,161306.000,A,4308.3005,N,07726.2640,W,0.01,275.85,130821,,,A*77
$GPGGA,161306.250,4308.3005,N,07726.2640,W,1,10,0.88,144.4,M,-34.4,M,,*5D
$GPRMC,161306.500,A,4308.3005,N,07726.2640,W,0.00,333.77,130821,,,A*7D
$GPGGA,161306.750,4308.3005,N,07726.2640,W,1,10,0.88,144.4,M,-34.4,M,,*58
$GPRMC,161307.000,A,4308.3005,N,07726.2640,W,0.00,13.18,130821,,,A*41
$GPGGA,161307.250,4308.3005,N,07726.2640,W,1,10,0.88,144.4,M,-34.4,M,,*5C
$GPRMC,161307.500,A,4308.3005,N,07726.2640,W,0.01,285.07,130821,,,A*76
$GPGGA,161307.750,4308.3005,N,07726.2640,W,1,10,0.88,144.4,M,-34.4,M,,*59
$GPRMC,161308.000,A,4308.3005,N,07726.2640,W,0.00,327.16,130821,,,A*74
$GPGGA,161308.250,4308.3005,N,07726.2640,W,1,10,0.88,144.4,M,-34.4,M,,*53
$GPRMC,161308.500,A,4308.3005,N,07726.2640,W,0.00,266.94,130821,,,A*7F
$GPGGA,161308.750,4308.3005,N,07726.2640,W,1,10,0.88,144.4,M,-34.4,M,,*56
$GPRMC,161309.000,A,4308.3005,N,07726.2640,W,0.01,314.15,130821,,,A*77
$GPGGA,161309.250,4308.3005,N,07726.2640,W,1,10,0.88,144.4,M,-34.4,M,,*52
$GPRMC,161309.500,A,4308.3005,N,07726.2640,W,0.01,273.62,130821,,,A*72
$GPGGA,161309.750,4308.3005,N,07726.2640,W,1,10,0.88,144.4,M,-34.4,M,,*57
$GPRMC,161310.000,A,4308.3005,N,07726.2640,W,0.02,306.23,130821,,,A*7A
$GPGGA,161310.250,4308.3005,N,07726.2640,W,1,10,0.88,144.4,M,-34.4,M,,*5A
$GPRMC,161310.500,A,4308.3005,N,07726.2640,W,0.01,340.78,130821,,,A*70
$GPGGA,161310.750,4308.3005,N,07726.2640,W,1,10,0.88,144.4,M,-34.4,M,,*5F
$GPRMC,161311.000,A,4308.3005,N,07726.2640,W,0.01,280.53,130821,,,A*70
$GPGGA,161311.250,4308.3005,N,07726.2640,W,1,10,0.88,144.4,M,-34.4,M,,*5B
$GPRMC,161311.500,A,4308.3005,N,07726.2640,W,0.01,17.18,130821,,,A*46
$GPGGA,161311.750,4308.3005,N,07726.2640,W,1,10,0.88,144.4,M,-34.4,M,,*5E
$GPRMC,161312.000,A,4308.3005,N,07726.2640,W,0.01,351.79,130821,,,A*76
$GPGGA,161312.250,4308.3005,N,07726.2640,W,1,10,0.88,144.4,M,-34.4,M,,*58
$GPRMC,161312.500,A,4308.3005,N,07726.2640,W,0.01,294.45,130821,,,A*74
$GPGGA,161312.750,4308.3005,N,07726.2640,W,1,10,0.88,144.4,M,-34.4,M,,*5D
$GPRMC,161313.000,A,4308.3005,N,07726.2640,W,0.00,309.51,130821,,,A*71
$GPGGA,161313.250,4308.3005,N,07726.2640,W,1,10,0.88,144.5,M,-34.4,M,,*58
$GPRMC,161313.500,A,4308.3005,N,07726.2640,W,0.00,12.86,130821,,,A*47
$GPGGA,161313.750,4308.3005,N,07726.2640,W,1,10,0.88,144.5,M,-34.4,M,,*5D
$GPRMC,161314.000,A,4308.3005,N,07726.2640,W,0.00,106.34,130821,,,A*78
$GPGGA,161314.250,4308.3005,N,07726.2640,W,1,10,0.88,144.5,M,-34.4,M,,*5F
$GPRMC,161314.500,A,4308.3005,N,07726.2640,W,0.01,70.41,130821,,,A*4E
$GPGGA,161314.750,4308.3005,N,07726.2640,W,1,10,0.88,144.5,M,-34.4,M,,*5A
$GPRMC,161315.000,A,4308.3005,N,07726.2640,W,0.01,90.00,130821,,,A*41
$GPGGA,161315.250,4308.3005,N,07726.2640,W,1,10,0.88,144.5,M,-34.4,M,,*5E
$GPRMC,161315.500,A,4308.3005,N,07726.2640,W,0.01,332.72,130821,,,A*7A
$GPGGA,161315.750,4308.3005,N,07726.2640,W,1,10,0.88,144.5,M,-34.4,M,,*5B
$GPRMC,161316.000,A,4308.3005,N,07726.2640,W,0.01,284.07,130821,,,A*72
$GPGGA,161316.250,4308.3005,N,07726.2640,W,1,10,0.88,144.5,M,-34.4,M,,*5D
$GPRMC,161316.500,A,4308.3005,N,07726.2640,W,0.00,328.48,130821,,,A*7A
$GPGGA,161316.750,4308.3005,N,07726.2640,W,1,10,0.88,144.5,M,-34.4,M,,*58
$GPRMC,161317.000,A,4308.3005,N,07726.2640,W,0.01,61.24,130821,,,A*4B
$GPGGA,161317.250,4308.3005,N,07726.2640,W,1,10,0.88,144.5,M,-34.4,M,,*5C
$GPRMC,161317.500,A,4308.3005,N,07726.2640,W,0.01,17.59,130821,,,A*45
$GPGGA,161317.750,4308.3005,N,07726.2640,W,1,10,0.88,144.5,M,-34.4,M,,*59
$GPRMC,161318.000,A,4308.3005,N,07726.2640,W,0.01,350.02,130821,,,A*71
$GPGGA,161318.250,4308.3005,N,07726.2640,W,1,10,0.88,144.5,M,-34.4,M,,*53
$GPRMC,161318.500,A,4308.3005,N,07726.2640,W,0.00,331.55,130821,,,A*70
$GPGGA,161318.750,4308.3005,N,07726.2640,W,1,10,0.88,144.5,M,-34.4,M,,*56
$GPRMC,161319.000,A,4308.3005,N,07726.2640,W,0.01,253.77,130821,,,A*70
$GPGGA,161319.250,4308.3005,N,07726.2640,W,1,10,0.88,144.5,M,-34.4,M,,*52
$GPRMC,161319.500,A,4308.3005,N,07726.2640,W,0.01,70.12,130821,,,A*45
$GPGGA,161319.750,4308.3005,N,07726.2640,W,1,10,0.88,144.5,M,-34.4,M,,*57
$GPRMC,161320.000,A,4308.3005,N,07726.2640,W,0.01,85.39,130821,,,A*49
$GPGGA,161320.250,4308.3005,N,07726.2640,W,1,10,0.88,144.5,M,-34.4,M,,*58
$GPRMC,161320.500,A,4308.3005,N,07726.2640,W,0.01,285.35,130821,,,A*72
$GPGGA,161320.750,4308.3005,N,07726.2640,W,1,10,0.88,144.5,M,-34.4,M,,*5D
$GPRMC,161321.000,A,4308.3006,N,07726.2640,W,0.00,278.99,130821,,,A*70
$GPGGA,161321.250,4308.3006,N,07726.2640,W,1,10,0.88,144.5,M,-34.4,M,,*5A
$GPRMC,161321.500,A,4308.3006,N,07726.2640,W,0.00,30.56,130821,,,A*48
$GPGGA,161321.750,4308.3006,N,07726.2640,W,1,10,0.88,144.5,M,-34.4,M,,*5F
$GPRMC,161322.000,A,4308.3006,N,07726.2640,W,0.01,353.79,130821,,,A*74
$GPGGA,161322.250,4308.3006,N,07726.2640,W,1,10,0.88,144.5,M,-34.4,M,,*59
$GPRMC,161322.500,A,4308.3006,N,07726.2640,W,0.01,18.69,130821,,,A*4C
$GPGGA,161322.750,4308.3006,N,07726.2640,W,1,10,0.88,144.5,M,-34.4,M,,*5C
