Vers 81
USE_SERIAL_FEEDBACK=true
DEVELOPMENT_MODE=false
USE_RMC_ONLY=false

$GPRMC,142434.500,A,4308.3108,N,07726.2596,W,0.16,88.61,110821,,,A*4F
$GPGGA,142434.750,4308.3108,N,07726.2599,W,1,04,2.30,149.7,M,-34.4,M,,*5E
$GPRMC,142435.000,A,4308.3107,N,07726.2599,W,0.14,28.17,110821,,,A*42
$GPGGA,142435.250,4308.3105,N,07726.2601,W,1,04,2.30,151.0,M,-34.4,M,,*5B
$GPRMC,142435.500,A,4308.3105,N,07726.2603,W,0.32,347.77,110821,,,A*7D
$GPGGA,142435.750,4308.3105,N,07726.2605,W,1,04,2.45,153.0,M,-34.4,M,,*5A
$GPRMC,142436.000,A,4308.3104,N,07726.2607,W,0.39,342.36,110821,,,A*75
$GPGGA,142436.250,4308.3103,N,07726.2609,W,1,04,2.30,154.6,M,-34.4,M,,*55
$GPRMC,142436.500,A,4308.3103,N,07726.2611,W,0.35,336.23,110821,,,A*7B
$GPGGA,142436.750,4308.3104,N,07726.2613,W,1,04,2.30,156.3,M,-34.4,M,,*5B
$GPRMC,142437.000,A,4308.3104,N,07726.2614,W,0.30,339.56,110821,,,A*75
$GPGGA,142437.250,4308.3105,N,07726.2616,W,1,04,2.30,157.7,M,-34.4,M,,*5E
$GPRMC,142437.500,A,4308.3105,N,07726.2617,W,0.30,352.21,110821,,,A*7F
$GPGGA,142437.750,4308.3106,N,07726.2619,W,1,04,2.45,159.9,M,-34.4,M,,*55
$GPRMC,142438.000,A,4308.3106,N,07726.2620,W,0.23,357.35,110821,,,A*70
$GPGGA,142438.250,4308.3108,N,07726.2623,W,1,04,2.45,162.0,M,-34.4,M,,*59
$GPRMC,142438.500,A,4308.3108,N,07726.2625,W,0.15,346.51,110821,,,A*79
$GPGGA,142438.750,4308.3107,N,07726.2626,W,1,04,2.45,163.2,M,-34.4,M,,*55
$GPRMC,142439.000,A,4308.3107,N,07726.2628,W,0.14,317.29,110821,,,A*75
$GPGGA,142439.250,4308.3107,N,07726.2630,W,1,04,2.30,164.4,M,-34.4,M,,*55
$GPRMC,142439.500,A,4308.3106,N,07726.2632,W,0.20,282.57,110821,,,A*79
$GPGGA,142439.750,4308.3105,N,07726.2634,W,1,04,2.30,165.7,M,-34.4,M,,*54
$GPRMC,142440.000,A,4308.3104,N,07726.2636,W,0.26,263.51,110821,,,A*7B
$GPGGA,142440.250,4308.3103,N,07726.2637,W,1,04,2.30,167.3,M,-34.4,M,,*5C
$GPRMC,142440.500,A,4308.3103,N,07726.2639,W,0.26,267.24,110821,,,A*70
$GPGGA,142440.750,4308.3101,N,07726.2640,W,1,04,2.30,168.9,M,-34.4,M,,*5E
$GPRMC,142441.000,A,4308.3100,N,07726.2641,W,0.21,248.45,110821,,,A*75
$GPGGA,142441.250,4308.3099,N,07726.2642,W,1,04,2.30,170.7,M,-34.4,M,,*5F
$GPRMC,142441.500,A,4308.3098,N,07726.2644,W,0.19,213.10,110821,,,A*70
$GPGGA,142441.750,4308.3097,N,07726.2645,W,1,04,2.30,172.1,M,-34.4,M,,*57
$GPRMC,142442.000,A,4308.3095,N,07726.2645,W,0.20,209.58,110821,,,A*77
$GPGGA,142442.250,4308.3094,N,07726.2647,W,1,04,2.30,173.0,M,-34.4,M,,*50
$GPRMC,142442.500,A,4308.3092,N,07726.2648,W,0.29,207.67,110821,,,A*73
$GPGGA,142442.750,4308.3090,N,07726.2650,W,1,04,2.31,174.3,M,-34.4,M,,*52
$GPRMC,142443.000,A,4308.3088,N,07726.2651,W,0.36,200.72,110821,,,A*79
$GPGGA,142443.250,4308.3086,N,07726.2651,W,1,04,2.30,175.2,M,-34.4,M,,*51
$GPRMC,142443.500,A,4308.3085,N,07726.2652,W,0.35,194.30,110821,,,A*79
$GPGGA,142443.750,4308.3084,N,07726.2652,W,1,04,2.31,176.1,M,-34.4,M,,*54
$GPRMC,142444.000,A,4308.3082,N,07726.2653,W,0.39,181.59,110821,,,A*7A
$GPGGA,142444.250,4308.3081,N,07726.2653,W,1,04,2.31,176.7,M,-34.4,M,,*54
$GPRMC,142444.500,A,4308.3081,N,07726.2654,W,0.38,173.29,110821,,,A*70
$GPGGA,142444.750,4308.3081,N,07726.2655,W,1,04,2.31,177.7,M,-34.4,M,,*56
$GPRMC,142445.000,A,4308.3080,N,07726.2655,W,0.34,165.07,110821,,,A*73
$GPGGA,142445.250,4308.3079,N,07726.2656,W,1,04,2.31,178.1,M,-34.4,M,,*5F
$GPRMC,142445.500,A,4308.3078,N,07726.2657,W,0.38,183.64,110821,,,A*72
$GPGGA,142445.750,4308.3077,N,07726.2658,W,1,04,2.31,178.5,M,-34.4,M,,*5E
$GPRMC,142446.000,A,4308.3076,N,07726.2659,W,0.42,190.75,110821,,,A*7B
$GPGGA,142446.250,4308.3076,N,07726.2660,W,1,04,2.31,179.0,M,-34.4,M,,*56
$GPRMC,142446.500,A,4308.3075,N,07726.2662,W,0.51,204.08,110821,,,A*73
$GPGGA,142446.750,4308.3074,N,07726.2662,W,1,04,2.31,179.3,M,-34.4,M,,*50
$GPRMC,142447.000,A,4308.3073,N,07726.2664,W,0.62,208.29,110821,,,A*78
$GPGGA,142447.250,4308.3072,N,07726.2664,W,1,04,2.31,179.9,M,-34.4,M,,*5E
$GPRMC,142447.500,A,4308.3071,N,07726.2664,W,0.65,205.46,110821,,,A*7C
$GPGGA,142447.750,4308.3071,N,07726.2664,W,1,04,2.31,180.0,M,-34.4,M,,*57
$GPRMC,142448.000,A,4308.3070,N,07726.2664,W,0.65,200.24,110821,,,A*76
$GPGGA,142448.250,4308.3068,N,07726.2664,W,1,04,2.31,180.1,M,-34.4,M,,*54
$GPRMC,142448.500,A,4308.3067,N,07726.2665,W,0.79,205.94,110821,,,A*77
$GPGGA,142448.750,4308.3066,N,07726.2665,W,1,04,2.31,180.2,M,-34.4,M,,*5D
$GPRMC,142449.000,A,4308.3066,N,07726.2666,W,0.69,203.44,110821,,,A*7B
$GPGGA,142449.250,4308.3067,N,07726.2665,W,1,04,2.31,180.4,M,-34.4,M,,*5E
$GPRMC,142449.500,A,4308.3067,N,07726.2665,W,0.48,196.06,110821,,,A*76
$GPGGA,142449.750,4308.3068,N,07726.2665,W,1,04,2.31,180.5,M,-34.4,M,,*55
$GPRMC,142450.000,A,4308.3067,N,07726.2664,W,0.41,196.84,110821,,,A*79
$GPGGA,142450.250,4308.3067,N,07726.2664,W,1,05,2.31,180.2,M,-34.4,M,,*50
$GPRMC,142450.500,A,4308.3067,N,07726.2664,W,0.34,201.39,110821,,,A*75
$GPGGA,142450.750,4308.3066,N,07726.2664,W,1,05,2.31,179.2,M,-34.4,M,,*52
$GPRMC,142451.000,A,4308.3066,N,07726.2663,W,0.34,208.82,110821,,,A*7E
$GPGGA,142451.250,4308.3066,N,07726.2662,W,1,05,2.31,178.1,M,-34.4,M,,*52
$GPRMC,142451.500,A,4308.3066,N,07726.2661,W,0.26,193.43,110821,,,A*76
$GPGGA,142451.750,4308.3066,N,07726.2661,W,1,05,2.31,177.4,M,-34.4,M,,*5E
$GPRMC,142452.000,A,4308.3065,N,07726.2660,W,0.22,205.35,110821,,,A*7B
$GPGGA,142452.250,4308.3065,N,07726.2658,W,1,05,2.31,176.5,M,-34.4,M,,*51
$GPRMC,142452.500,A,4308.3065,N,07726.2657,W,0.19,187.07,110821,,,A*7A
$GPGGA,142452.750,4308.3065,N,07726.2656,W,1,05,2.31,175.9,M,-34.4,M,,*55
$GPRMC,142453.000,A,4308.3064,N,07726.2655,W,0.18,165.17,110821,,,A*71
$GPGGA,142453.250,4308.3064,N,07726.2655,W,1,05,2.31,175.0,M,-34.4,M,,*5A
$GPRMC,142453.500,A,4308.3063,N,07726.2655,W,0.15,175.97,110821,,,A*77
$GPGGA,142453.750,4308.3063,N,07726.2654,W,1,05,2.31,173.0,M,-34.4,M,,*5F
$GPRMC,142454.000,A,4308.3062,N,07726.2654,W,0.12,203.13,110821,,,A*7C
$GPGGA,142454.250,4308.3061,N,07726.2654,W,1,05,2.31,171.9,M,-34.4,M,,*54
$GPRMC,142454.500,A,4308.3060,N,07726.2654,W,0.20,228.58,110821,,,A*7C
$GPGGA,142454.750,4308.3059,N,07726.2653,W,1,05,2.31,169.9,M,-34.4,M,,*54
$GPRMC,142455.000,A,4308.3058,N,07726.2653,W,0.27,222.74,110821,,,A*77
$GPGGA,142455.250,4308.3058,N,07726.2653,W,1,05,2.31,169.1,M,-34.4,M,,*59
$GPRMC,142455.500,A,4308.3058,N,07726.2652,W,0.25,229.36,110821,,,A*7C
$GPGGA,142455.750,4308.3058,N,07726.2652,W,1,05,2.31,168.0,M,-34.4,M,,*5D
$GPRMC,142456.000,A,4308.3058,N,07726.2651,W,0.22,235.14,110821,,,A*73
$GPGGA,142456.250,4308.3059,N,07726.2651,W,1,05,2.31,167.1,M,-34.4,M,,*57
$GPRMC,142456.500,A,4308.3059,N,07726.2650,W,0.19,244.63,110821,,,A*78
$GPGGA,142456.750,4308.3059,N,07726.2649,W,1,05,2.31,166.8,M,-34.4,M,,*53
$GPRMC,142457.000,A,4308.3059,N,07726.2649,W,0.14,225.40,110821,,,A*7F
$GPGGA,142457.250,4308.3060,N,07726.2649,W,1,05,2.31,166.5,M,-34.4,M,,*50
$GPRMC,142457.500,A,4308.3060,N,07726.2648,W,0.14,227.85,110821,,,A*7A
$GPGGA,142457.750,4308.3061,N,07726.2648,W,1,05,2.31,166.2,M,-34.4,M,,*52
$GPRMC,142458.000,A,4308.3061,N,07726.2648,W,0.12,230.91,110821,,,A*74
$GPGGA,142458.250,4308.3062,N,07726.2646,W,1,05,2.31,165.9,M,-34.4,M,,*5D
$GPRMC,142458.500,A,4308.3063,N,07726.2646,W,0.03,175.26,110821,,,A*73
$GPGGA,142458.750,4308.3064,N,07726.2644,W,1,05,2.31,165.6,M,-34.4,M,,*53
$GPRMC,142459.000,A,4308.3066,N,07726.2643,W,0.08,88.04,110821,,,A*4F
$GPGGA,142459.250,4308.3067,N,07726.2643,W,1,05,2.31,165.4,M,-34.4,M,,*51
$GPRMC,142459.500,A,4308.3068,N,07726.2642,W,0.10,52.00,110821,,,A*4F
$GPGGA,142459.750,4308.3069,N,07726.2642,W,1,05,2.31,165.1,M,-34.4,M,,*5E
$GPRMC,142500.000,A,4308.3070,N,07726.2641,W,0.15,39.37,110821,,,A*41
$GPGGA,142500.250,4308.3070,N,07726.2641,W,1,05,2.31,164.7,M,-34.4,M,,*5A
$GPRMC,142500.500,A,4308.3071,N,07726.2641,W,0.12,20.13,110821,,,A*4C
$GPGGA,142500.750,4308.3071,N,07726.2640,W,1,05,2.31,164.4,M,-34.4,M,,*5C
$GPRMC,142501.000,A,4308.3071,N,07726.2641,W,0.10,351.95,110821,,,A*71
$GPGGA,142501.250,4308.3072,N,07726.2641,W,1,05,2.36,164.1,M,-34.4,M,,*58
$GPRMC,142501.500,A,4308.3073,N,07726.2641,W,0.18,341.54,110821,,,A*72
$GPGGA,142501.750,4308.3074,N,07726.2640,W,1,05,2.31,163.7,M,-34.4,M,,*5C
$GPRMC,142502.000,A,4308.3074,N,07726.2640,W,0.22,356.40,110821,,,A*78
$GPGGA,142502.250,4308.3073,N,07726.2640,W,1,05,2.36,163.2,M,-34.4,M,,*5F
$GPRMC,142502.500,A,4308.3073,N,07726.2640,W,0.12,3.65,110821,,,A*7D
$GPGGA,142502.750,4308.3072,N,07726.2640,W,1,05,2.36,162.7,M,-34.4,M,,*5F
$GPRMC,142503.000,A,4308.3072,N,07726.2640,W,0.08,339.54,110821,,,A*7B
$GPGGA,142503.250,4308.3072,N,07726.2640,W,1,05,2.31,162.3,M,-34.4,M,,*58
$GPRMC,142503.500,A,4308.3072,N,07726.2639,W,0.09,22.96,110821,,,A*46
$GPGGA,142503.750,4308.3073,N,07726.2639,W,1,05,2.31,161.9,M,-34.4,M,,*5B
$GPRMC,142504.000,A,4308.3074,N,07726.2638,W,0.19,26.19,110821,,,A*41
$GPGGA,142504.250,4308.3073,N,07726.2638,W,1,05,2.31,161.4,M,-34.4,M,,*55
$GPRMC,142504.500,A,4308.3072,N,07726.2638,W,0.15,42.29,110821,,,A*4F
$GPGGA,142504.750,4308.3071,N,07726.2638,W,1,05,2.31,160.8,M,-34.4,M,,*5F
$GPRMC,142505.000,A,4308.3071,N,07726.2638,W,0.12,64.98,110821,,,A*41
$GPGGA,142505.250,4308.3073,N,07726.2637,W,1,05,2.31,160.2,M,-34.4,M,,*5C
$GPRMC,142505.500,A,4308.3073,N,07726.2637,W,0.20,56.43,110821,,,A*4F
$GPGGA,142505.750,4308.3073,N,07726.2637,W,1,05,2.31,160.0,M,-34.4,M,,*5B
$GPRMC,142506.000,A,4308.3073,N,07726.2637,W,0.20,41.66,110821,,,A*48
$GPGGA,142506.250,4308.3073,N,07726.2636,W,1,05,2.32,160.0,M,-34.4,M,,*5F
$GPRMC,142506.500,A,4308.3073,N,07726.2636,W,0.12,24.30,110821,,,A*4D
$GPGGA,142506.750,4308.3073,N,07726.2636,W,1,05,2.31,160.0,M,-34.4,M,,*59
$GPRMC,142507.000,A,4308.3073,N,07726.2636,W,0.14,20.93,110821,,,A*42
$GPGGA,142507.250,4308.3073,N,07726.2636,W,1,05,2.31,160.0,M,-34.4,M,,*5D
$GPRMC,142507.500,A,4308.3074,N,07726.2636,W,0.08,76.29,110821,,,A*4F
$GPGGA,142507.750,4308.3073,N,07726.2636,W,1,05,2.32,160.0,M,-34.4,M,,*5B
$GPRMC,142508.000,A,4308.3073,N,07726.2636,W,0.04,263.53,110821,,,A*75
$GPGGA,142508.250,4308.3073,N,07726.2636,W,1,05,2.32,159.9,M,-34.4,M,,*52
$GPRMC,142508.500,A,4308.3073,N,07726.2636,W,0.05,280.95,110821,,,A*76
$GPGGA,142508.750,4308.3074,N,07726.2636,W,1,05,2.32,159.9,M,-34.4,M,,*50
$GPRMC,142509.000,A,4308.3074,N,07726.2636,W,0.03,336.79,110821,,,A*7D
$GPGGA,142509.250,4308.3074,N,07726.2636,W,1,05,2.32,159.9,M,-34.4,M,,*54
$GPRMC,142509.500,A,4308.3074,N,07726.2636,W,0.13,15.69,110821,,,A*4A
$GPGGA,142509.750,4308.3074,N,07726.2636,W,1,05,2.32,159.9,M,-34.4,M,,*51
$GPRMC,142510.000,A,4308.3074,N,07726.2636,W,0.15,1.81,110821,,,A*72
$GPGGA,142510.250,4308.3074,N,07726.2636,W,1,05,2.36,159.9,M,-34.4,M,,*58
$GPRMC,142510.500,A,4308.3074,N,07726.2636,W,0.07,51.25,110821,,,A*4F
$GPGGA,142510.750,4308.3074,N,07726.2636,W,1,05,2.32,159.9,M,-34.4,M,,*59
$GPRMC,142511.000,A,4308.3074,N,07726.2636,W,0.04,44.66,110821,,,A*4B
$GPGGA,142511.250,4308.3074,N,07726.2636,W,1,05,2.32,159.9,M,-34.4,M,,*5D
$GPRMC,142511.500,A,4308.3074,N,07726.2636,W,0.10,321.83,110821,,,A*70
$GPGGA,142511.750,4308.3074,N,07726.2636,W,1,05,2.32,159.9,M,-34.4,M,,*58
$GPRMC,142512.000,A,4308.3074,N,07726.2636,W,0.05,10.85,110821,,,A*45
$GPGGA,142512.250,4308.3074,N,07726.2636,W,1,05,2.36,159.8,M,-34.4,M,,*5B
$GPRMC,142512.500,A,4308.3074,N,07726.2636,W,0.04,102.55,110821,,,A*7E
$GPGGA,142512.750,4308.3074,N,07726.2636,W,1,05,2.32,159.8,M,-34.4,M,,*5A
$GPRMC,142513.000,A,4308.3074,N,07726.2636,W,0.05,321.50,110821,,,A*7D
$GPGGA,142513.250,4308.3074,N,07726.2636,W,1,05,2.32,159.8,M,-34.4,M,,*5E
$GPRMC,142513.500,A,4308.3074,N,07726.2636,W,0.10,321.54,110821,,,A*78
$GPGGA,142513.750,4308.3074,N,07726.2636,W,1,05,2.32,159.8,M,-34.4,M,,*5B
$GPRMC,142514.000,A,4308.3074,N,07726.2636,W,0.12,298.75,110821,,,A*78
$GPGGA,142514.250,4308.3075,N,07726.2636,W,1,05,2.32,159.8,M,-34.4,M,,*58
$GPRMC,142514.500,A,4308.3075,N,07726.2636,W,0.15,343.09,110821,,,A*77
$GPGGA,142514.750,4308.3075,N,07726.2637,W,1,05,2.32,159.8,M,-34.4,M,,*5C
$GPRMC,142515.000,A,4308.3075,N,07726.2637,W,0.14,336.95,110821,,,A*74
$GPGGA,142515.250,4308.3075,N,07726.2637,W,1,05,2.32,159.7,M,-34.4,M,,*57
$GPRMC,142515.500,A,4308.3075,N,07726.2637,W,0.17,300.56,110821,,,A*78
$GPGGA,142515.750,4308.3075,N,07726.2637,W,1,05,2.32,159.7,M,-34.4,M,,*52
$GPRMC,142516.000,A,4308.3075,N,07726.2637,W,0.20,312.08,110821,,,A*72
$GPGGA,142516.250,4308.3075,N,07726.2637,W,1,05,2.32,159.7,M,-34.4,M,,*54
$GPRMC,142516.500,A,4308.3075,N,07726.2637,W,0.27,323.79,110821,,,A*74
$GPGGA,142516.750,4308.3076,N,07726.2637,W,1,05,2.32,159.7,M,-34.4,M,,*52
$GPRMC,142517.000,A,4308.3076,N,07726.2638,W,0.29,335.04,110821,,,A*7F
$GPGGA,142517.250,4308.3076,N,07726.2638,W,1,05,2.32,159.7,M,-34.4,M,,*59
$GPRMC,142517.500,A,4308.3076,N,07726.2638,W,0.17,358.79,110821,,,A*76
$GPGGA,142517.750,4308.3076,N,07726.2638,W,1,05,2.37,159.7,M,-34.4,M,,*59
$GPRMC,142518.000,A,4308.3076,N,07726.2638,W,0.20,36.28,110821,,,A*47
$GPGGA,142518.250,4308.3076,N,07726.2638,W,1,05,2.32,159.7,M,-34.4,M,,*56
$GPRMC,142518.500,A,4308.3077,N,07726.2637,W,0.17,356.03,110821,,,A*74
$GPGGA,142518.750,4308.3077,N,07726.2637,W,1,05,2.37,159.7,M,-34.4,M,,*58
$GPRMC,142519.000,A,4308.3077,N,07726.2638,W,0.27,332.09,110821,,,A*74
$GPGGA,142519.250,4308.3077,N,07726.2638,W,1,05,2.32,159.6,M,-34.4,M,,*57
$GPRMC,142519.500,A,4308.3077,N,07726.2638,W,0.34,351.84,110821,,,A*73
$GPGGA,142519.750,4308.3078,N,07726.2638,W,1,05,2.37,159.6,M,-34.4,M,,*58
$GPRMC,142520.000,A,4308.3078,N,07726.2638,W,0.39,351.20,110821,,,A*70
$GPGGA,142520.250,4308.3078,N,07726.2638,W,1,06,2.02,159.6,M,-34.4,M,,*52
$GPRMC,142520.500,A,4308.3078,N,07726.2638,W,0.40,352.72,110821,,,A*7F
$GPGGA,142520.750,4308.3079,N,07726.2638,W,1,06,2.02,159.6,M,-34.4,M,,*56
$GPRMC,142521.000,A,4308.3079,N,07726.2638,W,0.29,358.85,110821,,,A*77
$GPGGA,142521.250,4308.3079,N,07726.2638,W,1,06,2.02,159.6,M,-34.4,M,,*52
$GPRMC,142521.500,A,4308.3079,N,07726.2638,W,0.25,2.95,110821,,,A*73
$GPGGA,142521.750,4308.3080,N,07726.2638,W,1,06,2.02,159.6,M,-34.4,M,,*51
$GPRMC,142522.000,A,4308.3080,N,07726.2638,W,0.24,10.75,110821,,,A*4F
$GPGGA,142522.250,4308.3080,N,07726.2638,W,1,06,2.02,159.6,M,-34.4,M,,*57
$GPRMC,142522.500,A,4308.3080,N,07726.2638,W,0.26,359.41,110821,,,A*71
$GPGGA,142522.750,4308.3080,N,07726.2638,W,1,06,2.02,159.5,M,-34.4,M,,*51
$GPRMC,142523.000,A,4308.3080,N,07726.2638,W,0.21,349.10,110821,,,A*77
$GPGGA,142523.250,4308.3081,N,07726.2638,W,1,06,2.02,159.5,M,-34.4,M,,*54
$GPRMC,142523.500,A,4308.3081,N,07726.2638,W,0.22,1.73,110821,,,A*7A
$GPGGA,142523.750,4308.3081,N,07726.2638,W,1,06,2.02,159.5,M,-34.4,M,,*51
$GPRMC,142524.000,A,4308.3081,N,07726.2638,W,0.25,25.91,110821,,,A*45
$GPGGA,142524.250,4308.3081,N,07726.2638,W,1,06,1.54,159.5,M,-34.4,M,,*53
$GPRMC,142524.500,A,4308.3082,N,07726.2638,W,0.56,19.69,110821,,,A*4F
$GPGGA,142524.750,4308.3082,N,07726.2637,W,1,06,1.54,159.5,M,-34.4,M,,*5A
$GPRMC,142525.000,A,4308.3084,N,07726.2637,W,0.86,19.93,110821,,,A*4A
$GPGGA,142525.250,4308.3085,N,07726.2636,W,1,06,1.54,159.2,M,-34.4,M,,*5F
$GPRMC,142525.500,A,4308.3087,N,07726.2635,W,1.06,18.71,110821,,,A*4A
$GPGGA,142525.750,4308.3088,N,07726.2634,W,1,06,1.54,159.0,M,-34.4,M,,*57
$GPRMC,142526.000,A,4308.3089,N,07726.2633,W,1.11,17.53,110821,,,A*4D
$GPGGA,142526.250,4308.3089,N,07726.2633,W,1,06,1.54,158.8,M,-34.4,M,,*5E
$GPRMC,142526.500,A,4308.3090,N,07726.2632,W,1.14,16.03,110821,,,A*40
$GPGGA,142526.750,4308.3092,N,07726.2632,W,1,06,1.54,158.7,M,-34.4,M,,*5F
$GPRMC,142527.000,A,4308.3093,N,07726.2632,W,1.20,13.86,110821,,,A*48
$GPGGA,142527.250,4308.3094,N,07726.2632,W,1,06,2.02,158.5,M,-34.4,M,,*5F
$GPRMC,142527.500,A,4308.3095,N,07726.2632,W,1.18,9.75,110821,,,A*77
$GPGGA,142527.750,4308.3096,N,07726.2632,W,1,06,2.02,158.1,M,-34.4,M,,*5C
$GPRMC,142528.000,A,4308.3096,N,07726.2632,W,1.09,9.80,110821,,,A*74
$GPGGA,142528.250,4308.3096,N,07726.2632,W,1,06,2.02,157.9,M,-34.4,M,,*51
$GPRMC,142528.500,A,4308.3097,N,07726.2632,W,1.00,10.41,110821,,,A*4C
$GPGGA,142528.750,4308.3096,N,07726.2632,W,1,06,2.02,157.7,M,-34.4,M,,*5A
$GPRMC,142529.000,A,4308.3096,N,07726.2632,W,0.85,10.97,110821,,,A*4E
$GPGGA,142529.250,4308.3096,N,07726.2632,W,1,06,2.02,157.5,M,-34.4,M,,*5C
$GPRMC,142529.500,A,4308.3096,N,07726.2632,W,0.76,6.79,110821,,,A*70
$GPGGA,142529.750,4308.3095,N,07726.2633,W,1,06,2.02,157.2,M,-34.4,M,,*5C
$GPRMC,142530.000,A,4308.3096,N,07726.2634,W,0.64,357.11,110821,,,A*71
$GPGGA,142530.250,4308.3095,N,07726.2634,W,1,06,2.02,157.0,M,-34.4,M,,*54
$GPRMC,142530.500,A,4308.3096,N,07726.2633,W,0.58,0.16,110821,,,A*7A
$GPGGA,142530.750,4308.3097,N,07726.2634,W,1,06,2.02,156.7,M,-34.4,M,,*55
$GPRMC,142531.000,A,4308.3098,N,07726.2634,W,0.63,352.87,110821,,,A*73
$GPGGA,142531.250,4308.3099,N,07726.2633,W,1,06,2.02,156.2,M,-34.4,M,,*5D
$GPRMC,142531.500,A,4308.3101,N,07726.2633,W,0.78,4.56,110821,,,A*76
$GPGGA,142531.750,4308.3102,N,07726.2632,W,1,06,2.02,155.7,M,-34.4,M,,*5C
$GPRMC,142532.000,A,4308.3102,N,07726.2632,W,0.85,9.21,110821,,,A*7D
$GPGGA,142532.250,4308.3103,N,07726.2632,W,1,06,2.02,155.3,M,-34.4,M,,*5F
$GPRMC,142532.500,A,4308.3103,N,07726.2631,W,0.87,12.82,110821,,,A*4B
$GPGGA,142532.750,4308.3104,N,07726.2631,W,1,06,2.02,154.9,M,-34.4,M,,*55
$GPRMC,142533.000,A,4308.3105,N,07726.2631,W,1.02,14.77,110821,,,A*49
$GPGGA,142533.250,4308.3106,N,07726.2630,W,1,06,2.02,154.4,M,-34.4,M,,*5F
$GPRMC,142533.500,A,4308.3106,N,07726.2629,W,1.09,20.30,110821,,,A*49
$GPGGA,142533.750,4308.3106,N,07726.2628,W,1,06,1.54,154.0,M,-34.4,M,,*57
$GPRMC,142534.000,A,4308.3107,N,07726.2628,W,1.11,29.49,110821,,,A*45
$GPGGA,142534.250,4308.3107,N,07726.2626,W,1,06,1.54,153.9,M,-34.4,M,,*54
$GPRMC,142534.500,A,4308.3108,N,07726.2625,W,1.21,37.51,110821,,,A*47
$GPGGA,142534.750,4308.3109,N,07726.2623,W,1,06,1.54,153.7,M,-34.4,M,,*54
$GPRMC,142535.000,A,4308.3110,N,07726.2621,W,1.45,45.30,110821,,,A*4E
$GPGGA,142535.250,4308.3111,N,07726.2620,W,1,06,1.54,153.7,M,-34.4,M,,*5A
$GPRMC,142535.500,A,4308.3111,N,07726.2618,W,1.59,50.10,110821,,,A*4B
$GPGGA,142535.750,4308.3112,N,07726.2616,W,1,06,1.54,153.6,M,-34.4,M,,*58
$GPRMC,142536.000,A,4308.3113,N,07726.2615,W,1.64,52.36,110821,,,A*4A
$GPGGA,142536.250,4308.3114,N,07726.2614,W,1,06,1.54,153.5,M,-34.4,M,,*59
$GPRMC,142536.500,A,4308.3114,N,07726.2613,W,1.65,54.73,110821,,,A*48
$GPGGA,142536.750,4308.3115,N,07726.2612,W,1,06,1.54,153.4,M,-34.4,M,,*5A
$GPRMC,142537.000,A,4308.3116,N,07726.2611,W,1.66,54.73,110821,,,A*4F
$GPGGA,142537.250,4308.3118,N,07726.2610,W,1,06,1.54,153.4,M,-34.4,M,,*51
$GPRMC,142537.500,A,4308.3119,N,07726.2609,W,1.66,53.37,110821,,,A*4B
$GPGGA,142537.750,4308.3121,N,07726.2609,W,1,06,1.54,153.3,M,-34.4,M,,*51
$GPRMC,142538.000,A,4308.3122,N,07726.2608,W,1.62,50.10,110821,,,A*4A
$GPGGA,142538.250,4308.3124,N,07726.2608,W,1,06,1.54,153.2,M,-34.4,M,,*5E
$GPRMC,142538.500,A,4308.3126,N,07726.2609,W,1.53,40.44,110821,,,A*48
$GPGGA,142538.750,4308.3127,N,07726.2609,W,1,06,1.54,153.1,M,-34.4,M,,*5A
$GPRMC,142539.000,A,4308.3129,N,07726.2609,W,1.49,33.30,110821,,,A*4F
$GPGGA,142539.250,4308.3131,N,07726.2610,W,1,06,1.54,153.1,M,-34.4,M,,*51
$GPRMC,142539.500,A,4308.3132,N,07726.2610,W,1.48,24.19,110821,,,A*44
$GPGGA,142539.750,4308.3135,N,07726.2611,W,1,06,1.54,153.0,M,-34.4,M,,*50
$GPRMC,142540.000,A,4308.3137,N,07726.2613,W,1.53,11.32,110821,,,A*4C
$GPGGA,142540.250,4308.3138,N,07726.2614,W,1,06,2.02,153.0,M,-34.4,M,,*53
$GPRMC,142540.500,A,4308.3139,N,07726.2614,W,1.57,2.45,110821,,,A*76
$GPGGA,142540.750,4308.3140,N,07726.2616,W,1,06,2.02,152.9,M,-34.4,M,,*53
$GPRMC,142541.000,A,4308.3142,N,07726.2617,W,1.60,355.21,110821,,,A*7A
$GPGGA,142541.250,4308.3142,N,07726.2619,W,1,06,2.02,152.9,M,-34.4,M,,*5A
$GPRMC,142541.500,A,4308.3142,N,07726.2621,W,1.61,345.39,110821,,,A*73
$GPGGA,142541.750,4308.3142,N,07726.2624,W,1,06,2.02,152.8,M,-34.4,M,,*50
$GPRMC,142542.000,A,4308.3141,N,07726.2627,W,1.65,329.47,110821,,,A*77
$GPGGA,142542.250,4308.3139,N,07726.2632,W,1,06,1.54,152.8,M,-34.4,M,,*5D
$GPRMC,142542.500,A,4308.3139,N,07726.2635,W,1.82,316.04,110821,,,A*7C
$GPGGA,142542.750,4308.3139,N,07726.2639,W,1,06,1.54,152.9,M,-34.4,M,,*52
$GPRMC,142543.000,A,4308.3139,N,07726.2642,W,2.02,308.04,110821,,,A*7C
$GPGGA,142543.250,4308.3138,N,07726.2645,W,1,06,1.54,152.9,M,-34.4,M,,*5C
$GPRMC,142543.500,A,4308.3138,N,07726.2648,W,2.17,302.66,110821,,,A*78
$GPGGA,142543.750,4308.3138,N,07726.2653,W,1,06,1.54,152.9,M,-34.4,M,,*5E
$GPRMC,142544.000,A,4308.3139,N,07726.2656,W,2.38,298.16,110821,,,A*7C
$GPGGA,142544.250,4308.3139,N,07726.2660,W,1,06,1.54,153.0,M,-34.4,M,,*55
$GPRMC,142544.500,A,4308.3139,N,07726.2664,W,2.86,291.99,110821,,,A*73
$GPGGA,142544.750,4308.3139,N,07726.2669,W,1,06,1.54,153.0,M,-34.4,M,,*59
$GPRMC,142545.000,A,4308.3139,N,07726.2673,W,3.60,286.86,110821,,,A*70
$GPGGA,142545.250,4308.3139,N,07726.2678,W,1,06,1.54,153.0,M,-34.4,M,,*5D
$GPRMC,142545.500,A,4308.3139,N,07726.2684,W,4.46,280.88,110821,,,A*76
$GPGGA,142545.750,4308.3139,N,07726.2690,W,1,06,2.02,153.0,M,-34.4,M,,*5E
$GPRMC,142546.000,A,4308.3140,N,07726.2695,W,4.88,279.87,110821,,,A*75
$GPGGA,142546.250,4308.3140,N,07726.2700,W,1,06,2.02,153.1,M,-34.4,M,,*5F
$GPRMC,142546.500,A,4308.3140,N,07726.2706,W,5.27,277.90,110821,,,A*77
$GPGGA,142546.750,4308.3141,N,07726.2712,W,1,06,2.02,153.1,M,-34.4,M,,*58
$GPRMC,142547.000,A,4308.3141,N,07726.2717,W,5.42,278.93,110821,,,A*7D
$GPGGA,142547.250,4308.3142,N,07726.2723,W,1,06,2.02,153.2,M,-34.4,M,,*5E
$GPRMC,142547.500,A,4308.3143,N,07726.2729,W,5.83,279.49,110821,,,A*7C
$GPGGA,142547.750,4308.3144,N,07726.2736,W,1,06,2.02,153.2,M,-34.4,M,,*59
$GPRMC,142548.000,A,4308.3144,N,07726.2743,W,6.38,279.41,110821,,,A*76
$GPGGA,142548.250,4308.3144,N,07726.2750,W,1,06,2.02,153.2,M,-34.4,M,,*53
$GPRMC,142548.500,A,4308.3145,N,07726.2757,W,6.63,279.41,110821,,,A*79
$GPGGA,142548.750,4308.3146,N,07726.2764,W,1,06,2.02,153.3,M,-34.4,M,,*52
$GPRMC,142549.000,A,4308.3148,N,07726.2771,W,6.98,282.52,110821,,,A*76
$GPGGA,142549.250,4308.3151,N,07726.2779,W,1,06,2.02,153.4,M,-34.4,M,,*5B
$GPRMC,142549.500,A,4308.3152,N,07726.2787,W,7.47,285.37,110821,,,A*76
$GPGGA,142549.750,4308.3154,N,07726.2795,W,1,06,2.02,153.6,M,-34.4,M,,*5B
$GPRMC,142550.000,A,4308.3154,N,07726.2804,W,7.99,286.87,110821,,,A*72
$GPGGA,142550.250,4308.3155,N,07726.2812,W,1,06,2.02,153.6,M,-34.4,M,,*57
$GPRMC,142550.500,A,4308.3156,N,07726.2821,W,8.41,286.67,110821,,,A*76
$GPGGA,142550.750,4308.3158,N,07726.2829,W,1,06,2.02,153.7,M,-34.4,M,,*56
$GPRMC,142551.000,A,4308.3160,N,07726.2837,W,8.59,289.46,110821,,,A*75
$GPGGA,142551.250,4308.3163,N,07726.2845,W,1,06,2.02,153.9,M,-34.4,M,,*5E
$GPRMC,142551.500,A,4308.3165,N,07726.2854,W,8.76,290.34,110821,,,A*70
$GPGGA,142551.750,4308.3168,N,07726.2863,W,1,06,2.02,154.2,M,-34.4,M,,*58
$GPRMC,142552.000,A,4308.3171,N,07726.2871,W,9.17,293.13,110821,,,A*74
$GPGGA,142552.250,4308.3175,N,07726.2880,W,1,06,2.02,154.3,M,-34.4,M,,*5E
$GPRMC,142552.500,A,4308.3179,N,07726.2889,W,9.89,296.00,110821,,,A*7E
$GPGGA,142552.750,4308.3182,N,07726.2898,W,1,06,2.02,154.2,M,-34.4,M,,*5B
$GPRMC,142553.000,A,4308.3185,N,07726.2908,W,10.20,297.25,110821,,,A*4C
$GPGGA,142553.250,4308.3189,N,07726.2917,W,1,06,2.02,154.0,M,-34.4,M,,*50
$GPRMC,142553.500,A,4308.3192,N,07726.2927,W,10.64,298.10,110821,,,A*4B
$GPGGA,142553.750,4308.3195,N,07726.2937,W,1,06,2.02,153.8,M,-34.4,M,,*55
$GPRMC,142554.000,A,4308.3198,N,07726.2947,W,10.90,298.86,110821,,,A*41
$GPGGA,142554.250,4308.3202,N,07726.2957,W,1,06,2.02,153.4,M,-34.4,M,,*50
$GPRMC,142554.500,A,4308.3206,N,07726.2967,W,11.42,300.25,110821,,,A*45
$GPGGA,142554.750,4308.3210,N,07726.2977,W,1,06,2.02,153.1,M,-34.4,M,,*51
$GPRMC,142555.000,A,4308.3214,N,07726.2988,W,11.74,301.79,110821,,,A*4E
$GPGGA,142555.250,4308.3217,N,07726.2998,W,1,06,2.02,152.7,M,-34.4,M,,*54
$GPRMC,142555.500,A,4308.3221,N,07726.3009,W,12.07,301.75,110821,,,A*47
$GPGGA,142555.750,4308.3226,N,07726.3020,W,1,06,2.02,152.4,M,-34.4,M,,*5B
$GPRMC,142556.000,A,4308.3230,N,07726.3030,W,12.34,302.05,110821,,,A*4F
$GPGGA,142556.250,4308.3235,N,07726.3040,W,1,06,2.02,152.1,M,-34.4,M,,*5C
$GPRMC,142556.500,A,4308.3239,N,07726.3051,W,12.40,301.26,110821,,,A*45
$GPGGA,142556.750,4308.3244,N,07726.3062,W,1,06,2.02,151.9,M,-34.4,M,,*54
$GPRMC,142557.000,A,4308.3248,N,07726.3073,W,12.57,300.68,110821,,,A*4A
$GPGGA,142557.250,4308.3253,N,07726.3083,W,1,06,2.02,151.7,M,-34.4,M,,*57
$GPRMC,142557.500,A,4308.3257,N,07726.3094,W,12.61,301.52,110821,,,A*45
$GPGGA,142557.750,4308.3262,N,07726.3105,W,1,06,2.02,151.6,M,-34.4,M,,*5E
$GPRMC,142558.000,A,4308.3267,N,07726.3116,W,12.67,301.92,110821,,,A*4D
$GPGGA,142558.250,4308.3272,N,07726.3127,W,1,06,2.02,151.6,M,-34.4,M,,*55
$GPRMC,142558.500,A,4308.3277,N,07726.3139,W,12.95,302.32,110821,,,A*40
$GPGGA,142558.750,4308.3282,N,07726.3151,W,1,06,2.02,151.9,M,-34.4,M,,*51
$GPRMC,142559.000,A,4308.3287,N,07726.3162,W,13.56,303.11,110821,,,A*4B
$GPGGA,142559.250,4308.3292,N,07726.3175,W,1,06,2.02,152.2,M,-34.4,M,,*5A
$GPRMC,142559.500,A,4308.3297,N,07726.3187,W,14.20,303.36,110821,,,A*47
$GPGGA,142559.750,4308.3302,N,07726.3199,W,1,06,2.02,152.4,M,-34.4,M,,*53
$GPRMC,142600.000,A,4308.3308,N,07726.3212,W,14.63,303.32,110821,,,A*46
$GPGGA,142600.250,4308.3312,N,07726.3224,W,1,06,2.02,152.4,M,-34.4,M,,*5D
$GPRMC,142600.500,A,4308.3317,N,07726.3237,W,15.02,302.65,110821,,,A*4F
$GPGGA,142600.750,4308.3322,N,07726.3250,W,1,06,2.02,152.4,M,-34.4,M,,*58
$GPRMC,142601.000,A,4308.3328,N,07726.3263,W,15.26,302.65,110821,,,A*40
$GPGGA,142601.250,4308.3333,N,07726.3276,W,1,06,2.02,152.2,M,-34.4,M,,*5E
$GPRMC,142601.500,A,4308.3338,N,07726.3289,W,15.53,302.46,110821,,,A*43
$GPGGA,142601.750,4308.3344,N,07726.3302,W,1,06,2.02,152.0,M,-34.4,M,,*5B
$GPRMC,142602.000,A,4308.3350,N,07726.3316,W,15.80,302.61,110821,,,A*47
$GPGGA,142602.250,4308.3355,N,07726.3329,W,1,06,2.02,151.8,M,-34.4,M,,*5F
$GPRMC,142602.500,A,4308.3361,N,07726.3343,W,16.07,303.17,110821,,,A*4C
$GPGGA,142602.750,4308.3367,N,07726.3357,W,1,06,2.02,151.7,M,-34.4,M,,*5D
$GPRMC,142603.000,A,4308.3373,N,07726.3370,W,16.12,303.09,110821,,,A*40
$GPGGA,142603.250,4308.3379,N,07726.3384,W,1,06,2.02,151.5,M,-34.4,M,,*5A
$GPRMC,142603.500,A,4308.3385,N,07726.3397,W,16.16,303.22,110821,,,A*48
$GPGGA,142603.750,4308.3391,N,07726.3411,W,1,06,2.02,151.4,M,-34.4,M,,*53
$GPRMC,142604.000,A,4308.3397,N,07726.3424,W,16.36,303.17,110821,,,A*42
$GPGGA,142604.250,4308.3404,N,07726.3437,W,1,06,2.02,151.4,M,-34.4,M,,*5E
$GPRMC,142604.500,A,4308.3410,N,07726.3450,W,16.48,303.29,110821,,,A*48
$GPGGA,142604.750,4308.3417,N,07726.3463,W,1,06,2.02,151.5,M,-34.4,M,,*59
$GPRMC,142605.000,A,4308.3424,N,07726.3476,W,16.58,304.13,110821,,,A*40
$GPGGA,142605.250,4308.3430,N,07726.3490,W,1,06,2.02,151.6,M,-34.4,M,,*57
$GPRMC,142605.500,A,4308.3437,N,07726.3503,W,16.68,305.39,110821,,,A*4E
$GPGGA,142605.750,4308.3444,N,07726.3516,W,1,06,2.02,151.7,M,-34.4,M,,*5F
$GPRMC,142606.000,A,4308.3451,N,07726.3528,W,16.73,306.41,110821,,,A*47
$GPGGA,142606.250,4308.3458,N,07726.3541,W,1,06,2.02,152.0,M,-34.4,M,,*52
$GPRMC,142606.500,A,4308.3465,N,07726.3553,W,16.71,307.06,110821,,,A*49
$GPGGA,142606.750,4308.3472,N,07726.3565,W,1,06,2.02,152.3,M,-34.4,M,,*5A
$GPRMC,142607.000,A,4308.3478,N,07726.3578,W,16.43,307.07,110821,,,A*48
$GPGGA,142607.250,4308.3484,N,07726.3590,W,1,06,2.02,152.5,M,-34.4,M,,*5B
$GPRMC,142607.500,A,4308.3491,N,07726.3603,W,16.52,307.63,110821,,,A*47
$GPGGA,142607.750,4308.3498,N,07726.3615,W,1,06,2.02,152.5,M,-34.4,M,,*5D
$GPRMC,142608.000,A,4308.3506,N,07726.3627,W,16.70,309.06,110821,,,A*49
$GPGGA,142608.250,4308.3514,N,07726.3639,W,1,06,2.02,152.6,M,-34.4,M,,*5F
$GPRMC,142608.500,A,4308.3522,N,07726.3651,W,16.79,311.12,110821,,,A*4E
$GPGGA,142608.750,4308.3530,N,07726.3663,W,1,06,2.02,152.6,M,-34.4,M,,*53
$GPRMC,142609.000,A,4308.3539,N,07726.3675,W,17.16,312.24,110821,,,A*48
$GPGGA,142609.250,4308.3547,N,07726.3686,W,1,06,2.02,152.5,M,-34.4,M,,*5F
$GPRMC,142609.500,A,4308.3556,N,07726.3697,W,16.86,314.66,110821,,,A*40
$GPGGA,142609.750,4308.3565,N,07726.3706,W,1,06,2.02,152.6,M,-34.4,M,,*50
$GPRMC,142610.000,A,4308.3574,N,07726.3715,W,16.30,318.50,110821,,,A*42
$GPGGA,142610.250,4308.3585,N,07726.3724,W,1,06,2.02,152.9,M,-34.4,M,,*5C
$GPRMC,142610.500,A,4308.3597,N,07726.3732,W,16.69,324.23,110821,,,A*48
$GPGGA,142610.750,4308.3608,N,07726.3740,W,1,06,2.02,153.2,M,-34.4,M,,*57
$GPRMC,142611.000,A,4308.3617,N,07726.3749,W,16.65,327.40,110821,,,A*41
$GPGGA,142611.250,4308.3628,N,07726.3757,W,1,06,2.02,153.2,M,-34.4,M,,*57
$GPRMC,142611.500,A,4308.3640,N,07726.3764,W,16.70,331.56,110821,,,A*4D
$GPGGA,142611.750,4308.3652,N,07726.3770,W,1,06,2.02,153.4,M,-34.4,M,,*5C
$GPRMC,142612.000,A,4308.3664,N,07726.3776,W,17.07,335.69,110821,,,A*47
$GPGGA,142612.250,4308.3676,N,07726.3782,W,1,06,2.02,153.6,M,-34.4,M,,*53
$GPRMC,142612.500,A,4308.3689,N,07726.3788,W,17.45,338.71,110821,,,A*42
$GPGGA,142612.750,4308.3703,N,07726.3793,W,1,06,2.02,153.6,M,-34.4,M,,*55
$GPRMC,142613.000,A,4308.3716,N,07726.3799,W,17.72,340.12,110821,,,A*4F
$GPGGA,142613.250,4308.3728,N,07726.3804,W,1,06,2.02,153.6,M,-34.4,M,,*59
$GPRMC,142613.500,A,4308.3741,N,07726.3808,W,17.52,341.89,110821,,,A*4E
$GPGGA,142613.750,4308.3753,N,07726.3812,W,1,06,2.02,153.7,M,-34.4,M,,*56
$GPRMC,142614.000,A,4308.3764,N,07726.3816,W,16.89,344.56,110821,,,A*44
$GPGGA,142614.250,4308.3776,N,07726.3819,W,1,06,2.02,153.8,M,-34.4,M,,*57
$GPRMC,142614.500,A,4308.3789,N,07726.3822,W,16.77,346.84,110821,,,A*49
$GPGGA,142614.750,4308.3803,N,07726.3820,W,1,06,2.02,153.8,M,-34.4,M,,*55
$GPRMC,142615.000,A,4308.3817,N,07726.3819,W,17.26,353.79,110821,,,A*4E
$GPGGA,142615.250,4308.3830,N,07726.3815,W,1,06,2.02,153.6,M,-34.4,M,,*59
$GPRMC,142615.500,A,4308.3843,N,07726.3813,W,17.35,0.07,110821,,,A*4E
$GPGGA,142615.750,4308.3856,N,07726.3811,W,1,06,2.02,153.6,M,-34.4,M,,*58
$GPRMC,142616.000,A,4308.3868,N,07726.3808,W,17.39,3.10,110821,,,A*42
$GPGGA,142616.250,4308.3880,N,07726.3806,W,1,06,2.02,153.5,M,-34.4,M,,*50
$GPRMC,142616.500,A,4308.3892,N,07726.3803,W,17.41,5.51,110821,,,A*45
$GPGGA,142616.750,4308.3904,N,07726.3800,W,1,06,2.02,153.3,M,-34.4,M,,*58
$GPRMC,142617.000,A,4308.3916,N,07726.3797,W,17.41,7.01,110821,,,A*49
$GPGGA,142617.250,4308.3929,N,07726.3794,W,1,06,2.02,153.2,M,-34.4,M,,*50
$GPRMC,142617.500,A,4308.3941,N,07726.3791,W,17.67,8.39,110821,,,A*48
$GPGGA,142617.750,4308.3953,N,07726.3788,W,1,06,2.02,153.1,M,-34.4,M,,*56
$GPRMC,142618.000,A,4308.3965,N,07726.3785,W,17.84,9.32,110821,,,A*46
$GPGGA,142618.250,4308.3976,N,07726.3781,W,1,06,2.02,153.2,M,-34.4,M,,*51
$GPRMC,142618.500,A,4308.3989,N,07726.3778,W,17.80,10.25,110821,,,A*79
$GPGGA,142618.750,4308.4001,N,07726.3774,W,1,06,2.02,153.4,M,-34.4,M,,*56
$GPRMC,142619.000,A,4308.4013,N,07726.3771,W,17.76,9.97,110821,,,A*41
$GPGGA,142619.250,4308.4026,N,07726.3768,W,1,06,2.02,153.6,M,-34.4,M,,*58
$GPRMC,142619.500,A,4308.4039,N,07726.3765,W,17.75,9.40,110821,,,A*40
$GPGGA,142619.750,4308.4051,N,07726.3761,W,1,06,2.02,153.7,M,-34.4,M,,*55
$GPRMC,142620.000,A,4308.4063,N,07726.3757,W,17.37,9.96,110821,,,A*4C
$GPGGA,142620.250,4308.4074,N,07726.3753,W,1,06,2.02,153.9,M,-34.4,M,,*52
$GPRMC,142620.500,A,4308.4087,N,07726.3749,W,17.18,10.11,110821,,,A*76
$GPGGA,142620.750,4308.4100,N,07726.3746,W,1,06,2.02,153.9,M,-34.4,M,,*51
$GPRMC,142621.000,A,4308.4112,N,07726.3743,W,17.19,9.55,110821,,,A*4C
$GPGGA,142621.250,4308.4125,N,07726.3739,W,1,06,2.03,154.1,M,-34.4,M,,*54
$GPRMC,142621.500,A,4308.4138,N,07726.3736,W,17.39,9.34,110821,,,A*46
$GPGGA,142621.750,4308.4152,N,07726.3734,W,1,06,2.02,154.3,M,-34.4,M,,*5F
$GPRMC,142622.000,A,4308.4165,N,07726.3731,W,17.67,8.52,110821,,,A*45
$GPGGA,142622.250,4308.4178,N,07726.3729,W,1,06,2.02,154.3,M,-34.4,M,,*5D
$GPRMC,142622.500,A,4308.4192,N,07726.3726,W,17.87,8.01,110821,,,A*46
$GPGGA,142622.750,4308.4204,N,07726.3724,W,1,06,2.02,154.3,M,-34.4,M,,*5D
$GPRMC,142623.000,A,4308.4217,N,07726.3721,W,17.63,8.35,110821,,,A*46
$GPGGA,142623.250,4308.4229,N,07726.3718,W,1,06,2.02,154.2,M,-34.4,M,,*58
$GPRMC,142623.500,A,4308.4240,N,07726.3716,W,17.41,7.93,110821,,,A*46
$GPGGA,142623.750,4308.4252,N,07726.3714,W,1,06,2.02,154.0,M,-34.4,M,,*5F
$GPRMC,142624.000,A,4308.4264,N,07726.3711,W,17.41,7.40,110821,,,A*4B
$GPGGA,142624.250,4308.4276,N,07726.3709,W,1,06,2.02,154.0,M,-34.4,M,,*57
$GPRMC,142624.500,A,4308.4288,N,07726.3707,W,17.19,7.23,110821,,,A*43
$GPGGA,142624.750,4308.4299,N,07726.3704,W,1,06,2.03,154.1,M,-34.4,M,,*5E
$GPRMC,142625.000,A,4308.4311,N,07726.3701,W,16.98,8.20,110821,,,A*44
$GPGGA,142625.250,4308.4323,N,07726.3698,W,1,06,2.02,154.3,M,-34.4,M,,*5D
$GPRMC,142625.500,A,4308.4335,N,07726.3696,W,16.96,7.98,110821,,,A*4A
$GPGGA,142625.750,4308.4346,N,07726.3694,W,1,06,2.02,154.5,M,-34.4,M,,*51
$GPRMC,142626.000,A,4308.4358,N,07726.3691,W,16.94,7.58,110821,,,A*4E
$GPGGA,142626.250,4308.4368,N,07726.3688,W,1,06,2.02,154.5,M,-34.4,M,,*56
$GPRMC,142626.500,A,4308.4378,N,07726.3685,W,16.49,8.44,110821,,,A*4E
$GPGGA,142626.750,4308.4389,N,07726.3682,W,1,06,2.02,154.6,M,-34.4,M,,*55
$GPRMC,142627.000,A,4308.4400,N,07726.3679,W,16.22,8.22,110821,,,A*4C
$GPGGA,142627.250,4308.4411,N,07726.3676,W,1,06,2.02,154.7,M,-34.4,M,,*5D
$GPRMC,142627.500,A,4308.4422,N,07726.3674,W,15.61,7.90,110821,,,A*46
$GPGGA,142627.750,4308.4434,N,07726.3670,W,1,06,2.02,154.6,M,-34.4,M,,*58
$GPRMC,142628.000,A,4308.4446,N,07726.3667,W,15.23,8.21,110821,,,A*4F
$GPGGA,142628.250,4308.4457,N,07726.3664,W,1,06,2.02,154.9,M,-34.4,M,,*5D
$GPRMC,142628.500,A,4308.4468,N,07726.3661,W,14.71,7.95,110821,,,A*46
$GPGGA,142628.750,4308.4479,N,07726.3659,W,1,06,2.03,155.5,M,-34.4,M,,*56
$GPRMC,142629.000,A,4308.4490,N,07726.3656,W,14.43,7.37,110821,,,A*48
$GPGGA,142629.250,4308.4500,N,07726.3654,W,1,06,2.02,156.0,M,-34.4,M,,*57
$GPRMC,142629.500,A,4308.4509,N,07726.3651,W,13.75,6.91,110821,,,A*44
$GPGGA,142629.750,4308.4517,N,07726.3648,W,1,06,2.02,156.3,M,-34.4,M,,*5A
$GPRMC,142630.000,A,4308.4526,N,07726.3645,W,13.10,6.92,110821,,,A*41
$GPGGA,142630.250,4308.4534,N,07726.3643,W,1,06,2.03,156.6,M,-34.4,M,,*59
$GPRMC,142630.500,A,4308.4541,N,07726.3641,W,12.28,5.61,110821,,,A*44
$GPGGA,142630.750,4308.4548,N,07726.3639,W,1,06,2.02,156.7,M,-34.4,M,,*5A
$GPRMC,142631.000,A,4308.4555,N,07726.3637,W,11.33,5.62,110821,,,A*4E
$GPGGA,142631.250,4308.4558,N,07726.3634,W,1,06,2.02,156.9,M,-34.4,M,,*5C
$GPRMC,142631.500,A,4308.4562,N,07726.3632,W,9.24,10.53,110821,,,A*43
$GPGGA,142631.750,4308.4566,N,07726.3630,W,1,06,2.02,157.0,M,-34.4,M,,*58
$GPRMC,142632.000,A,4308.4570,N,07726.3629,W,7.95,11.44,110821,,,A*4F
$GPGGA,142632.250,4308.4572,N,07726.3628,W,1,07,1.07,157.2,M,-34.4,M,,*57
$GPRMC,142632.500,A,4308.4573,N,07726.3628,W,5.98,10.28,110821,,,A*4C
$GPGGA,142632.750,4308.4573,N,07726.3628,W,1,07,1.07,157.5,M,-34.4,M,,*54
$GPRMC,142633.000,A,4308.4574,N,07726.3628,W,4.02,2.20,110821,,,A*76
$GPGGA,142633.250,4308.4576,N,07726.3629,W,1,07,1.07,157.7,M,-34.4,M,,*56
$GPRMC,142633.500,A,4308.4577,N,07726.3629,W,2.93,359.65,110821,,,A*73
$GPGGA,142633.750,4308.4577,N,07726.3628,W,1,07,1.07,157.8,M,-34.4,M,,*5C
$GPRMC,142634.000,A,4308.4578,N,07726.3628,W,2.16,359.65,110821,,,A*72
$GPGGA,142634.250,4308.4579,N,07726.3628,W,1,07,1.07,158.0,M,-34.4,M,,*57
$GPRMC,142634.500,A,4308.4580,N,07726.3628,W,2.14,359.65,110821,,,A*72
$GPGGA,142634.750,4308.4581,N,07726.3628,W,1,07,1.07,158.2,M,-34.4,M,,*57
$GPRMC,142635.000,A,4308.4581,N,07726.3628,W,2.05,359.65,110821,,,A*77
$GPGGA,142635.250,4308.4582,N,07726.3628,W,1,07,1.07,158.4,M,-34.4,M,,*56
$GPRMC,142635.500,A,4308.4583,N,07726.3628,W,1.95,359.65,110821,,,A*7A
$GPGGA,142635.750,4308.4583,N,07726.3628,W,1,07,1.07,158.5,M,-34.4,M,,*53
$GPRMC,142636.000,A,4308.4584,N,07726.3628,W,1.70,359.65,110821,,,A*70
$GPGGA,142636.250,4308.4584,N,07726.3628,W,1,07,1.07,158.7,M,-34.4,M,,*50
$GPRMC,142636.500,A,4308.4584,N,07726.3628,W,1.36,359.65,110821,,,A*77
$GPGGA,142636.750,4308.4583,N,07726.3628,W,1,07,1.07,159.1,M,-34.4,M,,*55
$GPRMC,142637.000,A,4308.4583,N,07726.3628,W,1.10,359.65,110821,,,A*70
$GPGGA,142637.250,4308.4583,N,07726.3628,W,1,07,1.07,159.4,M,-34.4,M,,*54
$GPRMC,142637.500,A,4308.4583,N,07726.3627,W,0.97,359.65,110821,,,A*74
$GPGGA,142637.750,4308.4583,N,07726.3627,W,1,07,1.07,160.0,M,-34.4,M,,*50
$GPRMC,142638.000,A,4308.4582,N,07726.3627,W,0.78,359.65,110821,,,A*7E
$GPGGA,142638.250,4308.4581,N,07726.3627,W,1,07,1.07,160.7,M,-34.4,M,,*5F
$GPRMC,142638.500,A,4308.4581,N,07726.3626,W,0.67,359.65,110821,,,A*77
$GPGGA,142638.750,4308.4581,N,07726.3626,W,1,07,1.07,161.1,M,-34.4,M,,*5C
$GPRMC,142639.000,A,4308.4581,N,07726.3626,W,0.33,359.65,110821,,,A*72
$GPGGA,142639.250,4308.4582,N,07726.3626,W,1,07,1.07,161.3,M,-34.4,M,,*59
$GPRMC,142639.500,A,4308.4582,N,07726.3626,W,0.26,359.65,110821,,,A*70
$GPGGA,142639.750,4308.4582,N,07726.3626,W,1,07,1.07,161.4,M,-34.4,M,,*5B
$GPRMC,142640.000,A,4308.4582,N,07726.3626,W,0.20,359.65,110821,,,A*7D
$GPGGA,142640.250,4308.4582,N,07726.3626,W,1,07,1.07,161.6,M,-34.4,M,,*52
$GPRMC,142640.500,A,4308.4582,N,07726.3626,W,0.22,359.65,110821,,,A*7A
$GPGGA,142640.750,4308.4583,N,07726.3626,W,1,07,1.07,161.8,M,-34.4,M,,*58
$GPRMC,142641.000,A,4308.4583,N,07726.3626,W,0.14,359.65,110821,,,A*7A
$GPGGA,142641.250,4308.4583,N,07726.3626,W,1,07,1.07,161.8,M,-34.4,M,,*5C
$GPRMC,142641.500,A,4308.4583,N,07726.3626,W,0.13,359.65,110821,,,A*78
$GPGGA,142641.750,4308.4583,N,07726.3626,W,1,07,1.07,161.9,M,-34.4,M,,*58
$GPRMC,142642.000,A,4308.4583,N,07726.3626,W,0.18,359.65,110821,,,A*75
$GPGGA,142642.250,4308.4583,N,07726.3626,W,1,07,1.07,161.9,M,-34.4,M,,*5E
$GPRMC,142642.500,A,4308.4583,N,07726.3626,W,0.32,359.65,110821,,,A*78
$GPGGA,142642.750,4308.4583,N,07726.3627,W,1,07,1.07,161.9,M,-34.4,M,,*5A
$GPRMC,142643.000,A,4308.4584,N,07726.3627,W,0.55,359.65,110821,,,A*7B
$GPGGA,142643.250,4308.4584,N,07726.3627,W,1,07,1.07,162.0,M,-34.4,M,,*53
$GPRMC,142643.500,A,4308.4585,N,07726.3627,W,1.19,359.65,110821,,,A*76
$GPGGA,142643.750,4308.4585,N,07726.3627,W,1,07,1.07,162.0,M,-34.4,M,,*57
$GPRMC,142644.000,A,4308.4587,N,07726.3627,W,1.79,359.65,110821,,,A*70
$GPGGA,142644.250,4308.4588,N,07726.3627,W,1,07,1.07,162.0,M,-34.4,M,,*58
$GPRMC,142644.500,A,4308.4591,N,07726.3627,W,3.82,350.68,110821,,,A*70
$GPGGA,142644.750,4308.4596,N,07726.3629,W,1,07,1.07,161.7,M,-34.4,M,,*58
$GPRMC,142645.000,A,4308.4600,N,07726.3630,W,5.40,346.03,110821,,,A*7B
$GPGGA,142645.250,4308.4605,N,07726.3633,W,1,07,1.07,161.7,M,-34.4,M,,*5E
$GPRMC,142645.500,A,4308.4609,N,07726.3635,W,6.65,339.98,110821,,,A*7C
$GPGGA,142645.750,4308.4614,N,07726.3638,W,1,07,1.07,161.7,M,-34.4,M,,*50
$GPRMC,142646.000,A,4308.4619,N,07726.3641,W,7.46,335.22,110821,,,A*75
$GPGGA,142646.250,4308.4623,N,07726.3645,W,1,07,1.07,161.7,M,-34.4,M,,*58
$GPRMC,142646.500,A,4308.4627,N,07726.3650,W,7.69,326.60,110821,,,A*74
$GPGGA,142646.750,4308.4631,N,07726.3656,W,1,07,1.07,161.7,M,-34.4,M,,*5C
$GPRMC,142647.000,A,4308.4636,N,07726.3662,W,8.27,318.53,110821,,,A*79
$GPGGA,142647.250,4308.4640,N,07726.3670,W,1,07,1.07,161.7,M,-34.4,M,,*5A
$GPRMC,142647.500,A,4308.4643,N,07726.3679,W,9.24,308.45,110821,,,A*70
$GPGGA,142647.750,4308.4647,N,07726.3687,W,1,07,1.07,161.7,M,-34.4,M,,*50
$GPRMC,142648.000,A,4308.4651,N,07726.3696,W,9.74,304.11,110821,,,A*70
$GPGGA,142648.250,4308.4653,N,07726.3706,W,1,07,1.07,161.8,M,-34.4,M,,*58
$GPRMC,142648.500,A,4308.4656,N,07726.3716,W,10.65,297.63,110821,,,A*4D
$GPGGA,142648.750,4308.4658,N,07726.3728,W,1,07,1.07,161.8,M,-34.4,M,,*5A
$GPRMC,142649.000,A,4308.4659,N,07726.3740,W,11.62,290.04,110821,,,A*45
$GPGGA,142649.250,4308.4660,N,07726.3753,W,1,07,1.07,161.8,M,-34.4,M,,*59
$GPRMC,142649.500,A,4308.4659,N,07726.3766,W,12.28,283.06,110821,,,A*49
$GPGGA,142649.750,4308.4660,N,07726.3778,W,1,07,1.07,161.7,M,-34.4,M,,*5A
$GPRMC,142650.000,A,4308.4661,N,07726.3791,W,12.53,281.52,110821,,,A*48
$GPGGA,142650.250,4308.4663,N,07726.3803,W,1,07,1.07,161.7,M,-34.4,M,,*57
$GPRMC,142650.500,A,4308.4664,N,07726.3816,W,12.64,280.53,110821,,,A*4C
$GPGGA,142650.750,4308.4666,N,07726.3829,W,1,07,1.07,161.8,M,-34.4,M,,*50
$GPRMC,142651.000,A,4308.4668,N,07726.3841,W,12.85,280.44,110821,,,A*4F
$GPGGA,142651.250,4308.4669,N,07726.3854,W,1,07,1.07,161.8,M,-34.4,M,,*51
$GPRMC,142651.500,A,4308.4670,N,07726.3867,W,13.21,279.80,110821,,,A*46
$GPGGA,142651.750,4308.4671,N,07726.3881,W,1,07,1.07,161.7,M,-34.4,M,,*5A
$GPRMC,142652.000,A,4308.4672,N,07726.3894,W,13.41,278.37,110821,,,A*45
$GPGGA,142652.250,4308.4673,N,07726.3907,W,1,07,1.07,161.6,M,-34.4,M,,*50
$GPRMC,142652.500,A,4308.4674,N,07726.3920,W,13.48,278.17,110821,,,A*43
$GPGGA,142652.750,4308.4675,N,07726.3933,W,1,07,1.07,161.6,M,-34.4,M,,*54
$GPRMC,142653.000,A,4308.4676,N,07726.3946,W,13.60,278.20,110821,,,A*4B
$GPGGA,142653.250,4308.4677,N,07726.3959,W,1,07,1.07,161.6,M,-34.4,M,,*5E
$GPRMC,142653.500,A,4308.4679,N,07726.3972,W,13.68,277.93,110821,,,A*49
$GPGGA,142653.750,4308.4679,N,07726.3985,W,1,07,1.07,161.6,M,-34.4,M,,*54
$GPRMC,142654.000,A,4308.4680,N,07726.3998,W,13.67,277.32,110821,,,A*4D
$GPGGA,142654.250,4308.4681,N,07726.4011,W,1,07,1.07,161.7,M,-34.4,M,,*53
$GPRMC,142654.500,A,4308.4682,N,07726.4023,W,13.40,276.82,110821,,,A*4B
$GPGGA,142654.750,4308.4683,N,07726.4036,W,1,07,1.07,161.7,M,-34.4,M,,*51
$GPRMC,142655.000,A,4308.4684,N,07726.4049,W,13.39,276.07,110821,,,A*46
$GPGGA,142655.250,4308.4684,N,07726.4062,W,1,07,1.07,161.8,M,-34.4,M,,*5C
$GPRMC,142655.500,A,4308.4684,N,07726.4075,W,13.42,275.03,110821,,,A*47
$GPGGA,142655.750,4308.4685,N,07726.4087,W,1,07,1.07,161.8,M,-34.4,M,,*53
$GPRMC,142656.000,A,4308.4686,N,07726.4100,W,13.20,275.02,110821,,,A*45
$GPGGA,142656.250,4308.4686,N,07726.4112,W,1,07,1.07,161.8,M,-34.4,M,,*5B
$GPRMC,142656.500,A,4308.4687,N,07726.4124,W,12.58,274.99,110821,,,A*4A
$GPGGA,142656.750,4308.4687,N,07726.4135,W,1,07,1.07,161.8,M,-34.4,M,,*5A
$GPRMC,142657.000,A,4308.4687,N,07726.4146,W,11.88,274.31,110821,,,A*46
$GPGGA,142657.250,4308.4687,N,07726.4157,W,1,07,1.07,161.7,M,-34.4,M,,*55
$GPRMC,142657.500,A,4308.4686,N,07726.4167,W,10.75,273.26,110821,,,A*43
$GPGGA,142657.750,4308.4686,N,07726.4176,W,1,07,1.07,161.5,M,-34.4,M,,*50
$GPRMC,142658.000,A,4308.4686,N,07726.4185,W,9.81,273.54,110821,,,A*73
$GPGGA,142658.250,4308.4687,N,07726.4193,W,1,07,1.07,161.5,M,-34.4,M,,*50
$GPRMC,142658.500,A,4308.4688,N,07726.4202,W,8.92,275.50,110821,,,A*75
$GPGGA,142658.750,4308.4689,N,07726.4209,W,1,07,1.07,161.5,M,-34.4,M,,*5B
$GPRMC,142659.000,A,4308.4690,N,07726.4216,W,8.02,276.71,110821,,,A*74
$GPGGA,142659.250,4308.4691,N,07726.4222,W,1,07,1.07,161.5,M,-34.4,M,,*5F
$GPRMC,142659.500,A,4308.4692,N,07726.4228,W,6.48,279.10,110821,,,A*76
$GPGGA,142659.750,4308.4693,N,07726.4233,W,1,07,1.07,161.4,M,-34.4,M,,*59
$GPRMC,142700.000,A,4308.4693,N,07726.4237,W,5.29,279.32,110821,,,A*75
$GPGGA,142700.250,4308.4695,N,07726.4242,W,1,07,1.07,161.3,M,-34.4,M,,*56
$GPRMC,142700.500,A,4308.4696,N,07726.4246,W,4.68,282.32,110821,,,A*73
$GPGGA,142700.750,4308.4696,N,07726.4250,W,1,07,1.07,161.3,M,-34.4,M,,*53
$GPRMC,142701.000,A,4308.4697,N,07726.4254,W,4.46,282.30,110821,,,A*7B
$GPGGA,142701.250,4308.4697,N,07726.4257,W,1,07,1.07,161.3,M,-34.4,M,,*51
$GPRMC,142701.500,A,4308.4697,N,07726.4261,W,4.34,280.92,110821,,,A*77
$GPGGA,142701.750,4308.4695,N,07726.4265,W,1,07,1.07,161.1,M,-34.4,M,,*55
$GPRMC,142702.000,A,4308.4693,N,07726.4269,W,4.43,269.83,110821,,,A*7A
$GPGGA,142702.250,4308.4691,N,07726.4274,W,1,07,1.07,161.0,M,-34.4,M,,*56
$GPRMC,142702.500,A,4308.4689,N,07726.4278,W,4.71,262.61,110821,,,A*72
$GPGGA,142702.750,4308.4689,N,07726.4283,W,1,07,1.07,160.8,M,-34.4,M,,*5B
$GPRMC,142703.000,A,4308.4689,N,07726.4288,W,4.84,266.18,110821,,,A*79
$GPGGA,142703.250,4308.4688,N,07726.4292,W,1,07,1.07,160.6,M,-34.4,M,,*50
$GPRMC,142703.500,A,4308.4688,N,07726.4298,W,5.37,267.67,110821,,,A*7C
$GPGGA,142703.750,4308.4688,N,07726.4303,W,1,07,1.07,160.5,M,-34.4,M,,*5F
$GPRMC,142704.000,A,4308.4687,N,07726.4308,W,5.58,267.98,110821,,,A*70
$GPGGA,142704.250,4308.4687,N,07726.4313,W,1,07,1.07,160.4,M,-34.4,M,,*52
$GPRMC,142704.500,A,4308.4687,N,07726.4318,W,5.86,269.39,110821,,,A*72
$GPGGA,142704.750,4308.4687,N,07726.4324,W,1,07,1.07,160.2,M,-34.4,M,,*55
$GPRMC,142705.000,A,4308.4688,N,07726.4330,W,6.16,271.50,110821,,,A*7F
$GPGGA,142705.250,4308.4688,N,07726.4336,W,1,07,1.07,160.1,M,-34.4,M,,*5E
$GPRMC,142705.500,A,4308.4688,N,07726.4342,W,6.21,273.16,110821,,,A*7B
$GPGGA,142705.750,4308.4688,N,07726.4348,W,1,07,1.07,160.0,M,-34.4,M,,*53
$GPRMC,142706.000,A,4308.4688,N,07726.4355,W,6.37,273.30,110821,,,A*78
$GPGGA,142706.250,4308.4688,N,07726.4361,W,1,07,1.07,159.9,M,-34.4,M,,*5D
$GPRMC,142706.500,A,4308.4688,N,07726.4366,W,5.96,273.36,110821,,,A*73
$GPGGA,142706.750,4308.4688,N,07726.4371,W,1,07,1.07,159.9,M,-34.4,M,,*59
$GPRMC,142707.000,A,4308.4688,N,07726.4376,W,5.36,273.31,110821,,,A*7B
$GPGGA,142707.250,4308.4688,N,07726.4381,W,1,07,1.07,160.0,M,-34.4,M,,*51
$GPRMC,142707.500,A,4308.4689,N,07726.4385,W,4.76,275.93,110821,,,A*78
$GPGGA,142707.750,4308.4689,N,07726.4389,W,1,07,1.07,160.1,M,-34.4,M,,*5C
$GPRMC,142708.000,A,4308.4689,N,07726.4393,W,4.45,279.17,110821,,,A*75
$GPGGA,142708.250,4308.4690,N,07726.4397,W,1,07,1.07,160.1,M,-34.4,M,,*51
$GPRMC,142708.500,A,4308.4690,N,07726.4401,W,4.23,283.44,110821,,,A*77
$GPGGA,142708.750,4308.4691,N,07726.4405,W,1,07,1.07,160.1,M,-34.4,M,,*59
$GPRMC,142709.000,A,4308.4691,N,07726.4408,W,3.95,286.56,110821,,,A*77
$GPGGA,142709.250,4308.4692,N,07726.4411,W,1,07,1.07,160.1,M,-34.4,M,,*5B
$GPRMC,142709.500,A,4308.4693,N,07726.4413,W,3.16,289.09,110821,,,A*74
$GPGGA,142709.750,4308.4693,N,07726.4415,W,1,07,1.07,160.0,M,-34.4,M,,*5A
$GPRMC,142710.000,A,4308.4692,N,07726.4417,W,2.40,289.09,110821,,,A*7E
$GPGGA,142710.250,4308.4692,N,07726.4418,W,1,07,1.07,160.0,M,-34.4,M,,*5B
$GPRMC,142710.500,A,4308.4691,N,07726.4419,W,1.64,289.09,110821,,,A*73
$GPGGA,142710.750,4308.4691,N,07726.4419,W,1,07,1.07,159.9,M,-34.4,M,,*5F
$GPRMC,142711.000,A,4308.4690,N,07726.4420,W,1.00,289.09,110821,,,A*7E
$GPGGA,142711.250,4308.4690,N,07726.4419,W,1,07,1.07,159.9,M,-34.4,M,,*5A
$GPRMC,142711.500,A,4308.4690,N,07726.4419,W,0.62,289.09,110821,,,A*74
$GPGGA,142711.750,4308.4690,N,07726.4418,W,1,07,1.07,159.5,M,-34.4,M,,*52
$GPRMC,142712.000,A,4308.4691,N,07726.4418,W,0.43,289.09,110821,,,A*71
$GPGGA,142712.250,4308.4691,N,07726.4418,W,1,07,1.07,158.9,M,-34.4,M,,*58
$GPRMC,142712.500,A,4308.4691,N,07726.4418,W,0.38,289.09,110821,,,A*78
$GPGGA,142712.750,4308.4691,N,07726.4417,W,1,07,1.07,158.5,M,-34.4,M,,*5E
$GPRMC,142713.000,A,4308.4691,N,07726.4417,W,0.30,289.09,110821,,,A*7B
$GPGGA,142713.250,4308.4692,N,07726.4417,W,1,07,1.07,158.2,M,-34.4,M,,*5E
$GPRMC,142713.500,A,4308.4692,N,07726.4417,W,0.23,289.09,110821,,,A*7F
$GPGGA,142713.750,4308.4692,N,07726.4417,W,1,07,1.07,158.0,M,-34.4,M,,*59
$GPRMC,142714.000,A,4308.4692,N,07726.4417,W,0.22,289.09,110821,,,A*7C
$GPGGA,142714.250,4308.4692,N,07726.4417,W,1,07,1.07,158.0,M,-34.4,M,,*5B
$GPRMC,142714.500,A,4308.4692,N,07726.4417,W,0.18,289.09,110821,,,A*70
$GPGGA,142714.750,4308.4692,N,07726.4417,W,1,07,1.07,158.1,M,-34.4,M,,*5F
$GPRMC,142715.000,A,4308.4692,N,07726.4417,W,0.19,343.08,110821,,,A*73
$GPGGA,142715.250,4308.4692,N,07726.4417,W,1,07,1.07,158.1,M,-34.4,M,,*5B
$GPRMC,142715.500,A,4308.4692,N,07726.4417,W,0.21,339.91,110821,,,A*70
$GPGGA,142715.750,4308.4693,N,07726.4417,W,1,07,1.07,158.1,M,-34.4,M,,*5F
$GPRMC,142716.000,A,4308.4693,N,07726.4418,W,0.23,346.45,110821,,,A*7B
$GPGGA,142716.250,4308.4693,N,07726.4418,W,1,07,1.07,158.1,M,-34.4,M,,*56
$GPRMC,142716.500,A,4308.4693,N,07726.4418,W,0.23,345.11,110821,,,A*7C
$GPGGA,142716.750,4308.4693,N,07726.4418,W,1,07,1.07,158.2,M,-34.4,M,,*50
$GPRMC,142717.000,A,4308.4693,N,07726.4418,W,0.21,342.00,110821,,,A*7D
$GPGGA,142717.250,4308.4693,N,07726.4418,W,1,07,1.07,158.2,M,-34.4,M,,*54
$GPRMC,142717.500,A,4308.4693,N,07726.4418,W,0.27,335.84,110821,,,A*72
$GPGGA,142717.750,4308.4694,N,07726.4419,W,1,07,1.07,158.2,M,-34.4,M,,*57
$GPRMC,142718.000,A,4308.4694,N,07726.4419,W,0.50,323.04,110821,,,A*71
$GPGGA,142718.250,4308.4694,N,07726.4419,W,1,07,1.07,158.2,M,-34.4,M,,*5D
$GPRMC,142718.500,A,4308.4694,N,07726.4420,W,0.89,306.21,110821,,,A*7A
$GPGGA,142718.750,4308.4694,N,07726.4421,W,1,07,1.07,158.2,M,-34.4,M,,*53
$GPRMC,142719.000,A,4308.4694,N,07726.4422,W,1.42,291.45,110821,,,A*77
$GPGGA,142719.250,4308.4694,N,07726.4424,W,1,07,1.07,158.2,M,-34.4,M,,*52
$GPRMC,142719.500,A,4308.4694,N,07726.4425,W,2.02,282.31,110821,,,A*73
$GPGGA,142719.750,4308.4693,N,07726.4430,W,1,07,1.07,158.2,M,-34.4,M,,*55
$GPRMC,142720.000,A,4308.4693,N,07726.4433,W,2.47,269.99,110821,,,A*7A
$GPGGA,142720.250,4308.4693,N,07726.4436,W,1,07,1.07,158.2,M,-34.4,M,,*5C
$GPRMC,142720.500,A,4308.4691,N,07726.4440,W,3.39,263.42,110821,,,A*7D
$GPGGA,142720.750,4308.4692,N,07726.4447,W,1,07,1.07,158.2,M,-34.4,M,,*5E
$GPRMC,142721.000,A,4308.4694,N,07726.4455,W,6.01,276.43,110821,,,A*73
$GPGGA,142721.250,4308.4696,N,07726.4464,W,1,07,1.07,158.1,M,-34.4,M,,*5C
$GPRMC,142721.500,A,4308.4696,N,07726.4474,W,8.23,274.88,110821,,,A*7C
$GPGGA,142721.750,4308.4696,N,07726.4484,W,1,07,1.07,158.1,M,-34.4,M,,*57
$GPRMC,142722.000,A,4308.4695,N,07726.4494,W,9.55,269.27,110821,,,A*7E
$GPGGA,142722.250,4308.4693,N,07726.4505,W,1,07,1.07,158.1,M,-34.4,M,,*5C
$GPRMC,142722.500,A,4308.4691,N,07726.4516,W,10.47,263.72,110821,,,A*45
$GPGGA,142722.750,4308.4689,N,07726.4526,W,1,07,1.07,158.2,M,-34.4,M,,*50
$GPRMC,142723.000,A,4308.4685,N,07726.4537,W,10.93,255.63,110821,,,A*4B
$GPGGA,142723.250,4308.4680,N,07726.4548,W,1,07,1.07,158.2,M,-34.4,M,,*55
$GPRMC,142723.500,A,4308.4676,N,07726.4558,W,11.55,248.82,110821,,,A*43
$GPGGA,142723.750,4308.4671,N,07726.4567,W,1,07,1.07,158.2,M,-34.4,M,,*53
$GPRMC,142724.000,A,4308.4666,N,07726.4575,W,11.44,242.59,110821,,,A*43
$GPGGA,142724.250,4308.4660,N,07726.4583,W,1,07,1.07,158.2,M,-34.4,M,,*5B
$GPRMC,142724.500,A,4308.4655,N,07726.4591,W,11.35,235.54,110821,,,A*47
$GPGGA,142724.750,4308.4649,N,07726.4600,W,1,07,1.07,158.1,M,-34.4,M,,*5E
$GPRMC,142725.000,A,4308.4641,N,07726.4607,W,11.82,230.25,110821,,,A*45
$GPGGA,142725.250,4308.4633,N,07726.4613,W,1,07,1.07,158.0,M,-34.4,M,,*54
$GPRMC,142725.500,A,4308.4625,N,07726.4619,W,11.75,220.96,110821,,,A*4C
$GPGGA,142725.750,4308.4615,N,07726.4624,W,1,07,1.07,157.9,M,-34.4,M,,*57
$GPRMC,142726.000,A,4308.4606,N,07726.4630,W,12.40,213.34,110821,,,A*4D
$GPGGA,142726.250,4308.4595,N,07726.4634,W,1,07,1.07,157.8,M,-34.4,M,,*5A
$GPRMC,142726.500,A,4308.4583,N,07726.4640,W,13.38,207.93,110821,,,A*47
$GPGGA,142726.750,4308.4571,N,07726.4645,W,1,07,1.07,157.7,M,-34.4,M,,*5C
$GPRMC,142727.000,A,4308.4559,N,07726.4650,W,14.45,204.83,110821,,,A*4A
$GPGGA,142727.250,4308.4547,N,07726.4655,W,1,07,1.07,157.5,M,-34.4,M,,*5E
$GPRMC,142727.500,A,4308.4534,N,07726.4661,W,15.61,203.56,110821,,,A*4E
$GPGGA,142727.750,4308.4520,N,07726.4667,W,1,07,1.07,157.2,M,-34.4,M,,*5C
$GPRMC,142728.000,A,4308.4506,N,07726.4673,W,16.84,202.44,110821,,,A*4C
$GPGGA,142728.250,4308.4491,N,07726.4680,W,1,07,1.07,157.1,M,-34.4,M,,*57
$GPRMC,142728.500,A,4308.4477,N,07726.4687,W,17.97,202.00,110821,,,A*46
$GPGGA,142728.750,4308.4462,N,07726.4693,W,1,07,1.07,156.9,M,-34.4,M,,*55
$GPRMC,142729.000,A,4308.4448,N,07726.4700,W,18.77,201.73,110821,,,A*46
$GPGGA,142729.250,4308.4433,N,07726.4707,W,1,07,1.07,156.7,M,-34.4,M,,*57
$GPRMC,142729.500,A,4308.4418,N,07726.4714,W,19.44,201.16,110821,,,A*41
$GPGGA,142729.750,4308.4403,N,07726.4721,W,1,07,1.07,156.5,M,-34.4,M,,*57
$GPRMC,142730.000,A,4308.4389,N,07726.4729,W,19.91,201.32,110821,,,A*43
$GPGGA,142730.250,4308.4374,N,07726.4736,W,1,07,1.07,156.4,M,-34.4,M,,*5A
$GPRMC,142730.500,A,4308.4358,N,07726.4743,W,20.51,201.02,110821,,,A*43
$GPGGA,142730.750,4308.4342,N,07726.4750,W,1,07,1.07,156.2,M,-34.4,M,,*5C
$GPRMC,142731.000,A,4308.4326,N,07726.4757,W,21.01,200.29,110821,,,A*47
$GPGGA,142731.250,4308.4309,N,07726.4764,W,1,07,1.07,156.1,M,-34.4,M,,*53
$GPRMC,142731.500,A,4308.4293,N,07726.4771,W,21.71,200.17,110821,,,A*43
$GPGGA,142731.750,4308.4277,N,07726.4779,W,1,07,1.07,155.8,M,-34.4,M,,*58
$GPRMC,142732.000,A,4308.4261,N,07726.4786,W,22.11,200.40,110821,,,A*47
$GPGGA,142732.250,4308.4243,N,07726.4794,W,1,07,1.07,155.5,M,-34.4,M,,*57
$GPRMC,142732.500,A,4308.4226,N,07726.4801,W,23.10,200.14,110821,,,A*40
$GPGGA,142732.750,4308.4208,N,07726.4809,W,1,07,1.07,155.3,M,-34.4,M,,*50
$GPRMC,142733.000,A,4308.4190,N,07726.4818,W,23.91,200.01,110821,,,A*4F
$GPGGA,142733.250,4308.4172,N,07726.4826,W,1,07,1.07,155.1,M,-34.4,M,,*55
$GPRMC,142733.500,A,4308.4154,N,07726.4834,W,24.62,199.79,110821,,,A*4B
$GPGGA,142733.750,4308.4136,N,07726.4842,W,1,07,1.07,154.9,M,-34.4,M,,*5B
$GPRMC,142734.000,A,4308.4118,N,07726.4850,W,25.07,199.39,110821,,,A*45
$GPGGA,142734.250,4308.4100,N,07726.4858,W,1,07,1.07,154.7,M,-34.4,M,,*59
$GPRMC,142734.500,A,4308.4082,N,07726.4866,W,25.71,198.95,110821,,,A*41
$GPGGA,142734.750,4308.4064,N,07726.4874,W,1,07,1.07,154.5,M,-34.4,M,,*53
$GPRMC,142735.000,A,4308.4044,N,07726.4882,W,26.85,198.54,110821,,,A*40
$GPGGA,142735.250,4308.4026,N,07726.4890,W,1,07,1.07,154.4,M,-34.4,M,,*5A
$GPRMC,142735.500,A,4308.4007,N,07726.4898,W,27.08,197.85,110821,,,A*4E
$GPGGA,142735.750,4308.3988,N,07726.4905,W,1,07,1.07,154.3,M,-34.4,M,,*5F
$GPRMC,142736.000,A,4308.3970,N,07726.4913,W,27.49,197.41,110821,,,A*49
$GPGGA,142736.250,4308.3951,N,07726.4921,W,1,07,1.07,154.3,M,-34.4,M,,*5B
$GPRMC,142736.500,A,4308.3933,N,07726.4927,W,27.46,196.28,110821,,,A*4D
$GPGGA,142736.750,4308.3914,N,07726.4933,W,1,07,1.07,154.4,M,-34.4,M,,*5B
$GPRMC,142737.000,A,4308.3895,N,07726.4939,W,27.37,195.12,110821,,,A*47
$GPGGA,142737.250,4308.3876,N,07726.4945,W,1,07,1.07,154.5,M,-34.4,M,,*5A
$GPRMC,142737.500,A,4308.3858,N,07726.4951,W,27.30,193.95,110821,,,A*43
$GPGGA,142737.750,4308.3839,N,07726.4957,W,1,07,1.07,154.7,M,-34.4,M,,*55
$GPRMC,142738.000,A,4308.3820,N,07726.4964,W,27.27,193.89,110821,,,A*4B
$GPGGA,142738.250,4308.3801,N,07726.4971,W,1,07,1.07,154.9,M,-34.4,M,,*5E
$GPRMC,142738.500,A,4308.3782,N,07726.4977,W,27.48,192.57,110821,,,A*40
$GPGGA,142738.750,4308.3763,N,07726.4983,W,1,07,1.07,155.0,M,-34.4,M,,*55
$GPRMC,142739.000,A,4308.3744,N,07726.4989,W,27.92,192.19,110821,,,A*42
$GPGGA,142739.250,4308.3724,N,07726.4995,W,1,07,1.07,155.1,M,-34.4,M,,*54
$GPRMC,142739.500,A,4308.3706,N,07726.5001,W,28.16,191.04,110821,,,A*45
$GPGGA,142739.750,4308.3686,N,07726.5008,W,1,07,1.07,155.1,M,-34.4,M,,*54
$GPRMC,142740.000,A,4308.3666,N,07726.5013,W,28.61,190.45,110821,,,A*4E
$GPGGA,142740.250,4308.3647,N,07726.5020,W,1,07,1.07,155.2,M,-34.4,M,,*5B
$GPRMC,142740.500,A,4308.3628,N,07726.5027,W,29.04,190.21,110821,,,A*46
$GPGGA,142740.750,4308.3607,N,07726.5034,W,1,07,1.07,155.3,M,-34.4,M,,*5E
$GPRMC,142741.000,A,4308.3587,N,07726.5040,W,29.86,189.48,110821,,,A*48
$GPGGA,142741.250,4308.3565,N,07726.5045,W,1,07,1.07,155.4,M,-34.4,M,,*5C
$GPRMC,142741.500,A,4308.3544,N,07726.5050,W,30.81,188.60,110821,,,A*47
$GPGGA,142741.750,4308.3522,N,07726.5055,W,1,07,1.07,155.8,M,-34.4,M,,*57
$GPRMC,142742.000,A,4308.3501,N,07726.5059,W,31.03,187.92,110821,,,A*40
$GPGGA,142742.250,4308.3478,N,07726.5063,W,1,07,1.07,156.0,M,-34.4,M,,*51
$GPRMC,142742.500,A,4308.3456,N,07726.5067,W,31.75,186.95,110821,,,A*4C
$GPGGA,142742.750,4308.3433,N,07726.5070,W,1,07,1.07,156.3,M,-34.4,M,,*5A
$GPRMC,142743.000,A,4308.3411,N,07726.5073,W,31.99,186.22,110821,,,A*40
$GPGGA,142743.250,4308.3388,N,07726.5075,W,1,07,1.07,156.5,M,-34.4,M,,*5A
$GPRMC,142743.500,A,4308.3366,N,07726.5077,W,31.76,184.69,110821,,,A*4A
$GPGGA,142743.750,4308.3342,N,07726.5079,W,1,07,1.07,156.7,M,-34.4,M,,*57
$GPRMC,142744.000,A,4308.3319,N,07726.5080,W,32.28,183.64,110821,,,A*4A
$GPGGA,142744.250,4308.3296,N,07726.5082,W,1,07,1.07,157.1,M,-34.4,M,,*5E
$GPRMC,142744.500,A,4308.3272,N,07726.5084,W,32.66,183.24,110821,,,A*49
$GPGGA,142744.750,4308.3249,N,07726.5085,W,1,07,1.07,157.4,M,-34.4,M,,*5B
$GPRMC,142745.000,A,4308.3226,N,07726.5087,W,32.69,183.09,110821,,,A*4F
$GPGGA,142745.250,4308.3203,N,07726.5089,W,1,07,1.07,157.8,M,-34.4,M,,*51
$GPRMC,142745.500,A,4308.3179,N,07726.5090,W,32.77,182.13,110821,,,A*40
$GPGGA,142745.750,4308.3156,N,07726.5091,W,1,07,1.07,158.2,M,-34.4,M,,*5B
$GPRMC,142746.000,A,4308.3132,N,07726.5093,W,32.82,181.93,110821,,,A*4B
$GPGGA,142746.250,4308.3108,N,07726.5094,W,1,07,1.07,158.5,M,-34.4,M,,*54
$GPRMC,142746.500,A,4308.3084,N,07726.5095,W,33.21,181.76,110821,,,A*47
$GPGGA,142746.750,4308.3060,N,07726.5096,W,1,07,1.07,158.7,M,-34.4,M,,*5E
$GPRMC,142747.000,A,4308.3036,N,07726.5098,W,33.44,181.63,110821,,,A*40
$GPGGA,142747.250,4308.3012,N,07726.5099,W,1,07,1.07,159.0,M,-34.4,M,,*56
$GPRMC,142747.500,A,4308.2989,N,07726.5100,W,33.40,181.40,110821,,,A*4C
$GPGGA,142747.750,4308.2965,N,07726.5102,W,1,07,1.07,159.3,M,-34.4,M,,*5B
$GPRMC,142748.000,A,4308.2941,N,07726.5103,W,33.31,181.43,110821,,,A*44
$GPGGA,142748.250,4308.2919,N,07726.5104,W,1,07,1.07,159.6,M,-34.4,M,,*59
$GPRMC,142748.500,A,4308.2896,N,07726.5105,W,32.86,180.70,110821,,,A*40
$GPGGA,142748.750,4308.2873,N,07726.5106,W,1,07,1.07,159.9,M,-34.4,M,,*5C
$GPRMC,142749.000,A,4308.2849,N,07726.5107,W,32.79,181.00,110821,,,A*42
$GPGGA,142749.250,4308.2826,N,07726.5108,W,1,07,1.07,160.3,M,-34.4,M,,*56
$GPRMC,142749.500,A,4308.2802,N,07726.5110,W,32.76,181.20,110821,,,A*43
$GPGGA,142749.750,4308.2778,N,07726.5112,W,1,07,1.07,160.7,M,-34.4,M,,*58
$GPRMC,142750.000,A,4308.2755,N,07726.5114,W,32.76,181.71,110821,,,A*43
$GPGGA,142750.250,4308.2732,N,07726.5115,W,1,07,1.07,161.1,M,-34.4,M,,*5B
$GPRMC,142750.500,A,4308.2708,N,07726.5117,W,32.77,181.72,110821,,,A*4F
$GPGGA,142750.750,4308.2685,N,07726.5118,W,1,07,1.07,161.5,M,-34.4,M,,*5A
$GPRMC,142751.000,A,4308.2661,N,07726.5119,W,32.81,181.62,110821,,,A*43
$GPGGA,142751.250,4308.2638,N,07726.5120,W,1,07,1.07,161.8,M,-34.4,M,,*5E
$GPRMC,142751.500,A,4308.2614,N,07726.5121,W,33.06,181.80,110821,,,A*4D
$GPGGA,142751.750,4308.2591,N,07726.5122,W,1,07,1.07,162.2,M,-34.4,M,,*50
$GPRMC,142752.000,A,4308.2567,N,07726.5123,W,33.26,181.09,110821,,,A*4D
$GPGGA,142752.250,4308.2542,N,07726.5124,W,1,07,1.07,162.5,M,-34.4,M,,*59
$GPRMC,142752.500,A,4308.2518,N,07726.5125,W,33.49,181.37,110821,,,A*42
$GPGGA,142752.750,4308.2493,N,07726.5126,W,1,07,1.07,162.8,M,-34.4,M,,*5E
$GPRMC,142753.000,A,4308.2469,N,07726.5128,W,33.52,182.07,110821,,,A*46
$GPGGA,142753.250,4308.2445,N,07726.5130,W,1,07,1.07,163.2,M,-34.4,M,,*5D
$GPRMC,142753.500,A,4308.2421,N,07726.5132,W,33.57,182.94,110821,,,A*4B
$GPGGA,142753.750,4308.2397,N,07726.5134,W,1,07,1.07,163.5,M,-34.4,M,,*53
$GPRMC,142754.000,A,4308.2373,N,07726.5135,W,33.59,182.80,110821,,,A*45
$GPGGA,142754.250,4308.2350,N,07726.5137,W,1,07,1.07,163.8,M,-34.4,M,,*54
$GPRMC,142754.500,A,4308.2327,N,07726.5138,W,33.35,181.80,110821,,,A*45
$GPGGA,142754.750,4308.2302,N,07726.5139,W,1,07,1.07,164.1,M,-34.4,M,,*56
$GPRMC,142755.000,A,4308.2278,N,07726.5139,W,33.35,181.30,110821,,,A*40
$GPGGA,142755.250,4308.2254,N,07726.5140,W,1,07,1.07,164.4,M,-34.4,M,,*5B
$GPRMC,142755.500,A,4308.2230,N,07726.5141,W,33.26,181.12,110821,,,A*44
$GPGGA,142755.750,4308.2206,N,07726.5141,W,1,07,1.07,164.6,M,-34.4,M,,*5A
$GPRMC,142756.000,A,4308.2182,N,07726.5142,W,33.26,180.69,110821,,,A*46
$GPGGA,142756.250,4308.2158,N,07726.5142,W,1,07,1.07,164.9,M,-34.4,M,,*58
$GPRMC,142756.500,A,4308.2134,N,07726.5143,W,33.28,180.78,110821,,,A*41
$GPGGA,142756.750,4308.2111,N,07726.5143,W,1,07,1.07,165.2,M,-34.4,M,,*5B
$GPRMC,142757.000,A,4308.2087,N,07726.5144,W,33.23,180.52,110821,,,A*48
$GPGGA,142757.250,4308.2064,N,07726.5144,W,1,07,1.07,165.5,M,-34.4,M,,*5C
$GPRMC,142757.500,A,4308.2040,N,07726.5144,W,33.20,180.16,110821,,,A*45
$GPGGA,142757.750,4308.2017,N,07726.5144,W,1,07,1.07,165.8,M,-34.4,M,,*50
$GPRMC,142758.000,A,4308.1994,N,07726.5144,W,33.03,180.34,110821,,,A*4D
$GPGGA,142758.250,4308.1970,N,07726.5144,W,1,07,1.07,166.1,M,-34.4,M,,*5B
$GPRMC,142758.500,A,4308.1947,N,07726.5144,W,33.06,180.62,110821,,,A*40
$GPGGA,142758.750,4308.1923,N,07726.5144,W,1,07,1.07,166.3,M,-34.4,M,,*5A
$GPRMC,142759.000,A,4308.1899,N,07726.5145,W,33.04,181.26,110821,,,A*44
$GPGGA,142759.250,4308.1876,N,07726.5146,W,1,07,1.07,166.5,M,-34.4,M,,*5B
$GPRMC,142759.500,A,4308.1853,N,07726.5147,W,32.69,181.50,110821,,,A*4E
$GPGGA,142759.750,4308.1829,N,07726.5147,W,1,07,1.07,166.7,M,-34.4,M,,*57
$GPRMC,142800.000,A,4308.1806,N,07726.5148,W,32.54,181.52,110821,,,A*4B
$GPGGA,142800.250,4308.1782,N,07726.5149,W,1,07,1.07,166.9,M,-34.4,M,,*5F
$GPRMC,142800.500,A,4308.1757,N,07726.5150,W,32.81,181.82,110821,,,A*49
$GPGGA,142800.750,4308.1733,N,07726.5152,W,1,07,1.07,167.2,M,-34.4,M,,*50
