Vers 81
USE_SERIAL_FEEDBACK=true
DEVELOPMENT_MODE=false
USE_RMC_ONLY=false

$GPRMC,174621.750,A,4308.3052,N,07726.2680,W,0.47,86.83,110721,,,A*48
$GPGGA,174622.000,4308.3052,N,07726.2679,W,1,04,2.25,181.9,M,-34.4,M,,*51
$GPRMC,174622.250,A,4308.3050,N,07726.2678,W,0.39,101.06,110721,,,A*71
$GPGGA,174622.500,4308.3048,N,07726.2678,W,1,04,2.25,183.5,M,-34.4,M,,*50
$GPRMC,174622.750,A,4308.3048,N,07726.2677,W,0.34,123.26,110721,,,A*7D
$GPGGA,174623.000,4308.3047,N,07726.2676,W,1,04,2.25,183.1,M,-34.4,M,,*51
$GPRMC,174623.250,A,4308.3045,N,07726.2676,W,0.35,120.66,110721,,,A*73
$GPGGA,174623.500,4308.3044,N,07726.2676,W,1,04,2.25,183.0,M,-34.4,M,,*56
$GPRMC,174623.750,A,4308.3044,N,07726.2675,W,0.34,127.82,110721,,,A*78
$GPGGA,174624.000,4308.3043,N,07726.2674,W,1,04,2.25,182.5,M,-34.4,M,,*55
$GPRMC,174624.250,A,4308.3042,N,07726.2675,W,0.39,133.61,110721,,,A*79
$GPGGA,174624.500,4308.3041,N,07726.2675,W,1,04,2.25,183.1,M,-34.4,M,,*56
$GPRMC,174624.750,A,4308.3041,N,07726.2675,W,0.36,148.53,110721,,,A*7D
$GPGGA,174625.000,4308.3041,N,07726.2676,W,1,04,2.25,182.9,M,-34.4,M,,*58
$GPRMC,174625.250,A,4308.3041,N,07726.2677,W,0.28,139.47,110721,,,A*77
$GPGGA,174625.500,4308.3042,N,07726.2677,W,1,04,2.25,182.9,M,-34.4,M,,*5F
$GPRMC,174625.750,A,4308.3042,N,07726.2678,W,0.17,138.67,110721,,,A*71
$GPGGA,174626.000,4308.3042,N,07726.2679,W,1,04,2.25,182.7,M,-34.4,M,,*59
$GPRMC,174626.250,A,4308.3043,N,07726.2679,W,0.03,80.41,110721,,,A*44
$GPGGA,174626.500,4308.3043,N,07726.2680,W,1,04,2.25,182.2,M,-34.4,M,,*5E
$GPRMC,174626.750,A,4308.3044,N,07726.2680,W,0.16,132.70,110721,,,A*7E
$GPGGA,174627.000,4308.3044,N,07726.2681,W,1,04,2.26,182.0,M,-34.4,M,,*5D
$GPRMC,174627.250,A,4308.3045,N,07726.2682,W,0.11,188.95,110721,,,A*74
$GPGGA,174627.500,4308.3046,N,07726.2682,W,1,04,2.25,181.3,M,-34.4,M,,*5A
$GPRMC,174627.750,A,4308.3046,N,07726.2683,W,0.04,98.51,110721,,,A*4F
$GPGGA,174628.000,4308.3047,N,07726.2683,W,1,04,2.25,181.3,M,-34.4,M,,*50
$GPRMC,174628.250,A,4308.3047,N,07726.2683,W,0.05,51.18,110721,,,A*4D
$GPGGA,174628.500,4308.3047,N,07726.2683,W,1,04,2.25,180.6,M,-34.4,M,,*51
$GPRMC,174628.750,A,4308.3047,N,07726.2683,W,0.10,60.37,110721,,,A*43
$GPGGA,174629.000,4308.3048,N,07726.2683,W,1,04,2.25,179.9,M,-34.4,M,,*53
$GPRMC,174629.250,A,4308.3047,N,07726.2682,W,0.15,68.14,110721,,,A*4A
$GPGGA,174629.500,4308.3048,N,07726.2681,W,1,04,2.25,179.0,M,-34.4,M,,*5D
$GPRMC,174629.750,A,4308.3048,N,07726.2681,W,0.16,69.04,110721,,,A*40
$GPGGA,174630.000,4308.3048,N,07726.2680,W,1,04,2.26,178.3,M,-34.4,M,,*50
$GPRMC,174630.250,A,4308.3049,N,07726.2681,W,0.10,81.91,110721,,,A*40
$GPGGA,174630.500,4308.3049,N,07726.2681,W,1,04,2.25,178.1,M,-34.4,M,,*54
$GPRMC,174630.750,A,4308.3050,N,07726.2681,W,0.11,36.65,110721,,,A*4B
$GPGGA,174631.000,4308.3050,N,07726.2682,W,1,04,2.26,178.0,M,-34.4,M,,*59
$GPRMC,174631.250,A,4308.3051,N,07726.2682,W,0.15,26.96,110721,,,A*44
$GPGGA,174631.500,4308.3051,N,07726.2682,W,1,04,2.26,178.2,M,-34.4,M,,*5F
$GPRMC,174631.750,A,4308.3051,N,07726.2683,W,0.09,325.88,110721,,,A*72
$GPGGA,174632.000,4308.3052,N,07726.2683,W,1,04,2.26,177.9,M,-34.4,M,,*5F
$GPRMC,174632.250,A,4308.3051,N,07726.2683,W,0.05,228.35,110721,,,A*72
$GPGGA,174632.500,4308.3051,N,07726.2683,W,1,04,2.26,177.6,M,-34.4,M,,*56
$GPRMC,174632.750,A,4308.3051,N,07726.2683,W,0.11,163.55,110721,,,A*78
$GPGGA,174633.000,4308.3051,N,07726.2683,W,1,04,2.26,177.6,M,-34.4,M,,*52
$GPRMC,174633.250,A,4308.3052,N,07726.2683,W,0.16,78.29,110721,,,A*48
$GPGGA,174633.500,4308.3052,N,07726.2683,W,1,04,2.26,178.0,M,-34.4,M,,*5D
$GPRMC,174633.750,A,4308.3052,N,07726.2683,W,0.24,68.74,110721,,,A*45
$GPGGA,174634.000,4308.3052,N,07726.2683,W,1,04,2.26,178.6,M,-34.4,M,,*59
$GPRMC,174634.250,A,4308.3053,N,07726.2684,W,0.20,44.35,110721,,,A*4E
$GPGGA,174634.500,4308.3054,N,07726.2684,W,1,04,2.26,178.6,M,-34.4,M,,*5D
$GPRMC,174634.750,A,4308.3054,N,07726.2685,W,0.14,45.27,110721,,,A*48
$GPGGA,174635.000,4308.3054,N,07726.2685,W,1,04,2.26,178.8,M,-34.4,M,,*56
$GPRMC,174635.250,A,4308.3054,N,07726.2686,W,0.02,350.66,110721,,,A*7A
$GPGGA,174635.500,4308.3055,N,07726.2686,W,1,04,2.69,178.4,M,-34.4,M,,*56
$GPRMC,174635.750,A,4308.3055,N,07726.2686,W,0.02,132.97,110721,,,A*76
$GPGGA,174636.000,4308.3056,N,07726.2686,W,1,04,2.26,178.0,M,-34.4,M,,*5C
$GPRMC,174636.250,A,4308.3057,N,07726.2686,W,0.14,24.50,110721,,,A*48
$GPGGA,174636.500,4308.3059,N,07726.2686,W,1,04,2.26,177.6,M,-34.4,M,,*5F
$GPRMC,174636.750,A,4308.3060,N,07726.2687,W,0.15,4.63,110721,,,A*7B
$GPGGA,174637.000,4308.3061,N,07726.2687,W,1,04,2.69,176.9,M,-34.4,M,,*54
$GPRMC,174637.250,A,4308.3061,N,07726.2686,W,0.08,25.38,110721,,,A*4E
$GPGGA,174637.500,4308.3062,N,07726.2686,W,1,04,2.26,176.1,M,-34.4,M,,*50
$GPRMC,174637.750,A,4308.3062,N,07726.2686,W,0.05,359.41,110721,,,A*73
$GPGGA,174638.000,4308.3064,N,07726.2686,W,1,04,2.69,175.1,M,-34.4,M,,*54
$GPRMC,174638.250,A,4308.3065,N,07726.2685,W,0.22,42.00,110721,,,A*44
$GPGGA,174638.500,4308.3066,N,07726.2685,W,1,04,2.26,174.2,M,-34.4,M,,*59
$GPRMC,174638.750,A,4308.3066,N,07726.2685,W,0.14,45.57,110721,,,A*42
$GPGGA,174639.000,4308.3067,N,07726.2685,W,1,04,2.26,173.5,M,-34.4,M,,*5C
$GPRMC,174639.250,A,4308.3067,N,07726.2685,W,0.10,342.73,110721,,,A*71
$GPGGA,174639.500,4308.3068,N,07726.2686,W,1,04,2.26,172.8,M,-34.4,M,,*59
$GPRMC,174639.750,A,4308.3069,N,07726.2685,W,0.08,343.53,110721,,,A*70
$GPGGA,174640.000,4308.3069,N,07726.2685,W,1,04,2.26,172.2,M,-34.4,M,,*5A
$GPRMC,174640.250,A,4308.3069,N,07726.2685,W,0.09,39.88,110721,,,A*42
$GPGGA,174640.500,4308.3070,N,07726.2684,W,1,04,2.26,171.3,M,-34.4,M,,*54
$GPRMC,174640.750,A,4308.3070,N,07726.2684,W,0.05,91.18,110721,,,A*49
$GPGGA,174641.000,4308.3071,N,07726.2684,W,1,04,2.26,170.4,M,-34.4,M,,*57
$GPRMC,174641.250,A,4308.3072,N,07726.2684,W,0.05,39.48,110721,,,A*48
$GPGGA,174641.500,4308.3072,N,07726.2684,W,1,04,2.26,169.6,M,-34.4,M,,*5B
$GPRMC,174641.750,A,4308.3073,N,07726.2684,W,0.08,27.28,110721,,,A*48
$GPGGA,174642.000,4308.3074,N,07726.2685,W,1,04,2.26,168.8,M,-34.4,M,,*55
$GPRMC,174642.250,A,4308.3075,N,07726.2685,W,0.11,341.16,110721,,,A*7F
$GPGGA,174642.500,4308.3075,N,07726.2685,W,1,04,2.26,167.8,M,-34.4,M,,*5E
$GPRMC,174642.750,A,4308.3076,N,07726.2686,W,0.17,312.83,110721,,,A*76
$GPGGA,174643.000,4308.3076,N,07726.2686,W,1,04,2.26,166.8,M,-34.4,M,,*5B
$GPRMC,174643.250,A,4308.3077,N,07726.2686,W,0.15,315.63,110721,,,A*78
$GPGGA,174643.500,4308.3078,N,07726.2686,W,1,04,2.26,165.3,M,-34.4,M,,*58
$GPRMC,174643.750,A,4308.3079,N,07726.2686,W,0.14,315.90,110721,,,A*7E
$GPGGA,174644.000,4308.3080,N,07726.2686,W,1,04,2.26,163.6,M,-34.4,M,,*5E
$GPRMC,174644.250,A,4308.3080,N,07726.2686,W,0.17,302.20,110721,,,A*74
$GPGGA,174644.500,4308.3081,N,07726.2686,W,1,04,2.26,162.6,M,-34.4,M,,*5B
$GPRMC,174644.750,A,4308.3081,N,07726.2686,W,0.11,4.47,110721,,,A*72
$GPGGA,174645.000,4308.3082,N,07726.2685,W,1,04,2.69,161.8,M,-34.4,M,,*59
$GPRMC,174645.250,A,4308.3082,N,07726.2686,W,0.04,32.59,110721,,,A*4B
$GPGGA,174645.500,4308.3082,N,07726.2686,W,1,04,2.26,161.6,M,-34.4,M,,*5A
$GPRMC,174645.750,A,4308.3083,N,07726.2687,W,0.08,4.92,110721,,,A*70
$GPGGA,174646.000,4308.3083,N,07726.2687,W,1,04,2.69,161.7,M,-34.4,M,,*56
$GPRMC,174646.250,A,4308.3083,N,07726.2688,W,0.06,324.74,110721,,,A*7E
$GPGGA,174646.500,4308.3084,N,07726.2688,W,1,04,2.26,161.8,M,-34.4,M,,*5F
$GPRMC,174646.750,A,4308.3084,N,07726.2689,W,0.11,274.33,110721,,,A*7C
$GPGGA,174647.000,4308.3084,N,07726.2689,W,1,04,2.26,161.7,M,-34.4,M,,*55
$GPRMC,174647.250,A,4308.3084,N,07726.2689,W,0.02,156.92,110721,,,A*72
$GPGGA,174647.500,4308.3085,N,07726.2689,W,1,04,2.26,161.9,M,-34.4,M,,*5F
$GPRMC,174647.750,A,4308.3086,N,07726.2689,W,0.07,28.19,110721,,,A*4B
$GPGGA,174648.000,4308.3087,N,07726.2690,W,1,04,2.26,162.1,M,-34.4,M,,*54
$GPRMC,174648.250,A,4308.3088,N,07726.2691,W,0.21,336.44,110721,,,A*76
$GPGGA,174648.500,4308.3088,N,07726.2692,W,1,04,2.26,162.1,M,-34.4,M,,*5C
$GPRMC,174648.750,A,4308.3088,N,07726.2692,W,0.18,337.83,110721,,,A*70
$GPGGA,174649.000,4308.3088,N,07726.2692,W,1,04,2.26,162.0,M,-34.4,M,,*59
$GPRMC,174649.250,A,4308.3089,N,07726.2691,W,0.16,22.68,110721,,,A*4A
$GPGGA,174649.500,4308.3089,N,07726.2691,W,1,04,2.26,161.7,M,-34.4,M,,*5A
$GPRMC,174649.750,A,4308.3089,N,07726.2691,W,0.15,47.57,110721,,,A*43
$GPGGA,174650.000,4308.3089,N,07726.2692,W,1,04,2.26,161.5,M,-34.4,M,,*56
$GPRMC,174650.250,A,4308.3089,N,07726.2692,W,0.06,21.16,110721,,,A*4A
$GPGGA,174650.500,4308.3089,N,07726.2692,W,1,04,2.26,161.2,M,-34.4,M,,*54
$GPRMC,174650.750,A,4308.3089,N,07726.2693,W,0.06,3.91,110721,,,A*71
$GPGGA,174651.000,4308.3090,N,07726.2693,W,1,04,2.69,161.1,M,-34.4,M,,*51
$GPRMC,174651.250,A,4308.3091,N,07726.2694,W,0.19,322.15,110721,,,A*79
$GPGGA,174651.500,4308.3090,N,07726.2694,W,1,04,2.26,160.9,M,-34.4,M,,*51
$GPRMC,174651.750,A,4308.3090,N,07726.2694,W,0.08,295.31,110721,,,A*76
$GPGGA,174652.000,4308.3090,N,07726.2694,W,1,04,2.26,160.8,M,-34.4,M,,*56
$GPRMC,174652.250,A,4308.3089,N,07726.2694,W,0.04,283.45,110721,,,A*70
$GPGGA,174652.500,4308.3089,N,07726.2694,W,1,04,2.26,160.6,M,-34.4,M,,*55
$GPRMC,174652.750,A,4308.3089,N,07726.2694,W,0.03,304.54,110721,,,A*7C
$GPGGA,174653.000,4308.3089,N,07726.2694,W,1,04,2.26,160.4,M,-34.4,M,,*53
$GPRMC,174653.250,A,4308.3089,N,07726.2694,W,0.06,277.93,110721,,,A*73
$GPGGA,174653.500,4308.3089,N,07726.2695,W,1,04,2.26,160.3,M,-34.4,M,,*50
$GPRMC,174653.750,A,4308.3089,N,07726.2695,W,0.08,325.79,110721,,,A*7B
$GPGGA,174654.000,4308.3089,N,07726.2695,W,1,04,2.26,160.3,M,-34.4,M,,*52
$GPRMC,174654.250,A,4308.3089,N,07726.2695,W,0.04,45.23,110721,,,A*4F
$GPGGA,174654.500,4308.3089,N,07726.2695,W,1,04,2.26,160.3,M,-34.4,M,,*57
$GPRMC,174654.750,A,4308.3089,N,07726.2695,W,0.05,129.48,110721,,,A*7D
$GPGGA,174655.000,4308.3089,N,07726.2695,W,1,04,2.26,160.3,M,-34.4,M,,*53
$GPRMC,174655.250,A,4308.3089,N,07726.2695,W,0.11,223.13,110721,,,A*7B
$GPGGA,174655.500,4308.3089,N,07726.2695,W,1,04,2.26,160.3,M,-34.4,M,,*56
$GPRMC,174655.750,A,4308.3089,N,07726.2695,W,0.18,230.61,110721,,,A*70
$GPGGA,174656.000,4308.3089,N,07726.2695,W,1,04,2.26,160.3,M,-34.4,M,,*50
$GPRMC,174656.250,A,4308.3089,N,07726.2695,W,0.20,241.67,110721,,,A*7D
$GPGGA,174656.500,4308.3089,N,07726.2695,W,1,04,2.26,160.3,M,-34.4,M,,*55
$GPRMC,174656.750,A,4308.3089,N,07726.2696,W,0.09,203.77,110721,,,A*77
$GPGGA,174657.000,4308.3089,N,07726.2696,W,1,04,2.26,160.3,M,-34.4,M,,*52
$GPRMC,174657.250,A,4308.3089,N,07726.2696,W,0.20,177.00,110721,,,A*78
$GPGGA,174657.500,4308.3089,N,07726.2696,W,1,04,2.26,160.3,M,-34.4,M,,*57
$GPRMC,174657.750,A,4308.3088,N,07726.2696,W,0.23,173.54,110721,,,A*7A
$GPGGA,174658.000,4308.3088,N,07726.2696,W,1,04,2.26,160.3,M,-34.4,M,,*5C
$GPRMC,174658.250,A,4308.3088,N,07726.2695,W,0.24,147.58,110721,,,A*7F
$GPGGA,174658.500,4308.3088,N,07726.2695,W,1,04,2.26,160.3,M,-34.4,M,,*5A
$GPRMC,174658.750,A,4308.3088,N,07726.2695,W,0.31,154.78,110721,,,A*7E
$GPGGA,174659.000,4308.3088,N,07726.2695,W,1,04,2.26,160.3,M,-34.4,M,,*5E
$GPRMC,174659.250,A,4308.3087,N,07726.2695,W,0.34,154.15,110721,,,A*7B
$GPGGA,174659.500,4308.3087,N,07726.2695,W,1,04,2.26,160.3,M,-34.4,M,,*54
$GPRMC,174659.750,A,4308.3087,N,07726.2695,W,0.37,163.51,110721,,,A*79
$GPGGA,174700.000,4308.3087,N,07726.2695,W,1,04,2.26,160.3,M,-34.4,M,,*5C
$GPRMC,174700.250,A,4308.3086,N,07726.2694,W,0.44,144.79,110721,,,A*7A
$GPGGA,174700.500,4308.3086,N,07726.2694,W,1,04,2.26,160.3,M,-34.4,M,,*59
$GPRMC,174700.750,A,4308.3086,N,07726.2694,W,0.44,154.49,110721,,,A*7D
$GPGGA,174701.000,4308.3086,N,07726.2694,W,1,04,2.26,160.3,M,-34.4,M,,*5D
$GPRMC,174701.250,A,4308.3085,N,07726.2694,W,0.48,167.64,110721,,,A*79
$GPGGA,174701.500,4308.3085,N,07726.2694,W,1,04,2.26,160.3,M,-34.4,M,,*5B
$GPRMC,174701.750,A,4308.3085,N,07726.2693,W,0.49,163.70,110721,,,A*7B
$GPGGA,174702.000,4308.3084,N,07726.2693,W,1,04,2.26,160.3,M,-34.4,M,,*5B
$GPRMC,174702.250,A,4308.3084,N,07726.2693,W,0.48,166.39,110721,,,A*75
$GPGGA,174702.500,4308.3084,N,07726.2693,W,1,04,2.26,160.3,M,-34.4,M,,*5E
$GPRMC,174702.750,A,4308.3083,N,07726.2693,W,0.49,156.14,110721,,,A*7A
$GPGGA,174703.000,4308.3083,N,07726.2693,W,1,04,2.26,160.4,M,-34.4,M,,*5A
$GPRMC,174703.250,A,4308.3083,N,07726.2692,W,0.43,145.52,110721,,,A*75
$GPGGA,174703.500,4308.3082,N,07726.2692,W,1,04,2.26,160.4,M,-34.4,M,,*5F
$GPRMC,174703.750,A,4308.3082,N,07726.2692,W,0.41,139.40,110721,,,A*7B
$GPGGA,174704.000,4308.3082,N,07726.2692,W,1,04,2.27,160.4,M,-34.4,M,,*5C
$GPRMC,174704.250,A,4308.3082,N,07726.2691,W,0.45,149.86,110721,,,A*73
$GPGGA,174704.500,4308.3081,N,07726.2691,W,1,04,2.26,160.4,M,-34.4,M,,*58
$GPRMC,174704.750,A,4308.3081,N,07726.2691,W,0.40,164.55,110721,,,A*71
$GPGGA,174705.000,4308.3081,N,07726.2691,W,1,04,2.26,160.4,M,-34.4,M,,*5C
$GPRMC,174705.250,A,4308.3080,N,07726.2691,W,0.39,172.02,110721,,,A*7F
$GPGGA,174705.500,4308.3080,N,07726.2691,W,1,04,2.26,160.4,M,-34.4,M,,*58
$GPRMC,174705.750,A,4308.3080,N,07726.2691,W,0.37,165.48,110721,,,A*7C
$GPGGA,174706.000,4308.3080,N,07726.2691,W,1,04,2.27,160.4,M,-34.4,M,,*5F
$GPRMC,174706.250,A,4308.3079,N,07726.2691,W,0.30,145.67,110721,,,A*74
$GPGGA,174706.500,4308.3079,N,07726.2690,W,1,04,2.27,160.4,M,-34.4,M,,*5D
$GPRMC,174706.750,A,4308.3079,N,07726.2690,W,0.29,147.38,110721,,,A*70
$GPGGA,174707.000,4308.3079,N,07726.2690,W,1,04,2.27,160.4,M,-34.4,M,,*59
$GPRMC,174707.250,A,4308.3079,N,07726.2690,W,0.31,158.85,110721,,,A*75
$GPGGA,174707.500,4308.3079,N,07726.2690,W,1,04,2.26,160.4,M,-34.4,M,,*5D
$GPRMC,174707.750,A,4308.3078,N,07726.2690,W,0.31,184.62,110721,,,A*79
$GPGGA,174708.000,4308.3078,N,07726.2690,W,1,04,2.26,160.4,M,-34.4,M,,*56
$GPRMC,174708.250,A,4308.3078,N,07726.2690,W,0.33,192.11,110721,,,A*72
$GPGGA,174708.500,4308.3078,N,07726.2690,W,1,04,2.27,160.4,M,-34.4,M,,*52
$GPRMC,174708.750,A,4308.3077,N,07726.2690,W,0.30,164.52,110721,,,A*75
$GPGGA,174709.000,4308.3077,N,07726.2690,W,1,04,2.27,160.4,M,-34.4,M,,*59
$GPRMC,174709.250,A,4308.3077,N,07726.2690,W,0.30,159.78,110721,,,A*77
$GPGGA,174709.500,4308.3077,N,07726.2690,W,1,04,2.27,160.4,M,-34.4,M,,*5C
$GPRMC,174709.750,A,4308.3077,N,07726.2690,W,0.36,168.23,110721,,,A*78
$GPGGA,174710.000,4308.3076,N,07726.2690,W,1,04,2.27,160.4,M,-34.4,M,,*50
$GPRMC,174710.250,A,4308.3076,N,07726.2690,W,0.35,181.50,110721,,,A*74
$GPGGA,174710.500,4308.3076,N,07726.2690,W,1,04,2.27,160.4,M,-34.4,M,,*55
$GPRMC,174710.750,A,4308.3076,N,07726.2689,W,0.26,166.27,110721,,,A*72
$GPGGA,174711.000,4308.3076,N,07726.2689,W,1,04,2.27,160.4,M,-34.4,M,,*59
$GPRMC,174711.250,A,4308.3075,N,07726.2689,W,0.30,190.83,110721,,,A*75
$GPGGA,174711.500,4308.3075,N,07726.2689,W,1,04,2.27,160.4,M,-34.4,M,,*5F
$GPRMC,174711.750,A,4308.3075,N,07726.2690,W,0.26,196.28,110721,,,A*78
$GPGGA,174712.000,4308.3075,N,07726.2690,W,1,04,2.27,160.3,M,-34.4,M,,*56
$GPRMC,174712.250,A,4308.3075,N,07726.2690,W,0.29,213.99,110721,,,A*75
$GPGGA,174712.500,4308.3074,N,07726.2690,W,1,04,2.27,160.3,M,-34.4,M,,*52
$GPRMC,174712.750,A,4308.3074,N,07726.2690,W,0.27,209.52,110721,,,A*73
$GPGGA,174713.000,4308.3074,N,07726.2690,W,1,04,2.27,160.3,M,-34.4,M,,*56
$GPRMC,174713.250,A,4308.3074,N,07726.2690,W,0.23,225.85,110721,,,A*77
$GPGGA,174713.500,4308.3074,N,07726.2690,W,1,04,2.27,160.3,M,-34.4,M,,*53
$GPRMC,174713.750,A,4308.3074,N,07726.2691,W,0.18,237.27,110721,,,A*70
$GPGGA,174714.000,4308.3074,N,07726.2691,W,1,04,2.27,160.3,M,-34.4,M,,*50
$GPRMC,174714.250,A,4308.3074,N,07726.2691,W,0.05,160.74,110721,,,A*79
$GPGGA,174714.500,4308.3074,N,07726.2691,W,1,04,2.27,160.3,M,-34.4,M,,*55
$GPRMC,174714.750,A,4308.3074,N,07726.2691,W,0.29,13.63,110721,,,A*41
$GPGGA,174715.000,4308.3074,N,07726.2691,W,1,04,2.68,160.3,M,-34.4,M,,*5A
$GPRMC,174715.250,A,4308.3074,N,07726.2691,W,0.64,14.56,110721,,,A*4D
$GPGGA,174715.500,4308.3076,N,07726.2691,W,1,04,2.68,160.3,M,-34.4,M,,*5D
$GPRMC,174715.750,A,4308.3078,N,07726.2690,W,0.86,18.02,110721,,,A*44
$GPGGA,174716.000,4308.3079,N,07726.2690,W,1,04,2.27,160.3,M,-34.4,M,,*5E
$GPRMC,174716.250,A,4308.3081,N,07726.2690,W,1.05,19.02,110721,,,A*4F
$GPGGA,174716.500,4308.3081,N,07726.2689,W,1,04,2.27,160.3,M,-34.4,M,,*54
$GPRMC,174716.750,A,4308.3082,N,07726.2689,W,1.11,19.18,110721,,,A*4F
$GPGGA,174717.000,4308.3083,N,07726.2689,W,1,04,2.27,160.3,M,-34.4,M,,*52
$GPRMC,174717.250,A,4308.3084,N,07726.2688,W,1.15,19.45,110721,,,A*40
$GPGGA,174717.500,4308.3085,N,07726.2688,W,1,04,2.27,160.3,M,-34.4,M,,*50
$GPRMC,174717.750,A,4308.3086,N,07726.2688,W,1.18,17.87,110721,,,A*4A
$GPGGA,174718.000,4308.3088,N,07726.2688,W,1,04,2.27,160.4,M,-34.4,M,,*50
$GPRMC,174718.250,A,4308.3090,N,07726.2689,W,1.26,11.42,110721,,,A*44
$GPGGA,174718.500,4308.3091,N,07726.2689,W,1,04,2.68,160.5,M,-34.4,M,,*56
$GPRMC,174718.750,A,4308.3092,N,07726.2688,W,1.29,10.31,110721,,,A*48
$GPGGA,174719.000,4308.3094,N,07726.2688,W,1,04,2.68,160.6,M,-34.4,M,,*55
$GPRMC,174719.250,A,4308.3095,N,07726.2688,W,1.43,12.27,110721,,,A*42
$GPGGA,174719.500,4308.3097,N,07726.2687,W,1,04,2.68,160.6,M,-34.4,M,,*5C
$GPRMC,174719.750,A,4308.3098,N,07726.2686,W,1.56,18.07,110721,,,A*48
$GPGGA,174720.000,4308.3101,N,07726.2685,W,1,04,2.27,160.7,M,-34.4,M,,*55
$GPRMC,174720.250,A,4308.3103,N,07726.2685,W,1.79,20.29,110721,,,A*4D
$GPGGA,174720.500,4308.3107,N,07726.2685,W,1,04,2.27,160.8,M,-34.4,M,,*59
$GPRMC,174720.750,A,4308.3112,N,07726.2685,W,2.18,17.89,110721,,,A*42
$GPGGA,174721.000,4308.3116,N,07726.2685,W,1,04,2.27,161.0,M,-34.4,M,,*54
$GPRMC,174721.250,A,4308.3119,N,07726.2684,W,2.64,17.05,110721,,,A*43
$GPGGA,174721.500,4308.3121,N,07726.2683,W,1,04,2.27,161.1,M,-34.4,M,,*52
$GPRMC,174721.750,A,4308.3124,N,07726.2682,W,2.86,18.02,110721,,,A*4A
$GPGGA,174722.000,4308.3125,N,07726.2682,W,1,04,2.27,161.3,M,-34.4,M,,*53
$GPRMC,174722.250,A,4308.3127,N,07726.2682,W,2.48,13.56,110721,,,A*47
$GPGGA,174722.500,4308.3129,N,07726.2681,W,1,04,2.68,161.4,M,-34.4,M,,*55
$GPRMC,174722.750,A,4308.3130,N,07726.2680,W,2.20,13.21,110721,,,A*48
$GPGGA,174723.000,4308.3131,N,07726.2679,W,1,04,2.68,161.4,M,-34.4,M,,*5F
$GPRMC,174723.250,A,4308.3132,N,07726.2678,W,1.85,21.84,110721,,,A*4B
$GPGGA,174723.500,4308.3134,N,07726.2678,W,1,04,2.27,161.6,M,-34.4,M,,*57
$GPRMC,174723.750,A,4308.3135,N,07726.2677,W,1.94,24.24,110721,,,A*49
$GPGGA,174724.000,4308.3137,N,07726.2676,W,1,04,2.27,161.6,M,-34.4,M,,*58
$GPRMC,174724.250,A,4308.3140,N,07726.2675,W,2.67,26.43,110721,,,A*47
$GPGGA,174724.500,4308.3142,N,07726.2673,W,1,04,2.27,161.8,M,-34.4,M,,*54
$GPRMC,174724.750,A,4308.3143,N,07726.2672,W,2.72,28.68,110721,,,A*45
$GPGGA,174725.000,4308.3145,N,07726.2670,W,1,04,2.27,162.0,M,-34.4,M,,*5F
$GPRMC,174725.250,A,4308.3147,N,07726.2669,W,2.75,36.78,110721,,,A*46
$GPGGA,174725.500,4308.3149,N,07726.2667,W,1,04,2.27,162.1,M,-34.4,M,,*51
$GPRMC,174725.750,A,4308.3150,N,07726.2666,W,2.47,41.57,110721,,,A*46
$GPGGA,174726.000,4308.3151,N,07726.2664,W,1,04,2.27,162.2,M,-34.4,M,,*5E
$GPRMC,174726.250,A,4308.3152,N,07726.2662,W,2.34,50.94,110721,,,A*4D
$GPGGA,174726.500,4308.3153,N,07726.2660,W,1,04,2.27,162.3,M,-34.4,M,,*5C
$GPRMC,174726.750,A,4308.3154,N,07726.2658,W,2.20,57.68,110721,,,A*46
$GPGGA,174727.000,4308.3155,N,07726.2658,W,1,04,2.27,162.3,M,-34.4,M,,*55
$GPRMC,174727.250,A,4308.3156,N,07726.2659,W,1.16,52.63,110721,,,A*49
$GPGGA,174727.500,4308.3157,N,07726.2659,W,1,04,2.27,162.3,M,-34.4,M,,*53
$GPRMC,174727.750,A,4308.3157,N,07726.2660,W,0.59,43.09,110721,,,A*41
$GPGGA,174728.000,4308.3158,N,07726.2661,W,1,04,2.27,162.3,M,-34.4,M,,*5D
$GPRMC,174728.250,A,4308.3158,N,07726.2662,W,0.37,11.33,110721,,,A*40
$GPGGA,174728.500,4308.3159,N,07726.2662,W,1,04,2.67,162.2,M,-34.4,M,,*5F
$GPRMC,174728.750,A,4308.3161,N,07726.2664,W,0.51,335.27,110721,,,A*79
$GPGGA,174729.000,4308.3161,N,07726.2666,W,1,04,2.27,162.2,M,-34.4,M,,*50
$GPRMC,174729.250,A,4308.3162,N,07726.2668,W,0.78,307.89,110721,,,A*7C
$GPGGA,174729.500,4308.3162,N,07726.2669,W,1,04,2.27,162.2,M,-34.4,M,,*59
$GPRMC,174729.750,A,4308.3163,N,07726.2671,W,0.91,299.30,110721,,,A*73
$GPGGA,174730.000,4308.3162,N,07726.2673,W,1,04,2.27,162.2,M,-34.4,M,,*5F
$GPRMC,174730.250,A,4308.3162,N,07726.2674,W,0.93,280.97,110721,,,A*7D
$GPGGA,174730.500,4308.3162,N,07726.2675,W,1,04,2.27,162.1,M,-34.4,M,,*5F
$GPRMC,174730.750,A,4308.3162,N,07726.2677,W,1.13,275.15,110721,,,A*72
$GPGGA,174731.000,4308.3162,N,07726.2680,W,1,04,2.27,162.1,M,-34.4,M,,*51
$GPRMC,174731.250,A,4308.3162,N,07726.2684,W,1.53,272.09,110721,,,A*74
$GPGGA,174731.500,4308.3162,N,07726.2687,W,1,04,2.27,162.1,M,-34.4,M,,*53
$GPRMC,174731.750,A,4308.3162,N,07726.2690,W,1.76,270.44,110721,,,A*78
$GPGGA,174732.000,4308.3162,N,07726.2692,W,1,04,2.27,162.1,M,-34.4,M,,*51
$GPRMC,174732.250,A,4308.3162,N,07726.2694,W,1.91,267.18,110721,,,A*7C
$GPGGA,174732.500,4308.3162,N,07726.2696,W,1,04,2.27,162.0,M,-34.4,M,,*51
$GPRMC,174732.750,A,4308.3161,N,07726.2698,W,1.98,263.43,110721,,,A*75
$GPGGA,174733.000,4308.3160,N,07726.2700,W,1,04,2.27,162.0,M,-34.4,M,,*59
$GPRMC,174733.250,A,4308.3159,N,07726.2703,W,2.15,259.08,110721,,,A*79
$GPGGA,174733.500,4308.3159,N,07726.2705,W,1,04,2.27,161.9,M,-34.4,M,,*59
$GPRMC,174733.750,A,4308.3159,N,07726.2707,W,2.15,259.57,110721,,,A*72
$GPGGA,174734.000,4308.3159,N,07726.2709,W,1,04,2.27,161.9,M,-34.4,M,,*57
$GPRMC,174734.250,A,4308.3160,N,07726.2712,W,2.25,261.89,110721,,,A*75
$GPGGA,174734.500,4308.3161,N,07726.2715,W,1,04,2.27,161.8,M,-34.4,M,,*55
$GPRMC,174734.750,A,4308.3162,N,07726.2718,W,2.36,265.15,110721,,,A*7B
$GPGGA,174735.000,4308.3162,N,07726.2720,W,1,04,2.27,161.6,M,-34.4,M,,*5A
$GPRMC,174735.250,A,4308.3163,N,07726.2722,W,2.33,267.73,110721,,,A*70
$GPGGA,174735.500,4308.3163,N,07726.2726,W,1,04,2.27,161.5,M,-34.4,M,,*5B
$GPRMC,174735.750,A,4308.3164,N,07726.2729,W,2.46,268.90,110721,,,A*79
$GPGGA,174736.000,4308.3165,N,07726.2733,W,1,03,10.96,161.4,M,-34.4,M,,*60
$GPRMC,174736.250,A,4308.3166,N,07726.2737,W,2.76,270.35,110721,,,A*77
$GPGGA,174736.500,4308.3166,N,07726.2740,W,1,03,10.96,161.2,M,-34.4,M,,*64
$GPRMC,174736.750,A,4308.3166,N,07726.2742,W,2.67,271.33,110721,,,A*77
$GPGGA,174737.000,4308.3165,N,07726.2743,W,1,03,10.96,161.0,M,-34.4,M,,*62
$GPRMC,174737.250,A,4308.3165,N,07726.2745,W,2.79,268.33,110721,,,A*70
$GPGGA,174737.500,4308.3165,N,07726.2747,W,1,03,10.95,160.8,M,-34.4,M,,*69
$GPRMC,174737.750,A,4308.3165,N,07726.2750,W,2.81,268.41,110721,,,A*73
$GPGGA,174738.000,4308.3165,N,07726.2753,W,1,03,10.95,160.7,M,-34.4,M,,*69
$GPRMC,174738.250,A,4308.3165,N,07726.2757,W,3.39,269.87,110721,,,A*77
$GPGGA,174738.500,4308.3165,N,07726.2760,W,1,03,10.94,160.4,M,-34.4,M,,*6E
$GPRMC,174738.750,A,4308.3166,N,07726.2764,W,3.74,271.36,110721,,,A*7B
$GPGGA,174739.000,4308.3166,N,07726.2768,W,1,03,10.94,160.3,M,-34.4,M,,*66
$GPRMC,174739.250,A,4308.3166,N,07726.2772,W,4.26,272.60,110721,,,A*78
$GPGGA,174739.500,4308.3167,N,07726.2777,W,1,03,10.94,160.2,M,-34.4,M,,*6D
$GPRMC,174739.750,A,4308.3167,N,07726.2782,W,4.86,274.58,110721,,,A*74
$GPGGA,174740.000,4308.3168,N,07726.2789,W,1,03,10.93,160.0,M,-34.4,M,,*6D
$GPRMC,174740.250,A,4308.3169,N,07726.2795,W,5.64,276.39,110721,,,A*7F
$GPGGA,174740.500,4308.3170,N,07726.2801,W,1,03,10.93,160.0,M,-34.4,M,,*6E
$GPRMC,174740.750,A,4308.3170,N,07726.2807,W,6.17,275.23,110721,,,A*79
$GPGGA,174741.000,4308.3171,N,07726.2815,W,1,04,2.67,160.0,M,-34.4,M,,*51
$GPRMC,174741.250,A,4308.3174,N,07726.2822,W,6.83,277.00,110721,,,A*70
$GPGGA,174741.500,4308.3176,N,07726.2829,W,1,04,2.28,159.9,M,-34.4,M,,*54
$GPRMC,174741.750,A,4308.3180,N,07726.2837,W,7.39,280.16,110721,,,A*75
$GPGGA,174742.000,4308.3182,N,07726.2845,W,1,04,2.67,159.9,M,-34.4,M,,*58
$GPRMC,174742.250,A,4308.3184,N,07726.2853,W,7.87,282.08,110721,,,A*7D
$GPGGA,174742.500,4308.3186,N,07726.2862,W,1,04,2.67,159.9,M,-34.4,M,,*5C
$GPRMC,174742.750,A,4308.3187,N,07726.2871,W,8.37,282.82,110721,,,A*7D
$GPGGA,174743.000,4308.3190,N,07726.2881,W,1,04,2.67,159.9,M,-34.4,M,,*52
$GPRMC,174743.250,A,4308.3194,N,07726.2891,W,9.11,285.79,110721,,,A*73
$GPGGA,174743.500,4308.3196,N,07726.2900,W,1,04,2.28,159.9,M,-34.4,M,,*52
$GPRMC,174743.750,A,4308.3199,N,07726.2909,W,9.37,288.78,110721,,,A*73
$GPGGA,174744.000,4308.3202,N,07726.2918,W,1,04,2.67,159.9,M,-34.4,M,,*5C
$GPRMC,174744.250,A,4308.3205,N,07726.2927,W,9.75,291.01,110721,,,A*7B
$GPGGA,174744.500,4308.3207,N,07726.2936,W,1,04,2.28,160.0,M,-34.4,M,,*58
$GPRMC,174744.750,A,4308.3210,N,07726.2945,W,9.80,291.10,110721,,,A*74
$GPGGA,174745.000,4308.3213,N,07726.2954,W,1,04,2.28,160.0,M,-34.4,M,,*5D
$GPRMC,174745.250,A,4308.3215,N,07726.2963,W,10.03,290.28,110721,,,A*48
$GPGGA,174745.500,4308.3218,N,07726.2973,W,1,04,2.28,160.0,M,-34.4,M,,*56
$GPRMC,174745.750,A,4308.3221,N,07726.2983,W,10.43,290.66,110721,,,A*4A
$GPGGA,174746.000,4308.3225,N,07726.2994,W,1,04,2.28,160.0,M,-34.4,M,,*57
$GPRMC,174746.250,A,4308.3228,N,07726.3004,W,10.83,291.80,110721,,,A*47
$GPGGA,174746.500,4308.3231,N,07726.3015,W,1,04,2.28,160.0,M,-34.4,M,,*56
$GPRMC,174746.750,A,4308.3235,N,07726.3026,W,11.15,292.19,110721,,,A*43
$GPGGA,174747.000,4308.3239,N,07726.3036,W,1,04,2.28,160.0,M,-34.4,M,,*5B
$GPRMC,174747.250,A,4308.3243,N,07726.3047,W,11.24,294.34,110721,,,A*4A
$GPGGA,174747.500,4308.3248,N,07726.3058,W,1,04,2.28,160.0,M,-34.4,M,,*50
$GPRMC,174747.750,A,4308.3252,N,07726.3068,W,11.45,295.92,110721,,,A*48
$GPGGA,174748.000,4308.3257,N,07726.3079,W,1,04,2.28,160.0,M,-34.4,M,,*57
$GPRMC,174748.250,A,4308.3261,N,07726.3089,W,11.74,296.81,110721,,,A*4E
$GPGGA,174748.500,4308.3266,N,07726.3101,W,1,04,2.28,160.0,M,-34.4,M,,*5E
$GPRMC,174748.750,A,4308.3272,N,07726.3112,W,12.12,297.91,110721,,,A*49
$GPGGA,174749.000,4308.3277,N,07726.3124,W,1,04,2.28,160.0,M,-34.4,M,,*5D
$GPRMC,174749.250,A,4308.3283,N,07726.3136,W,12.51,298.60,110721,,,A*43
$GPGGA,174749.500,4308.3288,N,07726.3147,W,1,04,2.28,160.0,M,-34.4,M,,*5D
$GPRMC,174749.750,A,4308.3294,N,07726.3158,W,12.78,299.21,110721,,,A*47
$GPGGA,174750.000,4308.3300,N,07726.3170,W,1,04,2.28,159.9,M,-34.4,M,,*56
$GPRMC,174750.250,A,4308.3306,N,07726.3183,W,13.20,299.41,110721,,,A*4C
$GPGGA,174750.500,4308.3312,N,07726.3195,W,1,04,2.28,159.9,M,-34.4,M,,*5B
$GPRMC,174750.750,A,4308.3319,N,07726.3207,W,13.54,299.65,110721,,,A*4D
$GPGGA,174751.000,4308.3325,N,07726.3219,W,1,04,2.28,159.9,M,-34.4,M,,*5C
$GPRMC,174751.250,A,4308.3332,N,07726.3231,W,13.85,300.42,110721,,,A*4D
$GPGGA,174751.500,4308.3338,N,07726.3244,W,1,04,2.28,159.9,M,-34.4,M,,*5D
$GPRMC,174751.750,A,4308.3345,N,07726.3256,W,14.08,301.30,110721,,,A*4F
$GPGGA,174752.000,4308.3351,N,07726.3268,W,1,04,2.28,159.9,M,-34.4,M,,*5A
$GPRMC,174752.250,A,4308.3358,N,07726.3281,W,14.19,302.50,110721,,,A*4A
$GPGGA,174752.500,4308.3364,N,07726.3293,W,1,04,2.28,159.9,M,-34.4,M,,*5D
$GPRMC,174752.750,A,4308.3369,N,07726.3305,W,14.33,303.14,110721,,,A*49
$GPGGA,174753.000,4308.3375,N,07726.3318,W,1,04,2.28,159.9,M,-34.4,M,,*5B
$GPRMC,174753.250,A,4308.3380,N,07726.3330,W,14.47,302.91,110721,,,A*43
$GPGGA,174753.500,4308.3387,N,07726.3344,W,1,04,2.28,159.9,M,-34.4,M,,*5A
$GPRMC,174753.750,A,4308.3393,N,07726.3357,W,14.86,302.84,110721,,,A*4C
$GPGGA,174754.000,4308.3401,N,07726.3371,W,1,04,2.28,159.9,M,-34.4,M,,*57
$GPRMC,174754.250,A,4308.3407,N,07726.3384,W,15.06,302.81,110721,,,A*46
$GPGGA,174754.500,4308.3414,N,07726.3397,W,1,04,2.28,159.9,M,-34.4,M,,*5E
$GPRMC,174754.750,A,4308.3421,N,07726.3411,W,15.35,302.60,110721,,,A*43
$GPGGA,174755.000,4308.3426,N,07726.3424,W,1,04,2.28,159.8,M,-34.4,M,,*55
$GPRMC,174755.250,A,4308.3432,N,07726.3436,W,15.42,302.21,110721,,,A*45
$GPGGA,174755.500,4308.3439,N,07726.3451,W,1,04,2.28,159.8,M,-34.4,M,,*5C
$GPRMC,174755.750,A,4308.3453,N,07726.3474,W,16.28,302.63,110721,,,A*48
$GPGGA,174756.000,4308.3463,N,07726.3491,W,1,04,2.28,159.7,M,-34.4,M,,*56
$GPRMC,174756.250,A,4308.3474,N,07726.3508,W,16.85,304.23,110721,,,A*44
$GPGGA,174756.500,4308.3482,N,07726.3523,W,1,04,2.28,159.7,M,-34.4,M,,*54
$GPRMC,174756.750,A,4308.3493,N,07726.3541,W,17.16,308.06,110721,,,A*45
$GPGGA,174757.000,4308.3505,N,07726.3561,W,1,04,2.28,159.7,M,-34.4,M,,*58
$GPRMC,174757.250,A,4308.3516,N,07726.3576,W,17.57,313.04,110721,,,A*44
$GPGGA,174757.500,4308.3525,N,07726.3589,W,1,04,2.28,159.7,M,-34.4,M,,*59
$GPRMC,174757.750,A,4308.3535,N,07726.3601,W,17.64,317.08,110721,,,A*4B
$GPGGA,174758.000,4308.3545,N,07726.3613,W,1,04,2.28,159.7,M,-34.4,M,,*55
$GPRMC,174758.250,A,4308.3556,N,07726.3624,W,17.73,322.12,110721,,,A*48
$GPGGA,174758.500,4308.3567,N,07726.3636,W,1,04,2.28,159.8,M,-34.4,M,,*58
$GPRMC,174758.750,A,4308.3578,N,07726.3647,W,18.06,324.67,110721,,,A*4D
$GPGGA,174759.000,4308.3590,N,07726.3658,W,1,04,2.28,159.9,M,-34.4,M,,*5D
$GPRMC,174759.250,A,4308.3602,N,07726.3669,W,18.25,326.27,110721,,,A*4C
$GPGGA,174759.500,4308.3614,N,07726.3679,W,1,04,2.28,160.0,M,-34.4,M,,*57
$GPRMC,174759.750,A,4308.3627,N,07726.3688,W,18.61,330.51,110721,,,A*47
$GPGGA,174800.000,4308.3639,N,07726.3696,W,1,04,2.28,160.1,M,-34.4,M,,*5E
$GPRMC,174800.250,A,4308.3651,N,07726.3703,W,18.71,333.48,110721,,,A*48
$GPGGA,174800.500,4308.3663,N,07726.3711,W,1,04,2.28,160.1,M,-34.4,M,,*5A
$GPRMC,174800.750,A,4308.3674,N,07726.3718,W,18.72,334.41,110721,,,A*4D
$GPGGA,174801.000,4308.3686,N,07726.3725,W,1,04,2.28,160.2,M,-34.4,M,,*51
$GPRMC,174801.250,A,4308.3698,N,07726.3730,W,18.72,336.61,110721,,,A*41
$GPGGA,174801.500,4308.3711,N,07726.3735,W,1,04,2.28,160.3,M,-34.4,M,,*5B
$GPRMC,174801.750,A,4308.3724,N,07726.3740,W,18.90,339.61,110721,,,A*46
$GPGGA,174802.000,4308.3737,N,07726.3745,W,1,04,2.28,160.4,M,-34.4,M,,*59
$GPRMC,174802.250,A,4308.3751,N,07726.3749,W,19.30,342.87,110721,,,A*44
$GPGGA,174802.500,4308.3766,N,07726.3753,W,1,04,2.28,160.5,M,-34.4,M,,*5E
$GPRMC,174802.750,A,4308.3781,N,07726.3758,W,19.63,344.64,110721,,,A*41
$GPGGA,174803.000,4308.3795,N,07726.3762,W,1,04,2.28,160.5,M,-34.4,M,,*54
$GPRMC,174803.250,A,4308.3808,N,07726.3765,W,19.69,345.81,110721,,,A*45
$GPGGA,174803.500,4308.3821,N,07726.3767,W,1,04,2.66,160.6,M,-34.4,M,,*5D
$GPRMC,174803.750,A,4308.3832,N,07726.3765,W,19.41,348.64,110721,,,A*45
$GPGGA,174804.000,4308.3844,N,07726.3764,W,1,04,2.66,160.7,M,-34.4,M,,*5E
$GPRMC,174804.250,A,4308.3856,N,07726.3763,W,19.00,351.92,110721,,,A*47
$GPGGA,174804.500,4308.3869,N,07726.3764,W,1,04,2.66,160.7,M,-34.4,M,,*54
$GPRMC,174804.750,A,4308.3883,N,07726.3765,W,18.95,353.28,110721,,,A*42
$GPGGA,174805.000,4308.3897,N,07726.3766,W,1,04,2.66,160.8,M,-34.4,M,,*5C
$GPRMC,174805.250,A,4308.3911,N,07726.3768,W,18.90,355.30,110721,,,A*4B
$GPGGA,174805.500,4308.3924,N,07726.3769,W,1,04,2.66,160.8,M,-34.4,M,,*5F
$GPRMC,174805.750,A,4308.3936,N,07726.3769,W,18.55,358.05,110721,,,A*48
$GPGGA,174806.000,4308.3948,N,07726.3769,W,1,04,2.66,160.9,M,-34.4,M,,*52
$GPRMC,174806.250,A,4308.3960,N,07726.3768,W,18.19,359.88,110721,,,A*40
$GPGGA,174806.500,4308.3971,N,07726.3768,W,1,04,2.66,160.9,M,-34.4,M,,*5C
$GPRMC,174806.750,A,4308.3983,N,07726.3767,W,17.81,2.17,110721,,,A*42
$GPGGA,174807.000,4308.3992,N,07726.3765,W,1,04,2.66,161.0,M,-34.4,M,,*50
$GPRMC,174807.250,A,4308.4004,N,07726.3764,W,17.59,3.58,110721,,,A*4B
$GPGGA,174807.500,4308.4015,N,07726.3763,W,1,04,2.66,161.1,M,-34.4,M,,*53
$GPRMC,174807.750,A,4308.4026,N,07726.3761,W,17.22,5.04,110721,,,A*48
$GPGGA,174808.000,4308.4037,N,07726.3760,W,1,04,2.66,161.1,M,-34.4,M,,*5A
$GPRMC,174808.250,A,4308.4048,N,07726.3758,W,16.96,6.46,110721,,,A*4B
$GPGGA,174808.500,4308.4059,N,07726.3756,W,1,04,2.66,161.2,M,-34.4,M,,*51
$GPRMC,174808.750,A,4308.4069,N,07726.3754,W,16.86,7.44,110721,,,A*43
$GPGGA,174809.000,4308.4080,N,07726.3751,W,1,04,2.66,161.2,M,-34.4,M,,*56
$GPRMC,174809.250,A,4308.4092,N,07726.3749,W,16.80,8.32,110721,,,A*47
$GPGGA,174809.500,4308.4103,N,07726.3748,W,1,04,2.66,161.3,M,-34.4,M,,*50
$GPRMC,174809.750,A,4308.4115,N,07726.3746,W,16.71,8.83,110721,,,A*47
$GPGGA,174810.000,4308.4127,N,07726.3744,W,1,04,2.66,161.3,M,-34.4,M,,*57
$GPRMC,174810.250,A,4308.4139,N,07726.3742,W,16.54,8.79,110721,,,A*42
$GPGGA,174810.500,4308.4151,N,07726.3740,W,1,04,2.66,161.4,M,-34.4,M,,*50
$GPRMC,174810.750,A,4308.4162,N,07726.3738,W,16.47,8.38,110721,,,A*43
$GPGGA,174811.000,4308.4173,N,07726.3736,W,1,04,2.66,161.5,M,-34.4,M,,*54
$GPRMC,174811.250,A,4308.4185,N,07726.3734,W,16.16,8.67,110721,,,A*4C
$GPGGA,174811.500,4308.4196,N,07726.3732,W,1,04,2.66,161.5,M,-34.4,M,,*5E
$GPRMC,174811.750,A,4308.4207,N,07726.3730,W,15.90,9.04,110721,,,A*4D
$GPGGA,174812.000,4308.4218,N,07726.3728,W,1,04,2.66,161.6,M,-34.4,M,,*55
$GPRMC,174812.250,A,4308.4228,N,07726.3726,W,15.61,9.07,110721,,,A*4C
$GPGGA,174812.500,4308.4238,N,07726.3723,W,1,04,2.66,161.7,M,-34.4,M,,*58
$GPRMC,174812.750,A,4308.4248,N,07726.3721,W,15.23,8.94,110721,,,A*45
$GPGGA,174813.000,4308.4259,N,07726.3719,W,1,04,2.66,161.8,M,-34.4,M,,*5D
$GPRMC,174813.250,A,4308.4269,N,07726.3717,W,15.03,8.71,110721,,,A*4E
$GPGGA,174813.500,4308.4279,N,07726.3715,W,1,04,2.66,161.8,M,-34.4,M,,*56
$GPRMC,174813.750,A,4308.4289,N,07726.3713,W,14.75,8.39,110721,,,A*4D
$GPGGA,174814.000,4308.4299,N,07726.3710,W,1,04,2.66,161.9,M,-34.4,M,,*5E
$GPRMC,174814.250,A,4308.4309,N,07726.3709,W,14.50,8.13,110721,,,A*42
$GPGGA,174814.500,4308.4319,N,07726.3706,W,1,04,2.66,162.0,M,-34.4,M,,*5F
$GPRMC,174814.750,A,4308.4328,N,07726.3705,W,14.29,7.39,110721,,,A*41
$GPGGA,174815.000,4308.4337,N,07726.3703,W,1,04,2.66,162.0,M,-34.4,M,,*52
$GPRMC,174815.250,A,4308.4346,N,07726.3701,W,13.97,6.52,110721,,,A*47
$GPGGA,174815.500,4308.4355,N,07726.3699,W,1,04,2.66,162.1,M,-34.4,M,,*50
$GPRMC,174815.750,A,4308.4363,N,07726.3697,W,13.58,6.21,110721,,,A*4C
$GPGGA,174816.000,4308.4371,N,07726.3696,W,1,04,2.66,162.1,M,-34.4,M,,*5F
$GPRMC,174816.250,A,4308.4379,N,07726.3694,W,13.03,5.38,110721,,,A*47
$GPGGA,174816.500,4308.4387,N,07726.3693,W,1,04,2.66,162.2,M,-34.4,M,,*55
$GPRMC,174816.750,A,4308.4395,N,07726.3691,W,12.70,4.86,110721,,,A*44
$GPGGA,174817.000,4308.4403,N,07726.3690,W,1,04,2.66,162.2,M,-34.4,M,,*59
$GPRMC,174817.250,A,4308.4410,N,07726.3688,W,12.47,4.67,110721,,,A*49
$GPGGA,174817.500,4308.4418,N,07726.3686,W,1,04,2.66,162.3,M,-34.4,M,,*50
$GPRMC,174817.750,A,4308.4426,N,07726.3685,W,12.22,4.57,110721,,,A*44
$GPGGA,174818.000,4308.4434,N,07726.3683,W,1,04,2.66,162.4,M,-34.4,M,,*56
$GPRMC,174818.250,A,4308.4442,N,07726.3682,W,12.09,4.71,110721,,,A*46
$GPGGA,174818.500,4308.4449,N,07726.3680,W,1,04,2.66,162.5,M,-34.4,M,,*5B
$GPRMC,174818.750,A,4308.4457,N,07726.3679,W,11.86,5.06,110721,,,A*46
$GPGGA,174819.000,4308.4464,N,07726.3677,W,1,04,2.66,162.6,M,-34.4,M,,*5B
$GPRMC,174819.250,A,4308.4471,N,07726.3675,W,11.61,5.55,110721,,,A*45
$GPGGA,174819.500,4308.4478,N,07726.3673,W,1,04,2.66,162.7,M,-34.4,M,,*56
$GPRMC,174819.750,A,4308.4485,N,07726.3671,W,11.39,6.33,110721,,,A*41
$GPGGA,174820.000,4308.4491,N,07726.3668,W,1,04,2.66,162.8,M,-34.4,M,,*5B
$GPRMC,174820.250,A,4308.4498,N,07726.3666,W,11.14,7.60,110721,,,A*4C
$GPGGA,174820.500,4308.4504,N,07726.3664,W,1,04,2.66,162.9,M,-34.4,M,,*5E
$GPRMC,174820.750,A,4308.4510,N,07726.3662,W,10.65,8.05,110721,,,A*47
$GPGGA,174821.000,4308.4515,N,07726.3659,W,1,04,2.66,163.1,M,-34.4,M,,*5D
$GPRMC,174821.250,A,4308.4520,N,07726.3656,W,9.98,8.51,110721,,,A*7C
$GPGGA,174821.500,4308.4525,N,07726.3654,W,1,04,2.66,163.3,M,-34.4,M,,*54
$GPRMC,174821.750,A,4308.4530,N,07726.3652,W,9.35,8.13,110721,,,A*7D
$GPGGA,174822.000,4308.4535,N,07726.3651,W,1,04,2.66,163.4,M,-34.4,M,,*51
$GPRMC,174822.250,A,4308.4539,N,07726.3650,W,8.76,6.70,110721,,,A*7D
$GPGGA,174822.500,4308.4544,N,07726.3648,W,1,04,2.65,163.6,M,-34.4,M,,*5B
$GPRMC,174822.750,A,4308.4548,N,07726.3648,W,8.03,3.61,110721,,,A*70
$GPGGA,174823.000,4308.4551,N,07726.3648,W,1,04,2.66,163.7,M,-34.4,M,,*59
$GPRMC,174823.250,A,4308.4553,N,07726.3648,W,7.05,0.41,110721,,,A*76
$GPGGA,174823.500,4308.4555,N,07726.3648,W,1,04,2.65,163.8,M,-34.4,M,,*54
$GPRMC,174823.750,A,4308.4557,N,07726.3648,W,6.05,355.82,110721,,,A*7A
$GPGGA,174824.000,4308.4558,N,07726.3648,W,1,04,2.65,163.9,M,-34.4,M,,*5A
$GPRMC,174824.250,A,4308.4560,N,07726.3649,W,5.29,352.69,110721,,,A*72
$GPGGA,174824.500,4308.4562,N,07726.3649,W,1,04,2.66,163.9,M,-34.4,M,,*54
$GPRMC,174824.750,A,4308.4564,N,07726.3649,W,4.91,351.68,110721,,,A*73
$GPGGA,174825.000,4308.4566,N,07726.3650,W,1,04,2.65,164.0,M,-34.4,M,,*51
$GPRMC,174825.250,A,4308.4567,N,07726.3650,W,4.45,350.99,110721,,,A*7A
$GPGGA,174825.500,4308.4568,N,07726.3651,W,1,04,2.65,164.0,M,-34.4,M,,*5B
$GPRMC,174825.750,A,4308.4569,N,07726.3651,W,3.91,349.17,110721,,,A*70
$GPGGA,174826.000,4308.4568,N,07726.3651,W,1,04,2.65,164.1,M,-34.4,M,,*5C
$GPRMC,174826.250,A,4308.4567,N,07726.3652,W,2.98,345.84,110721,,,A*75
$GPGGA,174826.500,4308.4568,N,07726.3652,W,1,04,2.65,164.2,M,-34.4,M,,*59
$GPRMC,174826.750,A,4308.4568,N,07726.3652,W,2.55,345.84,110721,,,A*7E
$GPGGA,174827.000,4308.4569,N,07726.3653,W,1,04,2.29,164.3,M,-34.4,M,,*54
$GPRMC,174827.250,A,4308.4572,N,07726.3653,W,2.55,345.84,110721,,,A*70
$GPGGA,174827.500,4308.4574,N,07726.3652,W,1,04,2.65,164.4,M,-34.4,M,,*53
$GPRMC,174827.750,A,4308.4578,N,07726.3652,W,2.95,356.73,110721,,,A*78
$GPGGA,174828.000,4308.4581,N,07726.3652,W,1,04,2.65,164.5,M,-34.4,M,,*52
$GPRMC,174828.250,A,4308.4590,N,07726.3646,W,4.77,11.42,110721,,,A*49
$GPGGA,174828.500,4308.4593,N,07726.3645,W,1,04,2.65,164.6,M,-34.4,M,,*51
$GPRMC,174828.750,A,4308.4597,N,07726.3644,W,5.32,13.33,110721,,,A*4D
$GPGGA,174829.000,4308.4601,N,07726.3643,W,1,04,2.65,164.7,M,-34.4,M,,*5A
$GPRMC,174829.250,A,4308.4605,N,07726.3644,W,5.77,13.09,110721,,,A*49
$GPGGA,174829.500,4308.4610,N,07726.3645,W,1,04,2.65,164.8,M,-34.4,M,,*56
$GPRMC,174829.750,A,4308.4613,N,07726.3647,W,5.21,359.20,110721,,,A*7D
$GPGGA,174830.000,4308.4618,N,07726.3652,W,1,04,2.65,164.9,M,-34.4,M,,*54
$GPRMC,174830.250,A,4308.4624,N,07726.3661,W,5.50,321.97,110721,,,A*75
$GPGGA,174830.500,4308.4628,N,07726.3667,W,1,04,2.29,165.0,M,-34.4,M,,*54
$GPRMC,174830.750,A,4308.4631,N,07726.3675,W,6.64,294.33,110721,,,A*74
$GPGGA,174831.000,4308.4634,N,07726.3686,W,1,04,2.29,165.4,M,-34.4,M,,*56
$GPRMC,174831.250,A,4308.4638,N,07726.3698,W,9.49,277.77,110721,,,A*77
$GPGGA,174831.500,4308.4641,N,07726.3710,W,1,04,2.29,165.7,M,-34.4,M,,*5C
$GPRMC,174831.750,A,4308.4642,N,07726.3722,W,11.33,272.81,110721,,,A*47
$GPGGA,174832.000,4308.4643,N,07726.3736,W,1,04,2.29,166.0,M,-34.4,M,,*58
$GPRMC,174832.250,A,4308.4644,N,07726.3749,W,13.32,267.74,110721,,,A*47
$GPGGA,174832.500,4308.4644,N,07726.3763,W,1,04,2.29,166.0,M,-34.4,M,,*5A
$GPRMC,174832.750,A,4308.4644,N,07726.3778,W,14.29,266.38,110721,,,A*44
$GPGGA,174833.000,4308.4645,N,07726.3793,W,1,04,2.29,166.1,M,-34.4,M,,*51
$GPRMC,174833.250,A,4308.4645,N,07726.3809,W,15.32,265.69,110721,,,A*44
$GPGGA,174833.500,4308.4645,N,07726.3825,W,1,04,2.29,166.2,M,-34.4,M,,*55
$GPRMC,174833.750,A,4308.4646,N,07726.3842,W,15.88,267.02,110721,,,A*43
$GPGGA,174834.000,4308.4647,N,07726.3859,W,1,04,2.29,166.2,M,-34.4,M,,*5E
$GPRMC,174834.250,A,4308.4648,N,07726.3877,W,16.39,268.94,110721,,,A*40
$GPGGA,174834.500,4308.4649,N,07726.3894,W,1,04,2.29,166.2,M,-34.4,M,,*54
$GPRMC,174834.750,A,4308.4651,N,07726.3912,W,16.62,271.22,110721,,,A*44
$GPGGA,174835.000,4308.4653,N,07726.3929,W,1,04,2.29,166.2,M,-34.4,M,,*5C
$GPRMC,174835.250,A,4308.4655,N,07726.3946,W,16.73,273.65,110721,,,A*44
$GPGGA,174835.500,4308.4656,N,07726.3963,W,1,04,2.29,166.1,M,-34.4,M,,*51
$GPRMC,174835.750,A,4308.4658,N,07726.3980,W,17.00,274.74,110721,,,A*44
$GPGGA,174836.000,4308.4660,N,07726.3998,W,1,04,2.29,166.0,M,-34.4,M,,*57
$GPRMC,174836.250,A,4308.4662,N,07726.4014,W,17.11,276.08,110721,,,A*41
$GPGGA,174836.500,4308.4663,N,07726.4031,W,1,04,2.29,165.9,M,-34.4,M,,*56
$GPRMC,174836.750,A,4308.4665,N,07726.4048,W,17.33,277.04,110721,,,A*47
$GPGGA,174837.000,4308.4666,N,07726.4064,W,1,04,2.29,165.7,M,-34.4,M,,*59
$GPRMC,174837.250,A,4308.4668,N,07726.4081,W,17.30,278.64,110721,,,A*41
$GPGGA,174837.500,4308.4670,N,07726.4097,W,1,04,2.29,165.5,M,-34.4,M,,*55
$GPRMC,174837.750,A,4308.4673,N,07726.4114,W,17.34,279.71,110721,,,A*42
$GPGGA,174838.000,4308.4675,N,07726.4131,W,1,04,2.29,165.4,M,-34.4,M,,*56
$GPRMC,174838.250,A,4308.4677,N,07726.4147,W,17.31,280.70,110721,,,A*48
$GPGGA,174838.500,4308.4679,N,07726.4163,W,1,04,2.29,165.3,M,-34.4,M,,*5F
$GPRMC,174838.750,A,4308.4680,N,07726.4179,W,17.23,280.78,110721,,,A*43
$GPGGA,174839.000,4308.4682,N,07726.4195,W,1,04,2.29,165.2,M,-34.4,M,,*57
$GPRMC,174839.250,A,4308.4683,N,07726.4211,W,16.83,281.25,110721,,,A*4B
$GPGGA,174839.500,4308.4683,N,07726.4225,W,1,04,2.29,165.1,M,-34.4,M,,*58
$GPRMC,174839.750,A,4308.4683,N,07726.4240,W,16.60,280.45,110721,,,A*40
$GPGGA,174840.000,4308.4683,N,07726.4254,W,1,04,2.29,165.1,M,-34.4,M,,*55
$GPRMC,174840.250,A,4308.4684,N,07726.4269,W,16.36,280.86,110721,,,A*4B
$GPGGA,174840.500,4308.4686,N,07726.4284,W,1,04,2.29,165.1,M,-34.4,M,,*58
$GPRMC,174840.750,A,4308.4688,N,07726.4298,W,16.04,281.69,110721,,,A*4D
$GPGGA,174841.000,4308.4690,N,07726.4312,W,1,04,2.29,165.2,M,-34.4,M,,*56
$GPRMC,174841.250,A,4308.4692,N,07726.4326,W,15.37,283.99,110721,,,A*48
$GPGGA,174841.500,4308.4693,N,07726.4339,W,1,04,2.29,165.2,M,-34.4,M,,*59
$GPRMC,174841.750,A,4308.4694,N,07726.4350,W,14.51,285.53,110721,,,A*4B
$GPGGA,174842.000,4308.4695,N,07726.4362,W,1,04,2.29,165.2,M,-34.4,M,,*57
$GPRMC,174842.250,A,4308.4697,N,07726.4373,W,13.51,288.69,110721,,,A*4C
$GPGGA,174842.500,4308.4698,N,07726.4383,W,1,04,2.29,165.2,M,-34.4,M,,*50
$GPRMC,174842.750,A,4308.4698,N,07726.4392,W,12.29,291.56,110721,,,A*43
$GPGGA,174843.000,4308.4700,N,07726.4400,W,1,04,2.29,165.1,M,-34.4,M,,*5B
$GPRMC,174843.250,A,4308.4701,N,07726.4406,W,10.71,297.74,110721,,,A*45
$GPGGA,174843.500,4308.4701,N,07726.4411,W,1,04,2.29,165.1,M,-34.4,M,,*5F
$GPRMC,174843.750,A,4308.4702,N,07726.4415,W,9.22,302.62,110721,,,A*75
$GPGGA,174844.000,4308.4703,N,07726.4419,W,1,04,2.29,165.1,M,-34.4,M,,*57
$GPRMC,174844.250,A,4308.4703,N,07726.4421,W,7.63,313.50,110721,,,A*7B
$GPGGA,174844.500,4308.4705,N,07726.4423,W,1,04,2.29,165.2,M,-34.4,M,,*5E
$GPRMC,174844.750,A,4308.4706,N,07726.4424,W,6.60,321.17,110721,,,A*7E
$GPGGA,174845.000,4308.4708,N,07726.4425,W,1,04,2.29,165.3,M,-34.4,M,,*50
$GPRMC,174845.250,A,4308.4709,N,07726.4425,W,5.72,330.37,110721,,,A*76
$GPGGA,174845.500,4308.4710,N,07726.4425,W,1,04,2.29,165.4,M,-34.4,M,,*5B
$GPRMC,174845.750,A,4308.4712,N,07726.4425,W,4.84,332.80,110721,,,A*7F
$GPGGA,174846.000,4308.4713,N,07726.4426,W,1,04,2.29,165.5,M,-34.4,M,,*5C
$GPRMC,174846.250,A,4308.4714,N,07726.4426,W,4.21,332.57,110721,,,A*79
$GPGGA,174846.500,4308.4716,N,07726.4427,W,1,04,2.29,165.6,M,-34.4,M,,*5E
$GPRMC,174846.750,A,4308.4716,N,07726.4427,W,3.56,330.85,110721,,,A*75
$GPGGA,174847.000,4308.4717,N,07726.4427,W,1,04,2.29,165.7,M,-34.4,M,,*5A
$GPRMC,174847.250,A,4308.4718,N,07726.4427,W,2.96,328.20,110721,,,A*74
$GPGGA,174847.500,4308.4719,N,07726.4427,W,1,04,2.29,165.8,M,-34.4,M,,*5E
$GPRMC,174847.750,A,4308.4720,N,07726.4428,W,2.62,328.20,110721,,,A*7E
$GPGGA,174848.000,4308.4721,N,07726.4428,W,1,04,2.30,165.9,M,-34.4,M,,*59
$GPRMC,174848.250,A,4308.4721,N,07726.4428,W,2.18,328.20,110721,,,A*78
$GPGGA,174848.500,4308.4722,N,07726.4429,W,1,04,2.30,166.0,M,-34.4,M,,*54
$GPRMC,174848.750,A,4308.4723,N,07726.4429,W,1.96,328.20,110721,,,A*7B
$GPGGA,174849.000,4308.4723,N,07726.4430,W,1,04,2.30,166.1,M,-34.4,M,,*58
$GPRMC,174849.250,A,4308.4724,N,07726.4430,W,1.55,328.20,110721,,,A*7F
$GPGGA,174849.500,4308.4724,N,07726.4431,W,1,04,2.29,166.3,M,-34.4,M,,*51
$GPRMC,174849.750,A,4308.4724,N,07726.4430,W,1.23,328.20,110721,,,A*7B
$GPGGA,174850.000,4308.4724,N,07726.4430,W,1,04,2.29,166.4,M,-34.4,M,,*5A
$GPRMC,174850.250,A,4308.4725,N,07726.4424,W,0.31,328.20,110721,,,A*70
$GPGGA,174850.500,4308.4724,N,07726.4419,W,1,06,1.46,165.2,M,-34.4,M,,*59
$GPRMC,174850.750,A,4308.4723,N,07726.4414,W,0.23,328.20,110721,,,A*73
$GPGGA,174851.000,4308.4721,N,07726.4411,W,1,06,1.46,164.0,M,-34.4,M,,*53
$GPRMC,174851.250,A,4308.4720,N,07726.4409,W,0.24,328.20,110721,,,A*7F
$GPGGA,174851.500,4308.4718,N,07726.4409,W,1,06,1.46,163.0,M,-34.4,M,,*52
$GPRMC,174851.750,A,4308.4714,N,07726.4406,W,0.58,328.20,110721,,,A*79
$GPGGA,174852.000,4308.4711,N,07726.4406,W,1,06,1.46,162.1,M,-34.4,M,,*52
$GPRMC,174852.250,A,4308.4709,N,07726.4406,W,1.07,328.20,110721,,,A*78
$GPGGA,174852.500,4308.4707,N,07726.4405,W,1,06,1.46,161.6,M,-34.4,M,,*57
$GPRMC,174852.750,A,4308.4706,N,07726.4405,W,1.49,328.20,110721,,,A*7B
$GPGGA,174853.000,4308.4706,N,07726.4408,W,1,06,1.46,161.2,M,-34.4,M,,*5B
$GPRMC,174853.250,A,4308.4705,N,07726.4410,W,2.47,328.20,110721,,,A*75
$GPGGA,174853.500,4308.4705,N,07726.4414,W,1,06,1.46,160.8,M,-34.4,M,,*5B
$GPRMC,174853.750,A,4308.4705,N,07726.4420,W,4.39,264.34,110721,,,A*70
$GPGGA,174854.000,4308.4705,N,07726.4426,W,1,06,1.70,160.4,M,-34.4,M,,*51
$GPRMC,174854.250,A,4308.4704,N,07726.4432,W,6.63,268.82,110721,,,A*7C
$GPGGA,174854.500,4308.4703,N,07726.4438,W,1,06,1.46,160.1,M,-34.4,M,,*5D
$GPRMC,174854.750,A,4308.4702,N,07726.4446,W,8.42,271.45,110721,,,A*72
$GPGGA,174855.000,4308.4702,N,07726.4455,W,1,06,1.46,159.9,M,-34.4,M,,*51
$GPRMC,174855.250,A,4308.4703,N,07726.4465,W,10.33,274.48,110721,,,A*41
$GPGGA,174855.500,4308.4703,N,07726.4475,W,1,06,1.46,159.7,M,-34.4,M,,*59
$GPRMC,174855.750,A,4308.4704,N,07726.4486,W,11.02,275.93,110721,,,A*4A
$GPGGA,174856.000,4308.4704,N,07726.4497,W,1,06,1.46,159.6,M,-34.4,M,,*55
$GPRMC,174856.250,A,4308.4705,N,07726.4508,W,12.04,277.60,110721,,,A*41
$GPGGA,174856.500,4308.4705,N,07726.4519,W,1,06,1.46,159.4,M,-34.4,M,,*54
$GPRMC,174856.750,A,4308.4707,N,07726.4531,W,12.39,278.03,110721,,,A*48
$GPGGA,174857.000,4308.4708,N,07726.4543,W,1,06,1.46,159.3,M,-34.4,M,,*55
$GPRMC,174857.250,A,4308.4710,N,07726.4555,W,13.36,276.88,110721,,,A*4B
$GPGGA,174857.500,4308.4711,N,07726.4568,W,1,06,1.46,159.1,M,-34.4,M,,*53
$GPRMC,174857.750,A,4308.4712,N,07726.4582,W,14.45,275.83,110721,,,A*4D
$GPGGA,174858.000,4308.4713,N,07726.4596,W,1,06,1.70,159.1,M,-34.4,M,,*5F
$GPRMC,174858.250,A,4308.4714,N,07726.4611,W,15.33,275.47,110721,,,A*40
$GPGGA,174858.500,4308.4715,N,07726.4626,W,1,06,1.46,159.0,M,-34.4,M,,*50
$GPRMC,174858.750,A,4308.4716,N,07726.4642,W,16.08,275.90,110721,,,A*40
$GPGGA,174859.000,4308.4718,N,07726.4657,W,1,06,1.46,159.0,M,-34.4,M,,*5F
$GPRMC,174859.250,A,4308.4719,N,07726.4674,W,16.98,276.75,110721,,,A*4F
$GPGGA,174859.500,4308.4721,N,07726.4690,W,1,06,1.46,159.0,M,-34.4,M,,*5B
$GPRMC,174859.750,A,4308.4722,N,07726.4707,W,17.63,277.29,110721,,,A*4A
$GPGGA,174900.000,4308.4724,N,07726.4724,W,1,06,1.46,159.0,M,-34.4,M,,*58
$GPRMC,174900.250,A,4308.4726,N,07726.4742,W,18.22,278.23,110721,,,A*48
$GPGGA,174900.500,4308.4727,N,07726.4759,W,1,06,1.46,158.9,M,-34.4,M,,*5C
$GPRMC,174900.750,A,4308.4729,N,07726.4777,W,18.68,278.44,110721,,,A*4B
$GPGGA,174901.000,4308.4731,N,07726.4796,W,1,06,1.46,158.9,M,-34.4,M,,*5C
$GPRMC,174901.250,A,4308.4733,N,07726.4815,W,19.27,279.10,110721,,,A*45
$GPGGA,174901.500,4308.4734,N,07726.4833,W,1,06,1.46,158.8,M,-34.4,M,,*5D
$GPRMC,174901.750,A,4308.4735,N,07726.4852,W,19.70,278.23,110721,,,A*46
$GPGGA,174902.000,4308.4736,N,07726.4871,W,1,06,1.46,158.8,M,-34.4,M,,*5F
$GPRMC,174902.250,A,4308.4737,N,07726.4890,W,20.06,277.51,110721,,,A*4D
$GPGGA,174902.500,4308.4739,N,07726.4910,W,1,06,1.46,158.8,M,-34.4,M,,*53
$GPRMC,174902.750,A,4308.4741,N,07726.4930,W,20.71,277.50,110721,,,A*43
$GPGGA,174903.000,4308.4742,N,07726.4950,W,1,06,1.46,158.8,M,-34.4,M,,*5F
$GPRMC,174903.250,A,4308.4744,N,07726.4971,W,21.30,277.86,110721,,,A*48
$GPGGA,174903.500,4308.4746,N,07726.4991,W,1,06,1.46,158.8,M,-34.4,M,,*53
$GPRMC,174903.750,A,4308.4747,N,07726.5013,W,21.97,277.27,110721,,,A*44
$GPGGA,174904.000,4308.4749,N,07726.5034,W,1,06,1.46,158.7,M,-34.4,M,,*56
$GPRMC,174904.250,A,4308.4751,N,07726.5056,W,22.49,276.98,110721,,,A*45
$GPGGA,174904.500,4308.4753,N,07726.5077,W,1,06,1.46,158.7,M,-34.4,M,,*5F
$GPRMC,174904.750,A,4308.4754,N,07726.5099,W,22.73,276.53,110721,,,A*48
$GPGGA,174905.000,4308.4756,N,07726.5121,W,1,06,1.46,158.7,M,-34.4,M,,*5C
$GPRMC,174905.250,A,4308.4758,N,07726.5143,W,23.18,275.56,110721,,,A*4C
$GPGGA,174905.500,4308.4759,N,07726.5165,W,1,06,1.46,158.7,M,-34.4,M,,*56
$GPRMC,174905.750,A,4308.4761,N,07726.5188,W,23.28,274.74,110721,,,A*46
$GPGGA,174906.000,4308.4762,N,07726.5211,W,1,06,1.46,158.6,M,-34.4,M,,*59
$GPRMC,174906.250,A,4308.4763,N,07726.5234,W,23.60,273.63,110721,,,A*4B
$GPGGA,174906.500,4308.4764,N,07726.5257,W,1,06,1.46,158.5,M,-34.4,M,,*5B
$GPRMC,174906.750,A,4308.4765,N,07726.5281,W,24.02,272.70,110721,,,A*46
$GPGGA,174907.000,4308.4766,N,07726.5304,W,1,06,1.46,158.4,M,-34.4,M,,*5B
$GPRMC,174907.250,A,4308.4766,N,07726.5328,W,24.37,271.09,110721,,,A*48
$GPGGA,174907.500,4308.4767,N,07726.5352,W,1,06,1.46,158.3,M,-34.4,M,,*5B
$GPRMC,174907.750,A,4308.4768,N,07726.5377,W,24.89,271.19,110721,,,A*4D
$GPGGA,174908.000,4308.4770,N,07726.5402,W,1,06,1.46,158.3,M,-34.4,M,,*55
$GPRMC,174908.250,A,4308.4771,N,07726.5427,W,25.57,271.73,110721,,,A*43
$GPGGA,174908.500,4308.4772,N,07726.5452,W,1,06,1.46,158.3,M,-34.4,M,,*57
$GPRMC,174908.750,A,4308.4773,N,07726.5477,W,25.83,271.57,110721,,,A*4E
$GPGGA,174909.000,4308.4774,N,07726.5502,W,1,06,1.46,158.4,M,-34.4,M,,*56
$GPRMC,174909.250,A,4308.4775,N,07726.5528,W,26.43,271.37,110721,,,A*4E
$GPGGA,174909.500,4308.4776,N,07726.5554,W,1,06,1.46,158.4,M,-34.4,M,,*52
$GPRMC,174909.750,A,4308.4778,N,07726.5580,W,27.11,272.04,110721,,,A*41
$GPGGA,174910.000,4308.4779,N,07726.5606,W,1,06,1.46,158.5,M,-34.4,M,,*55
$GPRMC,174910.250,A,4308.4780,N,07726.5633,W,27.45,272.23,110721,,,A*44
$GPGGA,174910.500,4308.4782,N,07726.5660,W,1,06,1.46,158.5,M,-34.4,M,,*54
$GPRMC,174910.750,A,4308.4783,N,07726.5686,W,28.30,272.39,110721,,,A*4A
$GPGGA,174911.000,4308.4784,N,07726.5713,W,1,06,1.46,158.6,M,-34.4,M,,*50
$GPRMC,174911.250,A,4308.4785,N,07726.5740,W,28.36,272.08,110721,,,A*47
$GPGGA,174911.500,4308.4786,N,07726.5767,W,1,06,1.46,158.7,M,-34.4,M,,*55
$GPRMC,174911.750,A,4308.4787,N,07726.5794,W,28.43,271.89,110721,,,A*41
$GPGGA,174912.000,4308.4788,N,07726.5821,W,1,06,1.46,158.7,M,-34.4,M,,*50
$GPRMC,174912.250,A,4308.4788,N,07726.5849,W,28.44,271.94,110721,,,A*4C
$GPGGA,174912.500,4308.4789,N,07726.5876,W,1,06,1.46,158.8,M,-34.4,M,,*59
$GPRMC,174912.750,A,4308.4790,N,07726.5903,W,28.66,271.86,110721,,,A*4C
$GPGGA,174913.000,4308.4791,N,07726.5931,W,1,06,1.46,158.8,M,-34.4,M,,*56
$GPRMC,174913.250,A,4308.4792,N,07726.5959,W,28.86,271.56,110721,,,A*46
$GPGGA,174913.500,4308.4793,N,07726.5986,W,1,06,1.46,158.9,M,-34.4,M,,*5C
$GPRMC,174913.750,A,4308.4794,N,07726.6014,W,28.93,271.68,110721,,,A*4F
$GPGGA,174914.000,4308.4795,N,07726.6043,W,1,06,1.46,159.0,M,-34.4,M,,*53
$GPRMC,174914.250,A,4308.4797,N,07726.6072,W,29.07,272.02,110721,,,A*4D
$GPGGA,174914.500,4308.4798,N,07726.6100,W,1,06,1.46,159.1,M,-34.4,M,,*5C
$GPRMC,174914.750,A,4308.4799,N,07726.6129,W,30.07,271.74,110721,,,A*43
$GPGGA,174915.000,4308.4799,N,07726.6158,W,1,06,1.46,159.2,M,-34.4,M,,*57
$GPRMC,174915.250,A,4308.4800,N,07726.6187,W,30.44,271.32,110721,,,A*49
$GPGGA,174915.500,4308.4800,N,07726.6216,W,1,06,1.46,159.3,M,-34.4,M,,*55
$GPRMC,174915.750,A,4308.4800,N,07726.6245,W,30.48,270.67,110721,,,A*4C
$GPGGA,174916.000,4308.4800,N,07726.6275,W,1,06,1.46,159.4,M,-34.4,M,,*51
$GPRMC,174916.250,A,4308.4800,N,07726.6305,W,30.62,270.05,110721,,,A*43
$GPGGA,174916.500,4308.4800,N,07726.6335,W,1,06,1.46,159.5,M,-34.4,M,,*50
$GPRMC,174916.750,A,4308.4800,N,07726.6364,W,30.70,269.57,110721,,,A*4D
$GPGGA,174917.000,4308.4800,N,07726.6394,W,1,05,1.87,159.6,M,-34.4,M,,*52
$GPRMC,174917.250,A,4308.4799,N,07726.6424,W,31.24,269.06,110721,,,A*41
$GPGGA,174917.500,4308.4799,N,07726.6454,W,1,05,1.87,159.7,M,-34.4,M,,*52
$GPRMC,174917.750,A,4308.4798,N,07726.6484,W,31.39,268.55,110721,,,A*44
$GPGGA,174918.000,4308.4797,N,07726.6514,W,1,06,1.46,159.7,M,-34.4,M,,*5D
$GPRMC,174918.250,A,4308.4796,N,07726.6544,W,31.51,268.00,110721,,,A*43
$GPGGA,174918.500,4308.4795,N,07726.6574,W,1,06,1.46,159.7,M,-34.4,M,,*5C
$GPRMC,174918.750,A,4308.4794,N,07726.6604,W,31.73,267.74,110721,,,A*4F
$GPGGA,174919.000,4308.4792,N,07726.6634,W,1,06,1.46,159.7,M,-34.4,M,,*58
$GPRMC,174919.250,A,4308.4790,N,07726.6664,W,31.74,267.05,110721,,,A*48
$GPGGA,174919.500,4308.4788,N,07726.6694,W,1,06,1.46,159.6,M,-34.4,M,,*5D
$GPRMC,174919.750,A,4308.4786,N,07726.6724,W,31.78,266.45,110721,,,A*46
$GPGGA,174920.000,4308.4785,N,07726.6754,W,1,06,1.46,159.5,M,-34.4,M,,*51
$GPRMC,174920.250,A,4308.4783,N,07726.6784,W,31.79,265.94,110721,,,A*48
$GPGGA,174920.500,4308.4782,N,07726.6815,W,1,06,1.46,159.5,M,-34.4,M,,*59
$GPRMC,174920.750,A,4308.4780,N,07726.6845,W,31.80,265.71,110721,,,A*41
$GPGGA,174921.000,4308.4779,N,07726.6876,W,1,06,1.46,159.4,M,-34.4,M,,*5D
$GPRMC,174921.250,A,4308.4778,N,07726.6907,W,31.80,266.23,110721,,,A*41
$GPGGA,174921.500,4308.4777,N,07726.6938,W,1,06,1.46,159.3,M,-34.4,M,,*5A
$GPRMC,174921.750,A,4308.4776,N,07726.6970,W,32.00,266.16,110721,,,A*47
$GPGGA,174922.000,4308.4775,N,07726.7001,W,1,06,1.46,159.3,M,-34.4,M,,*5C
$GPRMC,174922.250,A,4308.4774,N,07726.7032,W,32.02,266.08,110721,,,A*40
$GPGGA,174922.500,4308.4773,N,07726.7062,W,1,06,1.46,159.4,M,-34.4,M,,*5D
$GPRMC,174922.750,A,4308.4772,N,07726.7093,W,32.02,265.81,110721,,,A*4A
$GPGGA,174923.000,4308.4770,N,07726.7124,W,1,06,1.46,159.4,M,-34.4,M,,*59
$GPRMC,174923.250,A,4308.4769,N,07726.7154,W,31.81,265.74,110721,,,A*4C
$GPGGA,174923.500,4308.4767,N,07726.7185,W,1,06,1.46,159.5,M,-34.4,M,,*50
$GPRMC,174923.750,A,4308.4765,N,07726.7214,W,31.75,265.70,110721,,,A*4D
$GPGGA,174924.000,4308.4764,N,07726.7244,W,1,06,1.46,159.6,M,-34.4,M,,*5C
$GPRMC,174924.250,A,4308.4762,N,07726.7274,W,31.50,265.68,110721,,,A*40
$GPGGA,174924.500,4308.4760,N,07726.7305,W,1,06,1.46,159.7,M,-34.4,M,,*58
$GPRMC,174924.750,A,4308.4758,N,07726.7334,W,31.15,265.83,110721,,,A*4D
$GPGGA,174925.000,4308.4757,N,07726.7364,W,1,06,1.46,159.8,M,-34.4,M,,*50
$GPRMC,174925.250,A,4308.4755,N,07726.7393,W,30.70,266.31,110721,,,A*41
$GPGGA,174925.500,4308.4754,N,07726.7422,W,1,06,1.46,159.9,M,-34.4,M,,*52
$GPRMC,174925.750,A,4308.4752,N,07726.7450,W,30.46,265.90,110721,,,A*46
$GPGGA,174926.000,4308.4751,N,07726.7478,W,1,06,1.46,160.0,M,-34.4,M,,*5D
$GPRMC,174926.250,A,4308.4749,N,07726.7506,W,30.16,266.24,110721,,,A*41
$GPGGA,174926.500,4308.4747,N,07726.7533,W,1,06,1.46,160.2,M,-34.4,M,,*53
$GPRMC,174926.750,A,4308.4746,N,07726.7561,W,28.98,266.45,110721,,,A*42
$GPGGA,174927.000,4308.4745,N,07726.7589,W,1,06,1.46,160.3,M,-34.4,M,,*55
$GPRMC,174927.250,A,4308.4744,N,07726.7616,W,28.82,266.26,110721,,,A*49
$GPGGA,174927.500,4308.4743,N,07726.7643,W,1,06,1.46,160.5,M,-34.4,M,,*55
$GPRMC,174927.750,A,4308.4742,N,07726.7670,W,28.45,266.36,110721,,,A*40
$GPGGA,174928.000,4308.4741,N,07726.7697,W,1,06,1.46,160.6,M,-34.4,M,,*57
$GPRMC,174928.250,A,4308.4740,N,07726.7723,W,28.32,266.00,110721,,,A*4A
$GPGGA,174928.500,4308.4738,N,07726.7749,W,1,06,1.46,160.7,M,-34.4,M,,*5F
$GPRMC,174928.750,A,4308.4737,N,07726.7775,W,27.42,265.28,110721,,,A*4D
$GPGGA,174929.000,4308.4735,N,07726.7801,W,1,06,1.46,160.8,M,-34.4,M,,*5A
$GPRMC,174929.250,A,4308.4733,N,07726.7827,W,27.11,264.72,110721,,,A*4D
$GPGGA,174929.500,4308.4732,N,07726.7852,W,1,06,1.46,161.0,M,-34.4,M,,*57
$GPRMC,174929.750,A,4308.4730,N,07726.7877,W,26.62,264.43,110721,,,A*49
$GPGGA,174930.000,4308.4727,N,07726.7901,W,1,06,1.46,161.2,M,-34.4,M,,*5B
$GPRMC,174930.250,A,4308.4725,N,07726.7926,W,26.37,263.37,110721,,,A*41
$GPGGA,174930.500,4308.4723,N,07726.7950,W,1,06,1.46,161.3,M,-34.4,M,,*5F
$GPRMC,174930.750,A,4308.4721,N,07726.7975,W,26.06,263.34,110721,,,A*47
$GPGGA,174931.000,4308.4719,N,07726.7999,W,1,06,1.46,161.4,M,-34.4,M,,*50
$GPRMC,174931.250,A,4308.4717,N,07726.8023,W,25.85,262.84,110721,,,A*41
$GPGGA,174931.500,4308.4715,N,07726.8047,W,1,06,1.46,161.5,M,-34.4,M,,*5D
$GPRMC,174931.750,A,4308.4712,N,07726.8070,W,25.61,262.73,110721,,,A*45
$GPGGA,174932.000,4308.4710,N,07726.8094,W,1,06,1.46,161.6,M,-34.4,M,,*53
$GPRMC,174932.250,A,4308.4708,N,07726.8118,W,25.56,262.71,110721,,,A*41
$GPGGA,174932.500,4308.4706,N,07726.8142,W,1,06,1.46,161.7,M,-34.4,M,,*5A
$GPRMC,174932.750,A,4308.4704,N,07726.8166,W,25.51,263.14,110721,,,A*44
$GPGGA,174933.000,4308.4703,N,07726.8190,W,1,06,1.46,161.8,M,-34.4,M,,*5B
$GPRMC,174933.250,A,4308.4701,N,07726.8214,W,25.48,263.07,110721,,,A*49
$GPGGA,174933.500,4308.4699,N,07726.8238,W,1,06,1.46,161.9,M,-34.4,M,,*5C
$GPRMC,174933.750,A,4308.4698,N,07726.8262,W,25.42,263.98,110721,,,A*40
$GPGGA,174934.000,4308.4696,N,07726.8286,W,1,06,1.46,162.0,M,-34.4,M,,*5E
$GPRMC,174934.250,A,4308.4694,N,07726.8310,W,25.32,263.89,110721,,,A*4D
$GPGGA,174934.500,4308.4693,N,07726.8333,W,1,06,1.46,162.0,M,-34.4,M,,*51
$GPRMC,174934.750,A,4308.4691,N,07726.8357,W,25.07,263.87,110721,,,A*46
$GPGGA,174935.000,4308.4689,N,07726.8381,W,1,06,1.46,162.1,M,-34.4,M,,*56
$GPRMC,174935.250,A,4308.4687,N,07726.8404,W,25.30,263.62,110721,,,A*4B
$GPGGA,174935.500,4308.4686,N,07726.8429,W,1,06,1.46,162.1,M,-34.4,M,,*59
$GPRMC,174935.750,A,4308.4684,N,07726.8453,W,25.64,263.60,110721,,,A*4C
$GPGGA,174936.000,4308.4682,N,07726.8478,W,1,06,1.46,162.1,M,-34.4,M,,*5F
$GPRMC,174936.250,A,4308.4681,N,07726.8503,W,26.10,263.91,110721,,,A*45
$GPGGA,174936.500,4308.4679,N,07726.8529,W,1,06,1.46,162.1,M,-34.4,M,,*5B
$GPRMC,174936.750,A,4308.4678,N,07726.8554,W,26.36,263.86,110721,,,A*46
$GPGGA,174937.000,4308.4676,N,07726.8580,W,1,06,1.46,162.1,M,-34.4,M,,*53
$GPRMC,174937.250,A,4308.4675,N,07726.8605,W,26.49,264.05,110721,,,A*4C
$GPGGA,174937.500,4308.4673,N,07726.8630,W,1,06,1.46,162.0,M,-34.4,M,,*5A
$GPRMC,174937.750,A,4308.4672,N,07726.8656,W,26.89,263.53,110721,,,A*40
$GPGGA,174938.000,4308.4669,N,07726.8681,W,1,06,1.46,162.0,M,-34.4,M,,*51
$GPRMC,174938.250,A,4308.4667,N,07726.8707,W,26.99,262.79,110721,,,A*43
$GPGGA,174938.500,4308.4665,N,07726.8733,W,1,06,1.46,161.9,M,-34.4,M,,*5A
$GPRMC,174938.750,A,4308.4663,N,07726.8759,W,27.03,262.85,110721,,,A*48
$GPGGA,174939.000,4308.4660,N,07726.8785,W,1,06,1.46,161.8,M,-34.4,M,,*57
$GPRMC,174939.250,A,4308.4658,N,07726.8812,W,27.28,263.08,110721,,,A*49
$GPGGA,174939.500,4308.4656,N,07726.8838,W,1,06,1.46,161.8,M,-34.4,M,,*5E
$GPRMC,174939.750,A,4308.4653,N,07726.8864,W,27.72,263.11,110721,,,A*41
$GPGGA,174940.000,4308.4651,N,07726.8891,W,1,06,1.46,161.8,M,-34.4,M,,*51
$GPRMC,174940.250,A,4308.4648,N,07726.8918,W,27.97,263.44,110721,,,A*41
$GPGGA,174940.500,4308.4646,N,07726.8945,W,1,06,1.46,161.9,M,-34.4,M,,*5B
$GPRMC,174940.750,A,4308.4644,N,07726.8973,W,28.53,264.01,110721,,,A*44
$GPGGA,174941.000,4308.4642,N,07726.9001,W,1,06,1.46,162.0,M,-34.4,M,,*59
$GPRMC,174941.250,A,4308.4640,N,07726.9029,W,28.95,264.29,110721,,,A*43
$GPGGA,174941.500,4308.4638,N,07726.9056,W,1,06,1.46,162.0,M,-34.4,M,,*53
$GPRMC,174941.750,A,4308.4636,N,07726.9085,W,29.36,264.03,110721,,,A*41
$GPGGA,174942.000,4308.4633,N,07726.9113,W,1,06,1.46,162.1,M,-34.4,M,,*5F
$GPRMC,174942.250,A,4308.4631,N,07726.9142,W,29.48,263.86,110721,,,A*49
$GPGGA,174942.500,4308.4629,N,07726.9170,W,1,06,1.46,162.1,M,-34.4,M,,*54
$GPRMC,174942.750,A,4308.4627,N,07726.9199,W,29.84,264.13,110721,,,A*46
$GPGGA,174943.000,4308.4625,N,07726.9227,W,1,06,1.46,162.2,M,-34.4,M,,*5E
$GPRMC,174943.250,A,4308.4622,N,07726.9256,W,30.10,263.41,110721,,,A*42
$GPGGA,174943.500,4308.4619,N,07726.9284,W,1,06,1.46,162.2,M,-34.4,M,,*5D
$GPRMC,174943.750,A,4308.4616,N,07726.9313,W,30.48,263.31,110721,,,A*4A
$GPGGA,174944.000,4308.4613,N,07726.9342,W,1,06,1.46,162.3,M,-34.4,M,,*5F
$GPRMC,174944.250,A,4308.4611,N,07726.9371,W,30.53,262.96,110721,,,A*4D
$GPGGA,174944.500,4308.4608,N,07726.9400,W,1,06,1.46,162.3,M,-34.4,M,,*51
$GPRMC,174944.750,A,4308.4606,N,07726.9429,W,30.57,263.45,110721,,,A*4F
$GPGGA,174945.000,4308.4603,N,07726.9458,W,1,06,1.46,162.4,M,-34.4,M,,*54
$GPRMC,174945.250,A,4308.4601,N,07726.9487,W,30.67,263.63,110721,,,A*4F
$GPGGA,174945.500,4308.4598,N,07726.9516,W,1,06,1.46,162.3,M,-34.4,M,,*5C
$GPRMC,174945.750,A,4308.4596,N,07726.9545,W,30.93,263.62,110721,,,A*42
$GPGGA,174946.000,4308.4593,N,07726.9575,W,1,06,1.46,162.3,M,-34.4,M,,*54
$GPRMC,174946.250,A,4308.4591,N,07726.9604,W,31.02,263.57,110721,,,A*4A
$GPGGA,174946.500,4308.4588,N,07726.9634,W,1,06,1.46,162.3,M,-34.4,M,,*5D
$GPRMC,174946.750,A,4308.4586,N,07726.9664,W,31.04,263.77,110721,,,A*4B
$GPGGA,174947.000,4308.4584,N,07726.9694,W,1,06,1.46,162.2,M,-34.4,M,,*5E
$GPRMC,174947.250,A,4308.4582,N,07726.9724,W,31.31,263.99,110721,,,A*48
$GPGGA,174947.500,4308.4579,N,07726.9753,W,1,06,1.46,162.2,M,-34.4,M,,*53
$GPRMC,174947.750,A,4308.4577,N,07726.9784,W,31.39,263.98,110721,,,A*44
