Vers 81
USE_SERIAL_FEEDBACK=true
DEVELOPMENT_MODE=false
USE_RMC_ONLY=false

$GPGGA,165803.500,4308.3054,N,07726.2711,W,1,04,2.53,172.1,M,-34.4,M,,*55
$GPRMC,165803.500,A,4308.3054,N,07726.2711,W,0.18,135.62,050721,,,A*77
$GPGGA,165803.750,4308.3053,N,07726.2704,W,1,04,2.52,171.4,M,-34.4,M,,*56
$GPRMC,165803.750,A,4308.3053,N,07726.2704,W,0.16,140.76,050721,,,A*7A
$GPGGA,165804.000,4308.3052,N,07726.2699,W,1,04,2.53,170.7,M,-34.4,M,,*54
$GPRMC,165804.000,A,4308.3052,N,07726.2699,W,0.18,140.52,050721,,,A*73
$GPGGA,165804.250,4308.3051,N,07726.2695,W,1,04,2.52,170.1,M,-34.4,M,,*5B
$GPRMC,165804.250,A,4308.3051,N,07726.2695,W,0.18,136.77,050721$GPGGA,165804.500,4308.3050,N,07726.2691,W,1,04,2.53,169.5,M,-34.4,M,,*51
$GPRMC,165804.750,A,4308.3050,N,07726.2688,W,0.14,106.84,050721,,,A*76
$GPGGA,165805.000,4308.3049,N,07726.2686,W,1,04,2.52,168.4,M,-34.4,M,,*5A
$GPRMC,165805.250,A,4308.3049,N,07726.2684,W,0.04,4.70,050721,,,A*7F
$GPGGA,165805.500,4308.3049,N,07726.2681,W,1,04,2.65,167.5,M,-34.4,M,,*52
$GPRMC,165805.750,A,4308.3048,N,07726.2679,W,0.06,77.43,050721,,,A*4F
$GPGGA,165806.000,4308.3048,N,07726.2677,W,1,04,2.53,166.6,M,-34.4,M,,*5B
$GPRMC,165806.250,A,4308.3048,N,07726.2676,W,0.11,42.64,050721,,,A*43
$GPGGA,165806.500,4308.3048,N,07726.2675,W,1,04,2.53,165.8,M,-34.4,M,,*51
$GPRMC,165806.750,A,4308.3047,N,07726.2673,W,0.10,43.84,050721,,,A*42
$GPGGA,165807.000,4308.3047,N,07726.2672,W,1,04,2.53,165.0,M,-34.4,M,,*55
$GPRMC,165807.250,A,4308.3047,N,07726.2671,W,0.09,66.53,050721,,,A*41
$GPGGA,165807.500,4308.3046,N,07726.2671,W,1,04,2.53,164.2,M,-34.4,M,,*51
$GPRMC,165807.750,A,4308.3046,N,07726.2670,W,0.01,132.21,050721,,,A*79
$GPGGA,165808.000,4308.3046,N,07726.2670,W,1,04,2.53,163.5,M,-34.4,M,,*5A
$GPRMC,165808.250,A,4308.3046,N,07726.2669,W,0.11,27.19,050721,,,A*44
$GPGGA,165808.500,4308.3046,N,07726.2668,W,1,04,2.53,162.7,M,-34.4,M,,*55
$GPRMC,165808.750,A,4308.3046,N,07726.2667,W,0.15,55.17,050721,,,A*40
$GPGGA,165809.000,4308.3046,N,07726.2667,W,1,04,2.53,162.0,M,-34.4,M,,*59
$GPRMC,165809.250,A,4308.3045,N,07726.2667,W,0.08,13.52,050721,,,A*48
$GPGGA,165809.500,4308.3045,N,07726.2667,W,1,04,2.65,161.3,M,-34.4,M,,*5A
$GPRMC,165809.750,A,4308.3044,N,07726.2666,W,0.08,324.48,050721,,,A*71
$GPGGA,165810.000,4308.3044,N,07726.2666,W,1,04,2.53,160.7,M,-34.4,M,,*57
$GPRMC,165810.250,A,4308.3044,N,07726.2666,W,0.08,15.89,050721,,,A*40
$GPGGA,165810.500,4308.3043,N,07726.2666,W,1,04,2.53,160.1,M,-34.4,M,,*53
$GPRMC,165810.750,A,4308.3043,N,07726.2666,W,0.08,355.57,050721,,,A*76
$GPGGA,165811.000,4308.3044,N,07726.2665,W,1,04,2.65,159.4,M,-34.4,M,,*59
$GPRMC,165811.250,A,4308.3044,N,07726.2665,W,0.15,27.68,050721,,,A*40
$GPGGA,165811.500,4308.3044,N,07726.2664,W,1,04,2.53,158.9,M,-34.4,M,,*54
$GPRMC,165811.750,A,4308.3044,N,07726.2664,W,0.21,38.61,050721,,,A*44
$GPGGA,165812.000,4308.3044,N,07726.2664,W,1,04,2.53,158.3,M,-34.4,M,,*58
$GPRMC,165812.250,A,4308.3043,N,07726.2664,W,0.06,18.60,050721,,,A*43
$GPGGA,165812.500,4308.3042,N,07726.2664,W,1,04,2.53,157.9,M,-34.4,M,,*5E
$GPRMC,165812.750,A,4308.3042,N,07726.2663,W,0.06,110.82,050721,,,A*75
$GPGGA,165813.000,4308.3042,N,07726.2663,W,1,04,2.53,157.4,M,-34.4,M,,*50
$GPRMC,165813.250,A,4308.3043,N,07726.2663,W,0.07,356.74,050721,,,A*78
$GPGGA,165813.500,4308.3044,N,07726.2663,W,1,04,2.66,157.0,M,-34.4,M,,*51
$GPRMC,165813.750,A,4308.3044,N,07726.2663,W,0.16,4.95,050721,,,A*71
$GPGGA,165814.000,4308.3044,N,07726.2662,W,1,04,2.65,156.7,M,-34.4,M,,*57
$GPRMC,165814.250,A,4308.3043,N,07726.2662,W,0.14,18.57,050721,,,A*44
$GPGGA,165814.500,4308.3043,N,07726.2662,W,1,04,2.53,156.4,M,-34.4,M,,*53
$GPRMC,165814.750,A,4308.3043,N,07726.2662,W,0.06,38.43,050721,,,A*45
$GPGGA,165815.000,4308.3043,N,07726.2662,W,1,04,2.53,156.2,M,-34.4,M,,*51
$GPRMC,165815.250,A,4308.3042,N,07726.2661,W,0.06,133.86,050721,,,A*70
$GPGGA,165815.500,4308.3042,N,07726.2662,W,1,04,2.53,156.0,M,-34.4,M,,*57
$GPRMC,165815.750,A,4308.3041,N,07726.2662,W,0.12,212.05,050721,,,A*7B
$GPGGA,165816.000,4308.3042,N,07726.2661,W,1,04,2.53,155.9,M,-34.4,M,,*58
$GPRMC,165816.250,A,4308.3042,N,07726.2661,W,0.04,127.57,050721,,,A*78
$GPGGA,165816.500,4308.3042,N,07726.2661,W,1,04,2.53,155.8,M,-34.4,M,,*5C
$GPRMC,165816.750,A,4308.3042,N,07726.2661,W,0.10,222.96,050721,,,A*73
$GPGGA,165817.000,4308.3041,N,07726.2660,W,1,04,2.53,155.8,M,-34.4,M,,*5A
$GPRMC,165817.250,A,4308.3042,N,07726.2660,W,0.14,226.43,050721,,,A*7E
$GPGGA,165817.500,4308.3042,N,07726.2660,W,1,04,2.53,155.7,M,-34.4,M,,*53
$GPRMC,165817.750,A,4308.3042,N,07726.2660,W,0.12,230.69,050721,,,A*72
$GPGGA,165818.000,4308.3042,N,07726.2660,W,1,04,2.53,155.7,M,-34.4,M,,*59
$GPRMC,165818.250,A,4308.3042,N,07726.2659,W,0.11,208.81,050721,,,A*7C
$GPGGA,165818.500,4308.3042,N,07726.2659,W,1,04,2.54,155.7,M,-34.4,M,,*51
$GPRMC,165818.750,A,4308.3042,N,07726.2658,W,0.07,134.10,050721,,,A*7B
$GPGGA,165819.000,4308.3043,N,07726.2657,W,1,04,2.54,155.7,M,-34.4,M,,*5A
$GPRMC,165819.250,A,4308.3043,N,07726.2657,W,0.14,101.00,050721,,,A*74
$GPGGA,165819.500,4308.3043,N,07726.2656,W,1,04,2.54,155.6,M,-34.4,M,,*5F
$GPRMC,165819.750,A,4308.3044,N,07726.2656,W,0.10,76.29,050721,,,A*49
$GPGGA,165820.000,4308.3043,N,07726.2656,W,1,04,2.54,155.6,M,-34.4,M,,*50
$GPRMC,165820.250,A,4308.3044,N,07726.2656,W,0.04,77.50,050721,,,A*4C
$GPGGA,165820.500,4308.3045,N,07726.2655,W,1,04,2.54,155.6,M,-34.4,M,,*50
$GPRMC,165820.750,A,4308.3046,N,07726.2655,W,0.23,37.08,050721,,,A*44
$GPGGA,165821.000,4308.3045,N,07726.2654,W,1,04,2.54,155.6,M,-34.4,M,,*55
$GPRMC,165821.250,A,4308.3045,N,07726.2654,W,0.18,50.76,050721,,,A*42
$GPGGA,165821.500,4308.3045,N,07726.2654,W,1,04,2.54,155.6,M,-34.4,M,,*50
$GPRMC,165821.750,A,4308.3045,N,07726.2654,W,0.12,48.52,050721,,,A*42
$GPGGA,165822.000,4308.3046,N,07726.2654,W,1,04,2.54,155.6,M,-34.4,M,,*55
$GPRMC,165822.250,A,4308.3046,N,07726.2654,W,0.10,21.51,050721,,,A*49
$GPGGA,165822.500,4308.3046,N,07726.2653,W,1,04,2.54,155.6,M,-34.4,M,,*57
$GPRMC,165822.750,A,4308.3046,N,07726.2653,W,0.14,29.93,050721,,,A*49
$GPGGA,165823.000,4308.3047,N,07726.2653,W,1,04,2.54,155.7,M,-34.4,M,,*53
$GPRMC,165823.250,A,4308.3048,N,07726.2654,W,0.33,336.67,050721,,,A*77
$GPGGA,165823.500,4308.3049,N,07726.2654,W,1,04,2.54,155.7,M,-34.4,M,,*5F
$GPRMC,165823.750,A,4308.3049,N,07726.2654,W,0.40,333.54,050721,,,A*72
$GPGGA,165824.000,4308.3049,N,07726.2654,W,1,04,2.54,155.7,M,-34.4,M,,*5D
$GPRMC,165824.250,A,4308.3049,N,07726.2654,W,0.31,351.14,050721,,,A*76
$GPGGA,165824.500,4308.3050,N,07726.2654,W,1,04,2.66,155.7,M,-34.4,M,,*51
$GPRMC,165824.750,A,4308.3050,N,07726.2654,W,0.26,23.05,050721,,,A*4B
$GPGGA,165825.000,4308.3050,N,07726.2654,W,1,04,2.54,155.7,M,-34.4,M,,*54
$GPRMC,165825.250,A,4308.3050,N,07726.2654,W,0.12,324.38,050721,,,A*72
$GPGGA,165825.500,4308.3050,N,07726.2654,W,1,04,2.54,155.7,M,-34.4,M,,*51
$GPRMC,165825.750,A,4308.3050,N,07726.2654,W,0.16,313.73,050721,,,A*78
$GPGGA,165826.000,4308.3050,N,07726.2655,W,1,04,2.54,155.7,M,-34.4,M,,*56
$GPRMC,165826.250,A,4308.3050,N,07726.2655,W,0.16,336.78,050721,,,A*73
$GPGGA,165826.500,4308.3050,N,07726.2655,W,1,04,2.54,155.7,M,-34.4,M,,*53
$GPRMC,165826.750,A,4308.3051,N,07726.2655,W,0.20,352.98,050721,,,A*7E
$GPGGA,165827.000,4308.3051,N,07726.2655,W,1,04,2.66,155.7,M,-34.4,M,,*57
$GPRMC,165827.250,A,4308.3051,N,07726.2655,W,0.23,344.53,050721,,,A*79
$GPGGA,165827.500,4308.3051,N,07726.2655,W,1,04,2.54,155.7,M,-34.4,M,,*53
$GPRMC,165827.750,A,4308.3051,N,07726.2655,W,0.25,345.96,050721,,,A*72
$GPGGA,165828.000,4308.3051,N,07726.2655,W,1,04,2.66,155.7,M,-34.4,M,,*58
$GPRMC,165828.250,A,4308.3052,N,07726.2655,W,0.23,336.33,050721,,,A*76
$GPGGA,165828.500,4308.3052,N,07726.2655,W,1,04,2.54,155.7,M,-34.4,M,,*5F
$GPRMC,165828.750,A,4308.3052,N,07726.2655,W,0.22,346.77,050721,,,A*75
$GPGGA,165829.000,4308.3052,N,07726.2655,W,1,04,2.66,155.7,M,-34.4,M,,*5A
$GPRMC,165829.250,A,4308.3052,N,07726.2655,W,0.16,327.51,050721,,,A*75
$GPGGA,165829.500,4308.3052,N,07726.2655,W,1,04,2.54,155.7,M,-34.4,M,,*5E
$GPRMC,165829.750,A,4308.3052,N,07726.2655,W,0.11,303.22,050721,,,A*75
$GPGGA,165830.000,4308.3052,N,07726.2656,W,1,04,2.54,155.7,M,-34.4,M,,*50
$GPRMC,165830.250,A,4308.3052,N,07726.2656,W,0.05,233.09,050721,,,A*75
$GPGGA,165830.500,4308.3052,N,07726.2656,W,1,04,2.54,155.7,M,-34.4,M,,*55
$GPRMC,165830.750,A,4308.3052,N,07726.2656,W,0.06,12.58,050721,,,A*46
$GPGGA,165831.000,4308.3052,N,07726.2656,W,1,04,2.66,155.7,M,-34.4,M,,*50
$GPRMC,165831.250,A,4308.3052,N,07726.2656,W,0.16,301.79,050721,,,A*71
$GPGGA,165831.500,4308.3052,N,07726.2656,W,1,04,2.54,155.7,M,-34.4,M,,*54
$GPRMC,165831.750,A,4308.3052,N,07726.2656,W,0.10,284.76,050721,,,A*71
$GPGGA,165832.000,4308.3052,N,07726.2656,W,1,04,2.54,155.7,M,-34.4,M,,*52
$GPRMC,165832.250,A,4308.3052,N,07726.2656,W,0.12,263.23,050721,,,A*7C
$GPGGA,165832.500,4308.3052,N,07726.2656,W,1,04,2.55,155.7,M,-34.4,M,,*56
$GPRMC,165832.750,A,4308.3052,N,07726.2656,W,0.14,251.56,050721,,,A*7C
$GPGGA,165833.000,4308.3052,N,07726.2657,W,1,04,2.55,155.7,M,-34.4,M,,*53
$GPRMC,165833.250,A,4308.3052,N,07726.2657,W,0.13,183.14,050721,,,A*74
$GPGGA,165833.500,4308.3052,N,07726.2657,W,1,04,2.55,155.7,M,-34.4,M,,*56
$GPRMC,165833.750,A,4308.3052,N,07726.2657,W,0.15,165.47,050721,,,A*79
$GPGGA,165834.000,4308.3052,N,07726.2657,W,1,04,2.55,155.7,M,-34.4,M,,*54
$GPRMC,165834.250,A,4308.3052,N,07726.2657,W,0.17,188.11,050721,,,A*79
$GPGGA,165834.500,4308.3052,N,07726.2657,W,1,04,2.55,155.7,M,-34.4,M,,*51
$GPRMC,165834.750,A,4308.3052,N,07726.2657,W,0.18,175.41,050721,,,A*74
$GPGGA,165835.000,4308.3051,N,07726.2657,W,1,04,2.55,155.7,M,-34.4,M,,*56
$GPRMC,165835.250,A,4308.3051,N,07726.2656,W,0.25,162.72,050721,,,A*7A
$GPGGA,165835.500,4308.3051,N,07726.2656,W,1,04,2.55,155.7,M,-34.4,M,,*52
$GPRMC,165835.750,A,4308.3051,N,07726.2656,W,0.27,157.82,050721,,,A*74
$GPGGA,165836.000,4308.3051,N,07726.2656,W,1,04,2.55,155.7,M,-34.4,M,,*54
$GPRMC,165836.250,A,4308.3051,N,07726.2656,W,0.21,166.11,050721,,,A*7C
$GPGGA,165836.500,4308.3050,N,07726.2656,W,1,04,2.55,155.6,M,-34.4,M,,*51
$GPRMC,165836.750,A,4308.3050,N,07726.2656,W,0.19,185.75,050721,,,A*7C
$GPGGA,165837.000,4308.3050,N,07726.2656,W,1,04,2.55,155.6,M,-34.4,M,,*55
$GPRMC,165837.250,A,4308.3050,N,07726.2656,W,0.11,208.03,050721,,,A*77
$GPGGA,165837.500,4308.3050,N,07726.2656,W,1,04,2.55,155.6,M,-34.4,M,,*50
$GPRMC,165837.750,A,4308.3050,N,07726.2656,W,0.03,211.99,050721,,,A*7A
$GPGGA,165838.000,4308.3050,N,07726.2656,W,1,04,2.55,155.6,M,-34.4,M,,*5A
$GPRMC,165836.250,A,4308.3049,N,07726.2656,W,0.09,220.52,050721,,,A*79
$GPGGA,165836.500,4308.3049,N,07726.2657,W,1,04,2.55,155.4,M,-34.4,M,,*5A
$GPRMC,165836.750,A,4308.3049,N,07726.2657,W,0.09,261.46,050721,,,A*7D
$GPGGA,165837.000,4308.3050,N,07726.2657,W,1,04,2.55,155.2,M,-34.4,M,,*50
$GPRMC,165837.250,A,4308.3049,N,07726.2657,W,0.15,261.40,050721,,,A*72
$GPGGA,165837.500,4308.3048,N,07726.2657,W,1,04,2.55,155.1,M,-34.4,M,,*5F
$GPRMC,165837.750,A,4308.3048,N,07726.2657,W,0.14,246.45,050721,,,A*77
$GPGGA,165838.000,4308.3048,N,07726.2658,W,1,04,2.55,155.0,M,-34.4,M,,*5B
$GPRMC,165838.250,A,4308.3049,N,07726.2658,W,0.16,280.26,050721,,,A*7E
$GPGGA,165838.500,4308.3049,N,07726.2657,W,1,04,2.55,154.9,M,-34.4,M,,*58
$GPRMC,165838.750,A,4308.3049,N,07726.2657,W,0.14,321.30,050721,,,A*7B
$GPGGA,165839.000,4308.3049,N,07726.2658,W,1,04,2.55,154.8,M,-34.4,M,,*52
$GPRMC,165839.250,A,4308.3049,N,07726.2658,W,0.17,297.58,050721,,,A*71
$GPGGA,165839.500,4308.3049,N,07726.2658,W,1,04,2.55,154.8,M,-34.4,M,,*57
$GPRMC,165839.750,A,4308.3049,N,07726.2658,W,0.15,281.09,050721,,,A*75
$GPGGA,165840.000,4308.3049,N,07726.2658,W,1,04,2.55,154.7,M,-34.4,M,,*53
$GPRMC,165840.250,A,4308.3050,N,07726.2657,W,0.09,328.53,050721,,,A*79
$GPGGA,165840.500,4308.3050,N,07726.2657,W,1,04,2.55,154.7,M,-34.4,M,,*51
$GPRMC,165840.750,A,4308.3051,N,07726.2657,W,0.14,357.92,050721,,,A*74
$GPGGA,165841.000,4308.3051,N,07726.2657,W,1,04,2.67,154.7,M,-34.4,M,,*55
$GPRMC,165841.250,A,4308.3051,N,07726.2657,W,0.12,342.01,050721,,,A*78
$GPGGA,165841.500,4308.3052,N,07726.2657,W,1,04,2.55,154.6,M,-34.4,M,,*53
$GPRMC,165841.750,A,4308.3052,N,07726.2657,W,0.18,323.08,050721,,,A*7A
$GPGGA,165842.000,4308.3052,N,07726.2657,W,1,04,2.55,154.6,M,-34.4,M,,*55
$GPRMC,165842.250,A,4308.3053,N,07726.2657,W,0.20,327.37,050721,,,A*7E
$GPGGA,165842.500,4308.3054,N,07726.2656,W,1,04,2.55,154.5,M,-34.4,M,,*54
$GPRMC,165842.750,A,4308.3054,N,07726.2655,W,0.14,12.74,050721,,,A*4B
$GPGGA,165843.000,4308.3054,N,07726.2655,W,1,04,2.67,154.5,M,-34.4,M,,*52
$GPRMC,165843.250,A,4308.3055,N,07726.2655,W,0.16,16.95,050721,,,A*47
$GPGGA,165843.500,4308.3055,N,07726.2654,W,1,04,2.55,154.4,M,-34.4,M,,*57
$GPRMC,165843.750,A,4308.3056,N,07726.2654,W,0.21,25.24,050721,,,A*4E
$GPGGA,165844.000,4308.3056,N,07726.2653,W,1,04,2.56,154.4,M,-34.4,M,,*52
$GPRMC,165844.250,A,4308.3056,N,07726.2653,W,0.17,24.97,050721,,,A*47
$GPGGA,165844.500,4308.3057,N,07726.2653,W,1,04,2.56,154.3,M,-34.4,M,,*51
$GPRMC,165844.750,A,4308.3057,N,07726.2653,W,0.21,358.01,050721,,,A*71
$GPGGA,165845.000,4308.3057,N,07726.2652,W,1,04,2.67,154.3,M,-34.4,M,,*56
$GPRMC,165845.250,A,4308.3057,N,07726.2652,W,0.15,11.83,050721,,,A*47
$GPGGA,165845.500,4308.3058,N,07726.2652,W,1,04,2.67,154.3,M,-34.4,M,,*5C
$GPRMC,165845.750,A,4308.3058,N,07726.2652,W,0.13,338.21,050721,,,A*7B
$GPGGA,165846.000,4308.3058,N,07726.2652,W,1,04,2.56,154.2,M,-34.4,M,,*59
$GPRMC,165846.250,A,4308.3058,N,07726.2652,W,0.13,325.40,050721,,,A*76
$GPGGA,165846.500,4308.3058,N,07726.2651,W,1,04,2.56,154.1,M,-34.4,M,,*5C
$GPRMC,165846.750,A,4308.3058,N,07726.2651,W,0.13,320.62,050721,,,A*75
$GPGGA,165847.000,4308.3059,N,07726.2651,W,1,04,2.56,154.1,M,-34.4,M,,*59
$GPRMC,165847.250,A,4308.3059,N,07726.2650,W,0.11,350.46,050721,,,A*72
$GPGGA,165847.500,4308.3059,N,07726.2650,W,1,04,2.67,154.0,M,-34.4,M,,*5E
$GPRMC,165847.750,A,4308.3059,N,07726.2649,W,0.10,30.31,050721,,,A*4B
$GPGGA,165848.000,4308.3059,N,07726.2649,W,1,04,2.56,153.9,M,-34.4,M,,*50
$GPRMC,165848.250,A,4308.3059,N,07726.2648,W,0.12,35.02,050721,,,A*47
$GPGGA,165848.500,4308.3059,N,07726.2648,W,1,04,2.56,153.8,M,-34.4,M,,*55
$GPRMC,165848.750,A,4308.3059,N,07726.2648,W,0.07,49.25,050721,,,A*48
$GPGGA,165849.000,4308.3059,N,07726.2648,W,1,04,2.56,153.7,M,-34.4,M,,*5E
$GPRMC,165849.250,A,4308.3060,N,07726.2647,W,0.13,29.75,050721,,,A*4F
$GPGGA,165849.500,4308.3060,N,07726.2647,W,1,04,2.56,153.6,M,-34.4,M,,*5F
$GPRMC,165849.750,A,4308.3060,N,07726.2647,W,0.22,49.04,050721,,,A*48
$GPGGA,165850.000,4308.3060,N,07726.2647,W,1,04,2.56,153.6,M,-34.4,M,,*52
$GPRMC,165850.250,A,4308.3060,N,07726.2647,W,0.27,52.52,050721,,,A*49
$GPGGA,165850.500,4308.3060,N,07726.2647,W,1,04,2.56,153.6,M,-34.4,M,,*57
$GPRMC,165850.750,A,4308.3060,N,07726.2646,W,0.19,74.23,050721,,,A*42
$GPGGA,165851.000,4308.3061,N,07726.2646,W,1,04,2.56,153.6,M,-34.4,M,,*53
$GPRMC,165851.250,A,4308.3061,N,07726.2646,W,0.09,108.18,050721,,,A*74
$GPGGA,165851.500,4308.3060,N,07726.2646,W,1,04,2.56,153.6,M,-34.4,M,,*57
$GPRMC,165851.750,A,4308.3061,N,07726.2646,W,0.09,35.99,050721,,,A*47
$GPGGA,165852.000,4308.3061,N,07726.2646,W,1,04,2.68,153.6,M,-34.4,M,,*5D
$GPRMC,165852.250,A,4308.3061,N,07726.2646,W,0.01,40.35,050721,,,A*4D
$GPGGA,165852.500,4308.3061,N,07726.2646,W,1,04,2.68,153.6,M,-34.4,M,,*58
$GPRMC,165852.750,A,4308.3061,N,07726.2646,W,0.02,172.89,050721,,,A*7C
$GPGGA,165853.000,4308.3061,N,07726.2646,W,1,04,2.68,153.6,M,-34.4,M,,*5C
$GPRMC,165853.250,A,4308.3061,N,07726.2646,W,0.01,272.76,050721,,,A*78
$GPGGA,165853.500,4308.3061,N,07726.2646,W,1,04,2.68,153.6,M,-34.4,M,,*59
$GPRMC,165853.750,A,4308.3061,N,07726.2646,W,0.01,206.54,050721,,,A*7E
$GPGGA,165854.000,4308.3061,N,07726.2646,W,1,04,2.68,153.6,M,-34.4,M,,*5B
$GPRMC,165854.250,A,4308.3061,N,07726.2646,W,0.01,69.83,050721,,,A*4D
$GPGGA,165854.500,4308.3061,N,07726.2646,W,1,04,2.68,153.6,M,-34.4,M,,*5E
$GPRMC,165854.750,A,4308.3061,N,07726.2646,W,0.01,235.06,050721,,,A*7E
$GPGGA,165855.000,4308.3061,N,07726.2646,W,1,04,2.68,153.6,M,-34.4,M,,*5A
$GPRMC,165855.250,A,4308.3061,N,07726.2646,W,0.02,110.07,050721,,,A*7C
$GPGGA,165855.500,4308.3061,N,07726.2646,W,1,04,2.68,153.6,M,-34.4,M,,*5F
$GPRMC,165855.750,A,4308.3061,N,07726.2646,W,0.02,220.99,050721,,,A*7E
$GPGGA,165856.000,4308.3061,N,07726.2646,W,1,04,2.68,153.6,M,-34.4,M,,*59
$GPRMC,165856.250,A,4308.3061,N,07726.2646,W,0.02,25.53,050721,,,A*49
$GPGGA,165856.500,4308.3061,N,07726.2646,W,1,04,2.68,153.6,M,-34.4,M,,*5C
$GPRMC,165856.750,A,4308.3061,N,07726.2646,W,0.01,77.97,050721,,,A*40
$GPGGA,165857.000,4308.3061,N,07726.2646,W,1,04,2.68,153.6,M,-34.4,M,,*58
$GPRMC,165857.250,A,4308.3061,N,07726.2646,W,0.03,67.36,050721,,,A*4C
$GPGGA,165857.500,4308.3061,N,07726.2646,W,1,04,2.68,153.6,M,-34.4,M,,*5D
$GPRMC,165857.750,A,4308.3061,N,07726.2646,W,0.02,22.88,050721,,,A*4C
$GPGGA,165858.000,4308.3061,N,07726.2646,W,1,04,2.68,153.6,M,-34.4,M,,*57
$GPRMC,165858.250,A,4308.3061,N,07726.2646,W,0.03,352.22,050721,,,A*73
$GPGGA,165858.500,4308.3061,N,07726.2646,W,1,04,2.68,153.6,M,-34.4,M,,*52
$GPRMC,165858.750,A,4308.3061,N,07726.2646,W,0.01,354.70,050721,,,A*75
$GPGGA,165859.000,4308.3061,N,07726.2646,W,1,04,2.68,153.6,M,-34.4,M,,*56
$GPRMC,165859.250,A,4308.3061,N,07726.2646,W,0.02,4.96,050721,,,A*7C
$GPGGA,165859.500,4308.3061,N,07726.2646,W,1,04,2.68,153.6,M,-34.4,M,,*53
$GPRMC,165859.750,A,4308.3061,N,07726.2646,W,0.02,170.45,050721,,,A*75
$GPGGA,165900.000,4308.3061,N,07726.2646,W,1,04,2.68,153.6,M,-34.4,M,,*5B
$GPRMC,165900.250,A,4308.3061,N,07726.2646,W,0.00,195.00,050721,,,A*75
$GPGGA,165900.500,4308.3061,N,07726.2646,W,1,04,2.68,153.6,M,-34.4,M,,*5E
$GPRMC,165900.750,A,4308.3061,N,07726.2646,W,0.01,53.48,050721,,,A*46
$GPGGA,165901.000,4308.3061,N,07726.2646,W,1,04,2.68,153.6,M,-34.4,M,,*5A
$GPRMC,165901.250,A,4308.3061,N,07726.2646,W,0.01,156.96,050721,,,A*75
$GPGGA,165901.500,4308.3061,N,07726.2646,W,1,04,2.68,153.6,M,-34.4,M,,*5F
$GPRMC,165901.750,A,4308.3061,N,07726.2646,W,0.01,113.16,050721,,,A*79
$GPGGA,165902.000,4308.3061,N,07726.2646,W,1,04,2.68,153.6,M,-34.4,M,,*59
$GPRMC,165902.250,A,4308.3061,N,07726.2646,W,0.03,302.40,050721,,,A*7C
$GPGGA,165902.500,4308.3061,N,07726.2646,W,1,04,2.68,153.6,M,-34.4,M,,*5C
$GPRMC,165902.750,A,4308.3061,N,07726.2646,W,0.01,271.14,050721,,,A*7F
$GPGGA,165903.000,4308.3061,N,07726.2646,W,1,04,2.68,153.6,M,-34.4,M,,*58
$GPRMC,165903.250,A,4308.3061,N,07726.2646,W,0.01,4.51,050721,,,A*7A
$GPGGA,165903.500,4308.3061,N,07726.2646,W,1,04,2.68,153.6,M,-34.4,M,,*5D
$GPRMC,165903.750,A,4308.3061,N,07726.2646,W,0.01,357.44,050721,,,A*7E
$GPGGA,165904.000,4308.3061,N,07726.2646,W,1,04,2.68,153.6,M,-34.4,M,,*5F
$GPRMC,165904.250,A,4308.3061,N,07726.2646,W,0.01,217.38,050721,,,A*72
$GPGGA,165904.500,4308.3061,N,07726.2646,W,1,04,2.68,153.6,M,-34.4,M,,*5A
$GPRMC,165904.750,A,4308.3061,N,07726.2646,W,0.01,158.88,050721,,,A*74
$GPGGA,165905.000,4308.3061,N,07726.2646,W,1,04,2.68,153.6,M,-34.4,M,,*5E
$GPRMC,165905.250,A,4308.3061,N,07726.2646,W,0.01,251.35,050721,,,A*7C
$GPGGA,165905.500,4308.3061,N,07726.2646,W,1,04,2.68,153.6,M,-34.4,M,,*5B
$GPRMC,165905.750,A,4308.3061,N,07726.2646,W,0.01,50.89,050721,,,A*4D
$GPGGA,165906.000,4308.3061,N,07726.2646,W,1,04,2.68,153.6,M,-34.4,M,,*5D
$GPRMC,165906.250,A,4308.3061,N,07726.2646,W,0.01,270.98,050721,,,A*7B
$GPGGA,165906.500,4308.3061,N,07726.2646,W,1,04,2.68,153.6,M,-34.4,M,,*58
$GPRMC,165906.750,A,4308.3061,N,07726.2646,W,0.01,307.41,050721,,,A*7B
$GPGGA,165907.000,4308.3061,N,07726.2646,W,1,04,2.69,153.6,M,-34.4,M,,*5D
$GPRMC,165907.250,A,4308.3061,N,07726.2646,W,0.01,341.07,050721,,,A*7F
$GPGGA,165907.500,4308.3061,N,07726.2646,W,1,04,2.69,153.6,M,-34.4,M,,*58
$GPRMC,165907.750,A,4308.3061,N,07726.2646,W,0.01,268.60,050721,,,A*71
$GPGGA,165908.000,4308.3061,N,07726.2646,W,1,04,2.68,153.6,M,-34.4,M,,*53
$GPRMC,165908.250,A,4308.3061,N,07726.2646,W,0.01,259.29,050721,,,A*74
$GPGGA,165908.500,4308.3061,N,07726.2646,W,1,04,2.69,153.6,M,-34.4,M,,*57
$GPRMC,165908.750,A,4308.3061,N,07726.2646,W,0.01,67.74,050721,,,A*46
$GPGGA,165909.000,4308.3061,N,07726.2646,W,1,04,2.69,153.6,M,-34.4,M,,*53
$GPRMC,165909.250,A,4308.3061,N,07726.2646,W,0.01,68.08,050721,,,A*46
$GPGGA,165909.500,4308.3061,N,07726.2646,W,1,04,2.69,153.6,M,-34.4,M,,*56
$GPRMC,165909.750,A,4308.3061,N,07726.2646,W,0.01,27.74,050721,,,A*43
$GPGGA,165910.000,4308.3061,N,07726.2646,W,1,04,2.69,153.6,M,-34.4,M,,*5B
$GPRMC,165910.250,A,4308.3061,N,07726.2646,W,0.01,23.33,050721,,,A*49
$GPGGA,165910.500,4308.3061,N,07726.2646,W,1,04,2.69,153.6,M,-34.4,M,,*5E
$GPRMC,165910.750,A,4308.3061,N,07726.2646,W,0.02,346.59,050721,,,A*73
$GPGGA,165911.000,4308.3061,N,07726.2646,W,1,04,2.69,153.6,M,-34.4,M,,*5A
$GPRMC,165911.250,A,4308.3061,N,07726.2646,W,0.02,357.42,050721,,,A*7D
$GPGGA,165911.500,4308.3061,N,07726.2646,W,1,04,2.69,153.6,M,-34.4,M,,*5F
$GPRMC,165911.750,A,4308.3061,N,07726.2646,W,0.02,350.03,050721,,,A*7A
$GPGGA,165912.000,4308.3061,N,07726.2646,W,1,04,2.69,153.6,M,-34.4,M,,*59
$GPRMC,165912.250,A,4308.3061,N,07726.2646,W,0.01,329.93,050721,,,A*78
$GPGGA,165912.500,4308.3061,N,07726.2646,W,1,04,2.69,153.6,M,-34.4,M,,*5C
$GPRMC,165912.750,A,4308.3061,N,07726.2646,W,0.01,0.60,050721,,,A*79
$GPGGA,165913.000,4308.3061,N,07726.2646,W,1,04,2.69,153.6,M,-34.4,M,,*58
$GPRMC,165913.250,A,4308.3061,N,07726.2646,W,0.02,359.32,050721,,,A*76
$GPGGA,165913.500,4308.3061,N,07726.2646,W,1,04,2.69,153.6,M,-34.4,M,,*5D
$GPRMC,165913.750,A,4308.3061,N,07726.2646,W,0.03,1.10,050721,,,A*7C
$GPGGA,165914.000,4308.3061,N,07726.2646,W,1,04,2.69,153.6,M,-34.4,M,,*5F
$GPRMC,165914.250,A,4308.3061,N,07726.2646,W,0.07,351.40,050721,,,A*79
$GPGGA,165914.500,4308.3061,N,07726.2646,W,1,04,2.69,153.6,M,-34.4,M,,*5A
$GPRMC,165914.750,A,4308.3061,N,07726.2646,W,0.05,345.62,050721,,,A*7B
$GPGGA,165915.000,4308.3061,N,07726.2646,W,1,04,2.69,153.6,M,-34.4,M,,*5E
$GPRMC,165915.250,A,4308.3061,N,07726.2646,W,0.11,349.83,050721,,,A*79
$GPGGA,165915.500,4308.3061,N,07726.2646,W,1,04,2.69,153.6,M,-34.4,M,,*5B
$GPRMC,165915.750,A,4308.3061,N,07726.2646,W,0.05,340.13,050721,,,A*79
$GPGGA,165916.000,4308.3061,N,07726.2646,W,1,04,2.69,153.6,M,-34.4,M,,*5D
$GPRMC,165916.250,A,4308.3062,N,07726.2646,W,0.11,349.00,050721,,,A*72
$GPGGA,165916.500,4308.3062,N,07726.2646,W,1,04,2.69,153.6,M,-34.4,M,,*5B
$GPRMC,165916.750,A,4308.3062,N,07726.2646,W,0.12,353.37,050721,,,A*7B
$GPGGA,165917.000,4308.3062,N,07726.2646,W,1,04,2.69,153.6,M,-34.4,M,,*5F
$GPRMC,165917.250,A,4308.3062,N,07726.2646,W,0.04,339.56,050721,,,A*73
$GPGGA,165917.500,4308.3062,N,07726.2646,W,1,04,2.69,153.6,M,-34.4,M,,*5A
$GPRMC,165917.750,A,4308.3062,N,07726.2646,W,0.10,17.33,050721,,,A*4F
$GPGGA,165918.000,4308.3062,N,07726.2646,W,1,04,2.58,153.6,M,-34.4,M,,*52
$GPRMC,165918.250,A,4308.3062,N,07726.2646,W,0.81,35.03,050721,,,A*4E
$GPGGA,165918.500,4308.3064,N,07726.2645,W,1,04,2.58,153.6,M,-34.4,M,,*52
$GPRMC,165918.750,A,4308.3066,N,07726.2645,W,1.20,17.01,050721,,,A*44
$GPGGA,165919.000,4308.3068,N,07726.2645,W,1,04,2.58,153.6,M,-34.4,M,,*5A
$GPRMC,165919.250,A,4308.3070,N,07726.2644,W,1.44,19.09,050721,,,A*42
$GPGGA,165919.500,4308.3072,N,07726.2643,W,1,04,2.58,153.6,M,-34.4,M,,*52
$GPRMC,165919.750,A,4308.3074,N,07726.2642,W,1.56,21.80,050721,,,A*4C
$GPGGA,165920.000,4308.3075,N,07726.2641,W,1,04,2.58,153.5,M,-34.4,M,,*5B
$GPRMC,165920.250,A,4308.3076,N,07726.2640,W,1.56,27.30,050721,,,A*4E
$GPGGA,165920.500,4308.3078,N,07726.2639,W,1,04,2.58,153.5,M,-34.4,M,,*5C
$GPRMC,165920.750,A,4308.3079,N,07726.2639,W,1.57,29.20,050721,,,A*44
$GPGGA,165921.000,4308.3081,N,07726.2638,W,1,04,2.58,153.5,M,-34.4,M,,*5F
$GPRMC,165921.250,A,4308.3082,N,07726.2637,W,1.67,32.49,050721,,,A*4C
$GPGGA,165921.500,4308.3084,N,07726.2636,W,1,04,2.58,153.5,M,-34.4,M,,*51
$GPRMC,165921.750,A,4308.3085,N,07726.2634,W,2.00,45.56,050721,,,A*41
$GPGGA,165922.000,4308.3087,N,07726.2632,W,1,04,2.58,153.5,M,-34.4,M,,*50
$GPRMC,165922.250,A,4308.3089,N,07726.2630,W,2.55,51.07,050721,,,A*4E
$GPGGA,165922.500,4308.3091,N,07726.2627,W,1,04,2.58,153.5,M,-34.4,M,,*56
$GPRMC,165922.750,A,4308.3092,N,07726.2624,W,3.24,61.19,050721,,,A*4F
$GPGGA,165923.000,4308.3093,N,07726.2621,W,1,04,2.58,153.5,M,-34.4,M,,*56
$GPRMC,165923.250,A,4308.3094,N,07726.2618,W,3.35,69.58,050721,,,A*4F
$GPGGA,165923.500,4308.3095,N,07726.2615,W,1,04,2.58,153.4,M,-34.4,M,,*53
$GPRMC,165923.750,A,4308.3096,N,07726.2612,W,3.40,70.69,050721,,,A*4A
$GPGGA,165924.000,4308.3096,N,07726.2608,W,1,04,2.58,153.2,M,-34.4,M,,*58
$GPRMC,165924.250,A,4308.3096,N,07726.2605,W,3.49,78.44,050721,,,A*40
$GPGGA,165924.500,4308.3097,N,07726.2602,W,1,04,2.58,153.1,M,-34.4,M,,*55
$GPRMC,165924.750,A,4308.3098,N,07726.2599,W,3.26,72.97,050721,,,A*40
$GPGGA,165925.000,4308.3100,N,07726.2598,W,1,04,2.59,153.0,M,-34.4,M,,*5E
$GPRMC,165925.250,A,4308.3100,N,07726.2597,W,2.29,59.70,050721,,,A*44
$GPGGA,165925.500,4308.3100,N,07726.2596,W,1,04,2.59,152.8,M,-34.4,M,,*5C
$GPRMC,165925.750,A,4308.3100,N,07726.2596,W,1.47,46.04,050721,,,A*46
$GPGGA,165926.000,4308.3100,N,07726.2597,W,1,04,2.58,152.7,M,-34.4,M,,*55
$GPRMC,165926.250,A,4308.3100,N,07726.2598,W,0.80,349.42,050721,,,A*7A
$GPGGA,165926.500,4308.3099,N,07726.2600,W,1,04,2.70,152.6,M,-34.4,M,,*57
$GPRMC,165926.750,A,4308.3099,N,07726.2601,W,0.71,314.71,050721,,,A*7B
$GPGGA,165927.000,4308.3100,N,07726.2603,W,1,04,2.59,152.5,M,-34.4,M,,*59
$GPRMC,165927.250,A,4308.3100,N,07726.2607,W,1.33,292.81,050721,,,A*7F
$GPGGA,165927.500,4308.3099,N,07726.2612,W,1,04,2.59,152.5,M,-34.4,M,,*5D
$GPRMC,165927.750,A,4308.3098,N,07726.2615,W,2.40,276.14,050721,,,A*78
$GPGGA,165928.000,4308.3098,N,07726.2619,W,1,04,2.59,152.4,M,-34.4,M,,*5C
$GPRMC,165928.250,A,4308.3099,N,07726.2623,W,3.66,277.68,050721,,,A*79
$GPGGA,165928.500,4308.3100,N,07726.2628,W,1,04,2.59,152.4,M,-34.4,M,,*5B
$GPRMC,165928.750,A,4308.3100,N,07726.2633,W,4.76,275.84,050721,,,A*7A
$GPGGA,165929.000,4308.3101,N,07726.2639,W,1,04,2.70,152.4,M,-34.4,M,,*55
$GPRMC,165929.250,A,4308.3102,N,07726.2644,W,5.84,277.24,050721,,,A*78
$GPGGA,165929.500,4308.3104,N,07726.2650,W,1,04,2.70,152.3,M,-34.4,M,,*5D
$GPRMC,165929.750,A,4308.3104,N,07726.2657,W,6.47,277.36,050721,,,A*76
$GPGGA,165930.000,4308.3105,N,07726.2664,W,1,04,2.70,152.3,M,-34.4,M,,*56
$GPRMC,165930.250,A,4308.3107,N,07726.2671,W,7.39,279.20,050721,,,A*7D
$GPGGA,165930.500,4308.3108,N,07726.2679,W,1,04,2.70,152.3,M,-34.4,M,,*52
$GPRMC,165930.750,A,4308.3109,N,07726.2687,W,7.97,278.48,050721,,,A*74
$GPGGA,165931.000,4308.3110,N,07726.2696,W,1,04,2.70,152.3,M,-34.4,M,,*5E
$GPRMC,165931.250,A,4308.3110,N,07726.2705,W,8.70,276.19,050721,,,A*7F
$GPGGA,165931.500,4308.3111,N,07726.2714,W,1,04,2.70,152.3,M,-34.4,M,,*51
$GPRMC,165931.750,A,4308.3111,N,07726.2723,W,9.21,274.83,050721,,,A*7B
$GPGGA,165932.000,4308.3111,N,07726.2733,W,1,04,2.70,152.2,M,-34.4,M,,*53
$GPRMC,165932.250,A,4308.3113,N,07726.2743,W,9.93,274.41,050721,,,A*7E
$GPGGA,165932.500,4308.3114,N,07726.2754,W,1,04,2.59,152.2,M,-34.4,M,,*59
$GPRMC,165932.750,A,4308.3115,N,07726.2765,W,10.54,275.44,050721,,,A*4E
$GPGGA,165933.000,4308.3117,N,07726.2777,W,1,04,2.59,152.1,M,-34.4,M,,*5C
$GPRMC,165933.250,A,4308.3119,N,07726.2789,W,11.29,277.11,050721,,,A*4D
$GPGGA,165933.500,4308.3122,N,07726.2801,W,1,04,2.59,152.1,M,-34.4,M,,*51
$GPRMC,165933.750,A,4308.3123,N,07726.2813,W,11.90,278.80,050721,,,A*48
$GPGGA,165934.000,4308.3126,N,07726.2826,W,1,04,2.59,152.0,M,-34.4,M,,*53
$GPRMC,165934.250,A,4308.3128,N,07726.2839,W,12.66,279.94,050721,,,A*47
$GPGGA,165934.500,4308.3132,N,07726.2852,W,1,04,2.59,152.0,M,-34.4,M,,*50
$GPRMC,165934.750,A,4308.3135,N,07726.2864,W,13.01,281.52,050721,,,A*4B
$GPGGA,165935.000,4308.3137,N,07726.2876,W,1,04,2.59,151.9,M,-34.4,M,,*5D
$GPRMC,165935.250,A,4308.3139,N,07726.2888,W,13.09,280.71,050721,,,A*49
$GPGGA,165935.500,4308.3141,N,07726.2900,W,1,04,2.59,151.8,M,-34.4,M,,*58
$GPRMC,165935.750,A,4308.3144,N,07726.2912,W,13.14,281.58,050721,,,A*42
$GPGGA,165936.000,4308.3147,N,07726.2925,W,1,04,2.59,151.7,M,-34.4,M,,*50
$GPRMC,165936.250,A,4308.3150,N,07726.2937,W,13.39,283.37,050721,,,A*42
$GPGGA,165936.500,4308.3154,N,07726.2948,W,1,04,2.59,151.6,M,-34.4,M,,*5D
$GPRMC,165936.750,A,4308.3158,N,07726.2960,W,13.35,285.09,050721,,,A*4A
$GPGGA,165937.000,4308.3161,N,07726.2972,W,1,04,2.59,151.6,M,-34.4,M,,*56
$GPRMC,165937.250,A,4308.3165,N,07726.2984,W,13.33,286.24,050721,,,A*40
$GPGGA,165937.500,4308.3169,N,07726.2996,W,1,04,2.59,151.6,M,-34.4,M,,*51
$GPRMC,165937.750,A,4308.3173,N,07726.3008,W,13.36,287.52,050721,,,A*4B
$GPGGA,165938.000,4308.3177,N,07726.3019,W,1,04,2.59,151.7,M,-34.4,M,,*5A
$GPRMC,165938.250,A,4308.3182,N,07726.3031,W,13.43,289.06,050721,,,A*48
$GPGGA,165938.500,4308.3188,N,07726.3043,W,1,04,2.59,151.7,M,-34.4,M,,*50
$GPRMC,165938.750,A,4308.3192,N,07726.3055,W,13.74,290.88,050721,,,A*44
$GPGGA,165939.000,4308.3199,N,07726.3066,W,1,04,2.60,151.8,M,-34.4,M,,*56
$GPRMC,165939.250,A,4308.3205,N,07726.3078,W,14.10,293.51,050721,,,A*40
$GPGGA,165939.500,4308.3211,N,07726.3091,W,1,04,2.59,151.8,M,-34.4,M,,*52
$GPRMC,165939.750,A,4308.3216,N,07726.3103,W,14.50,294.64,050721,,,A*4F
$GPGGA,165940.000,4308.3222,N,07726.3116,W,1,04,2.60,151.9,M,-34.4,M,,*5C
$GPRMC,165940.250,A,4308.3229,N,07726.3129,W,15.01,295.85,050721,,,A*4B
$GPGGA,165940.500,4308.3236,N,07726.3143,W,1,04,2.60,152.0,M,-34.4,M,,*56
$GPRMC,165940.750,A,4308.3242,N,07726.3156,W,15.33,296.76,050721,,,A*45
$GPGGA,165941.000,4308.3248,N,07726.3169,W,1,04,2.60,152.0,M,-34.4,M,,*53
$GPRMC,165941.250,A,4308.3254,N,07726.3182,W,15.61,297.37,050721,,,A*4C
$GPGGA,165941.500,4308.3260,N,07726.3196,W,1,04,2.60,152.1,M,-34.4,M,,*5D
$GPRMC,165941.750,A,4308.3265,N,07726.3210,W,15.90,297.53,050721,,,A*4F
$GPGGA,165942.000,4308.3271,N,07726.3224,W,1,04,2.60,152.1,M,-34.4,M,,*51
$GPRMC,165942.250,A,4308.3277,N,07726.3238,W,16.21,297.34,050721,,,A*48
$GPGGA,165942.500,4308.3283,N,07726.3252,W,1,04,2.60,152.1,M,-34.4,M,,*58
$GPRMC,165942.750,A,4308.3289,N,07726.3265,W,16.23,297.69,050721,,,A*4E
$GPGGA,165943.000,4308.3296,N,07726.3279,W,1,04,2.60,152.1,M,-34.4,M,,*51
$GPRMC,165943.250,A,4308.3303,N,07726.3293,W,16.37,298.29,050721,,,A*4E
$GPGGA,165943.500,4308.3310,N,07726.3307,W,1,04,2.60,152.0,M,-34.4,M,,*52
$GPRMC,165943.750,A,4308.3317,N,07726.3320,W,16.60,298.94,050721,,,A*43
$GPGGA,165944.000,4308.3324,N,07726.3335,W,1,04,2.60,151.9,M,-34.4,M,,*5C
$GPRMC,165944.250,A,4308.3331,N,07726.3348,W,16.83,299.68,050721,,,A*44
$GPGGA,165944.500,4308.3338,N,07726.3362,W,1,04,2.60,151.9,M,-34.4,M,,*56
$GPRMC,165944.750,A,4308.3345,N,07726.3376,W,16.95,300.20,050721,,,A*45
$GPGGA,165945.000,4308.3351,N,07726.3390,W,1,04,2.60,151.8,M,-34.4,M,,*51
$GPRMC,165945.250,A,4308.3358,N,07726.3404,W,17.07,300.48,050721,,,A*4B
$GPGGA,165945.500,4308.3365,N,07726.3418,W,1,04,2.60,151.6,M,-34.4,M,,*5A
$GPRMC,165945.750,A,4308.3371,N,07726.3432,W,17.20,300.88,050721,,,A*49
$GPGGA,165946.000,4308.3377,N,07726.3447,W,1,04,2.60,151.5,M,-34.4,M,,*56
$GPRMC,165946.250,A,4308.3383,N,07726.3461,W,17.26,300.70,050721,,,A*45
$GPGGA,165946.500,4308.3390,N,07726.3475,W,1,04,2.60,151.5,M,-34.4,M,,*5B
$GPRMC,165946.750,A,4308.3396,N,07726.3489,W,17.27,300.89,050721,,,A*45
$GPGGA,165947.000,4308.3403,N,07726.3502,W,1,04,2.60,151.4,M,-34.4,M,,*52
$GPRMC,165947.250,A,4308.3410,N,07726.3515,W,16.95,300.92,050721,,,A*4E
$GPGGA,165947.500,4308.3416,N,07726.3529,W,1,04,2.60,151.4,M,-34.4,M,,*5A
$GPRMC,165947.750,A,4308.3423,N,07726.3542,W,16.69,300.95,050721,,,A*4D
$GPGGA,165948.000,4308.3430,N,07726.3554,W,1,04,2.60,151.5,M,-34.4,M,,*5F
$GPRMC,165948.250,A,4308.3440,N,07726.3565,W,16.45,302.43,050721,,,A*40
$GPGGA,165948.500,4308.3452,N,07726.3576,W,1,04,2.60,151.5,M,-34.4,M,,*5E
$GPRMC,165948.750,A,4308.3461,N,07726.3588,W,16.53,304.65,050721,,,A*40
$GPGGA,165949.000,4308.3469,N,07726.3600,W,1,04,2.60,151.5,M,-34.4,M,,*50
$GPRMC,165949.250,A,4308.3481,N,07726.3610,W,16.54,307.19,050721,,,A*47
$GPGGA,165949.500,4308.3495,N,07726.3619,W,1,04,2.71,151.6,M,-34.4,M,,*5D
$GPRMC,165949.750,A,4308.3510,N,07726.3629,W,16.49,312.03,050721,,,A*42
$GPGGA,165950.000,4308.3522,N,07726.3639,W,1,04,2.60,151.8,M,-34.4,M,,*51
$GPRMC,165950.250,A,4308.3533,N,07726.3650,W,16.47,313.56,050721,,,A*4F
$GPGGA,165950.500,4308.3544,N,07726.3661,W,1,04,2.60,151.9,M,-34.4,M,,*58
$GPRMC,165950.750,A,4308.3555,N,07726.3673,W,16.45,315.12,050721,,,A*4F
$GPGGA,165951.000,4308.3565,N,07726.3685,W,1,04,2.60,152.0,M,-34.4,M,,*5F
$GPRMC,165951.250,A,4308.3575,N,07726.3696,W,15.76,317.31,050721,,,A*42
$GPGGA,165951.500,4308.3585,N,07726.3706,W,1,04,2.71,152.1,M,-34.4,M,,*5F
$GPRMC,165951.750,A,4308.3594,N,07726.3716,W,15.24,319.62,050721,,,A*4E
$GPGGA,165952.000,4308.3603,N,07726.3725,W,1,04,2.60,152.1,M,-34.4,M,,*55
$GPRMC,165952.250,A,4308.3613,N,07726.3733,W,14.57,323.60,050721,,,A*4D
$GPGGA,165952.500,4308.3626,N,07726.3740,W,1,04,2.61,152.2,M,-34.4,M,,*56
$GPRMC,165952.750,A,4308.3638,N,07726.3746,W,14.52,328.55,050721,,,A*4B
$GPGGA,165953.000,4308.3650,N,07726.3751,W,1,04,2.71,152.2,M,-34.4,M,,*52
$GPRMC,165953.250,A,4308.3664,N,07726.3755,W,14.49,334.65,050721,,,A*40
$GPGGA,165953.500,4308.3675,N,07726.3760,W,1,04,2.71,152.1,M,-34.4,M,,*51
$GPRMC,165953.750,A,4308.3685,N,07726.3765,W,14.47,336.40,050721,,,A*42
$GPGGA,165954.000,4308.3692,N,07726.3769,W,1,04,2.61,152.1,M,-34.4,M,,*52
$GPRMC,165954.250,A,4308.3701,N,07726.3772,W,13.44,341.14,050721,,,A*4E
$GPGGA,165954.500,4308.3711,N,07726.3774,W,1,04,2.61,151.9,M,-34.4,M,,*5A
$GPRMC,165954.750,A,4308.3722,N,07726.3776,W,13.20,345.02,050721,,,A*4F
$GPGGA,165955.000,4308.3740,N,07726.3775,W,1,04,2.71,151.8,M,-34.4,M,,*5B
$GPRMC,165955.250,A,4308.3750,N,07726.3776,W,13.79,349.61,050721,,,A*4B
$GPGGA,165955.500,4308.3761,N,07726.3777,W,1,04,2.71,151.7,M,-34.4,M,,*50
$GPRMC,165955.750,A,4308.3777,N,07726.3775,W,14.24,355.75,050721,,,A*4F
$GPGGA,165956.000,4308.3791,N,07726.3774,W,1,04,2.71,151.5,M,-34.4,M,,*58
$GPRMC,165956.250,A,4308.3808,N,07726.3772,W,15.34,359.56,050721,,,A*44
$GPGGA,165956.500,4308.3824,N,07726.3770,W,1,04,2.71,151.3,M,-34.4,M,,*5E
$GPRMC,165956.750,A,4308.3839,N,07726.3769,W,16.24,1.68,050721,,,A*48
$GPGGA,165957.000,4308.3856,N,07726.3766,W,1,04,2.71,151.1,M,-34.4,M,,*5A
$GPRMC,165957.250,A,4308.3872,N,07726.3764,W,17.56,4.31,050721,,,A*43
$GPGGA,165957.500,4308.3887,N,07726.3761,W,1,04,2.71,151.0,M,-34.4,M,,*55
$GPRMC,165957.750,A,4308.3900,N,07726.3759,W,18.02,6.11,050721,,,A*42
$GPGGA,165958.000,4308.3914,N,07726.3757,W,1,04,2.71,150.8,M,-34.4,M,,*58
$GPRMC,165958.250,A,4308.3928,N,07726.3754,W,18.29,7.72,050721,,,A*42
$GPGGA,165958.500,4308.3942,N,07726.3751,W,1,04,2.71,150.7,M,-34.4,M,,*57
$GPRMC,165958.750,A,4308.3956,N,07726.3748,W,18.38,8.84,050721,,,A*45
$GPGGA,165959.000,4308.3971,N,07726.3745,W,1,04,2.71,150.6,M,-34.4,M,,*57
$GPRMC,165959.250,A,4308.3985,N,07726.3741,W,18.60,9.46,050721,,,A*44
$GPGGA,165959.500,4308.3998,N,07726.3737,W,1,04,2.71,150.6,M,-34.4,M,,*50
$GPRMC,165959.750,A,4308.4012,N,07726.3734,W,18.66,10.74,050721,,,A*7C
$GPGGA,170000.000,4308.4026,N,07726.3730,W,1,04,2.71,150.5,M,-34.4,M,,*5B
$GPRMC,170000.250,A,4308.4040,N,07726.3726,W,18.91,11.39,050721,,,A*7C
$GPGGA,170000.500,4308.4054,N,07726.3722,W,1,04,2.71,150.4,M,-34.4,M,,*59
$GPRMC,170000.750,A,4308.4069,N,07726.3718,W,19.28,11.01,050721,,,A*77
$GPGGA,170001.000,4308.4084,N,07726.3714,W,1,04,2.71,150.2,M,-34.4,M,,*53
$GPRMC,170001.250,A,4308.4098,N,07726.3711,W,19.62,10.68,050721,,,A*74
$GPGGA,170001.500,4308.4113,N,07726.3707,W,1,04,2.72,150.0,M,-34.4,M,,*5A
$GPRMC,170001.750,A,4308.4128,N,07726.3704,W,19.88,10.07,050721,,,A*72
$GPGGA,170002.000,4308.4142,N,07726.3700,W,1,04,2.72,149.7,M,-34.4,M,,*50
$GPRMC,170002.250,A,4308.4156,N,07726.3697,W,19.97,9.65,050721,,,A*44
$GPGGA,170002.500,4308.4170,N,07726.3694,W,1,04,2.72,149.5,M,-34.4,M,,*5A
$GPRMC,170002.750,A,4308.4184,N,07726.3691,W,19.91,9.38,050721,,,A*46
$GPGGA,170003.000,4308.4198,N,07726.3687,W,1,04,2.72,149.3,M,-34.4,M,,*5C
$GPRMC,170003.250,A,4308.4211,N,07726.3684,W,19.84,8.93,050721,,,A*4D
$GPGGA,170003.500,4308.4225,N,07726.3681,W,1,04,2.71,149.1,M,-34.4,M,,*5B
$GPRMC,170003.750,A,4308.4238,N,07726.3678,W,19.61,8.53,050721,,,A*47
$GPGGA,170004.000,4308.4251,N,07726.3676,W,1,04,2.72,148.9,M,-34.4,M,,*58
$GPRMC,170004.250,A,4308.4264,N,07726.3673,W,19.24,8.21,050721,,,A*43
$GPGGA,170004.500,4308.4276,N,07726.3671,W,1,04,2.72,148.8,M,-34.4,M,,*5E
$GPRMC,170004.750,A,4308.4288,N,07726.3668,W,18.83,8.41,050721,,,A*44
$GPGGA,170005.000,4308.4300,N,07726.3666,W,1,04,2.72,148.7,M,-34.4,M,,*53
$GPRMC,170005.250,A,4308.4313,N,07726.3664,W,18.10,9.00,050721,,,A*41
$GPGGA,170005.500,4308.4325,N,07726.3662,W,1,04,2.72,148.7,M,-34.4,M,,*55
$GPRMC,170005.750,A,4308.4337,N,07726.3660,W,17.56,7.65,050721,,,A*46
$GPGGA,170006.000,4308.4348,N,07726.3659,W,1,04,2.72,148.7,M,-34.4,M,,*50
$GPRMC,170006.250,A,4308.4359,N,07726.3657,W,16.98,7.48,050721,,,A*40
$GPGGA,170006.500,4308.4370,N,07726.3655,W,1,04,2.72,148.8,M,-34.4,M,,*5D
$GPRMC,170006.750,A,4308.4382,N,07726.3653,W,16.57,8.28,050721,,,A*4D
$GPGGA,170007.000,4308.4393,N,07726.3651,W,1,04,2.72,148.7,M,-34.4,M,,*5F
$GPRMC,170007.250,A,4308.4404,N,07726.3648,W,16.00,9.26,050721,,,A*47
$GPGGA,170007.500,4308.4415,N,07726.3646,W,1,04,2.72,148.7,M,-34.4,M,,*55
$GPRMC,170007.750,A,4308.4425,N,07726.3643,W,15.69,9.56,050721,,,A*41
$GPGGA,170008.000,4308.4435,N,07726.3641,W,1,04,2.72,148.5,M,-34.4,M,,*58
$GPRMC,170008.250,A,4308.4446,N,07726.3639,W,15.08,9.88,050721,,,A*47
$GPGGA,170008.500,4308.4456,N,07726.3636,W,1,04,2.72,148.2,M,-34.4,M,,*5F
$GPRMC,170008.750,A,4308.4466,N,07726.3634,W,14.64,9.77,050721,,,A*46
$GPGGA,170009.000,4308.4475,N,07726.3631,W,1,04,2.72,148.0,M,-34.4,M,,*5F
$GPRMC,170009.250,A,4308.4484,N,07726.3629,W,14.08,10.21,050721,,,A*73
$GPGGA,170009.500,4308.4493,N,07726.3626,W,1,04,2.72,147.7,M,-34.4,M,,*5C
$GPRMC,170009.750,A,4308.4501,N,07726.3624,W,13.50,10.82,050721,,,A*74
$GPGGA,170010.000,4308.4508,N,07726.3622,W,1,04,2.72,147.5,M,-34.4,M,,*54
$GPRMC,170010.250,A,4308.4514,N,07726.3620,W,12.33,10.76,050721,,,A*76
$GPGGA,170010.500,4308.4519,N,07726.3619,W,1,04,2.72,147.1,M,-34.4,M,,*5D
$GPRMC,170010.750,A,4308.4524,N,07726.3617,W,11.02,10.37,050721,,,A*70
$GPGGA,170011.000,4308.4528,N,07726.3617,W,1,04,2.72,146.8,M,-34.4,M,,*5D
$GPRMC,170011.250,A,4308.4529,N,07726.3616,W,8.80,11.79,050721,,,A*41
$GPGGA,170011.500,4308.4529,N,07726.3616,W,1,04,2.72,146.6,M,-34.4,M,,*56
$GPRMC,170011.750,A,4308.4531,N,07726.3615,W,6.51,15.09,050721,,,A*4F
$GPGGA,170012.000,4308.4532,N,07726.3614,W,1,04,2.72,146.5,M,-34.4,M,,*5B
$GPRMC,170012.250,A,4308.4534,N,07726.3614,W,4.91,15.81,050721,,,A*43
$GPGGA,170012.500,4308.4536,N,07726.3614,W,1,04,2.72,146.2,M,-34.4,M,,*5D
$GPRMC,170012.750,A,4308.4539,N,07726.3613,W,4.39,9.74,050721,,,A*79
$GPGGA,170013.000,4308.4541,N,07726.3613,W,1,04,2.72,146.0,M,-34.4,M,,*5C
$GPRMC,170013.250,A,4308.4544,N,07726.3613,W,4.21,1.88,050721,,,A*75
$GPGGA,170013.500,4308.4547,N,07726.3613,W,1,04,2.72,145.9,M,-34.4,M,,*55
$GPRMC,170013.750,A,4308.4550,N,07726.3613,W,4.30,357.48,050721,,,A*79
$GPGGA,170014.000,4308.4554,N,07726.3614,W,1,04,2.72,145.8,M,-34.4,M,,*53
$GPRMC,170014.250,A,4308.4558,N,07726.3614,W,4.91,350.65,050721,,,A*77
$GPGGA,170014.500,4308.4562,N,07726.3616,W,1,04,2.72,145.7,M,-34.4,M,,*5E
$GPRMC,170014.750,A,4308.4566,N,07726.3617,W,5.37,343.53,050721,,,A*76
$GPGGA,170015.000,4308.4570,N,07726.3619,W,1,04,2.72,145.5,M,-34.4,M,,*54
$GPRMC,170015.250,A,4308.4574,N,07726.3621,W,5.90,339.29,050721,,,A*79
$GPGGA,170015.500,4308.4578,N,07726.3624,W,1,04,2.62,145.3,M,-34.4,M,,*50
$GPRMC,170015.750,A,4308.4582,N,07726.3627,W,6.20,335.42,050721,,,A*7A
$GPGGA,170016.000,4308.4586,N,07726.3629,W,1,04,2.62,145.1,M,-34.4,M,,*58
$GPRMC,170016.250,A,4308.4590,N,07726.3633,W,6.57,331.57,050721,,,A*7A
$GPGGA,170016.500,4308.4593,N,07726.3641,W,1,04,2.62,144.9,M,-34.4,M,,*5E
$GPRMC,170016.750,A,4308.4595,N,07726.3648,W,7.55,316.18,050721,,,A*7B
$GPGGA,170017.000,4308.4596,N,07726.3655,W,1,04,2.63,144.6,M,-34.4,M,,*54
$GPRMC,170017.250,A,4308.4598,N,07726.3663,W,8.22,307.22,050721,,,A*7D
$GPGGA,170017.500,4308.4602,N,07726.3671,W,1,04,2.62,144.3,M,-34.4,M,,*5D
$GPRMC,170017.750,A,4308.4604,N,07726.3683,W,9.88,298.85,050721,,,A*7B
$GPGGA,170018.000,4308.4606,N,07726.3695,W,1,04,2.72,144.4,M,-34.4,M,,*5F
$GPRMC,170018.250,A,4308.4604,N,07726.3709,W,12.08,286.16,050721,,,A*45
$GPGGA,170018.500,4308.4612,N,07726.3723,W,1,05,2.56,144.6,M,-34.4,M,,*56
$GPRMC,170018.750,A,4308.4617,N,07726.3735,W,13.62,281.73,050721,,,A*44
$GPGGA,170019.000,4308.4621,N,07726.3749,W,1,05,2.56,144.6,M,-34.4,M,,*5E
$GPRMC,170019.250,A,4308.4625,N,07726.3764,W,14.94,277.75,050721,,,A*44
$GPGGA,170019.500,4308.4629,N,07726.3779,W,1,05,2.56,144.6,M,-34.4,M,,*50
$GPRMC,170019.750,A,4308.4632,N,07726.3794,W,15.80,276.45,050721,,,A*4E
$GPGGA,170020.000,4308.4634,N,07726.3810,W,1,05,2.56,144.6,M,-34.4,M,,*53
$GPRMC,170020.250,A,4308.4637,N,07726.3826,W,16.59,274.96,050721,,,A*49
$GPGGA,170020.500,4308.4639,N,07726.3844,W,1,05,2.56,144.5,M,-34.4,M,,*59
$GPRMC,170020.750,A,4308.4640,N,07726.3860,W,16.88,274.17,050721,,,A*4B
$GPGGA,170021.000,4308.4640,N,07726.3877,W,1,05,2.56,144.5,M,-34.4,M,,*53
$GPRMC,170021.250,A,4308.4641,N,07726.3893,W,17.02,273.99,050721,,,A*40
$GPGGA,170021.500,4308.4640,N,07726.3910,W,1,05,2.56,144.4,M,-34.4,M,,*57
$GPRMC,170021.750,A,4308.4640,N,07726.3926,W,17.08,273.67,050721,,,A*40
$GPGGA,170022.000,4308.4641,N,07726.3943,W,1,05,2.57,144.3,M,-34.4,M,,*50
$GPRMC,170022.250,A,4308.4641,N,07726.3962,W,16.57,275.04,050721,,,A*4F
$GPGGA,170022.500,4308.4642,N,07726.3979,W,1,05,2.53,144.3,M,-34.4,M,,*5B
$GPRMC,170022.750,A,4308.4642,N,07726.3994,W,16.57,273.15,050721,,,A*46
$GPGGA,170023.000,4308.4641,N,07726.4007,W,1,05,2.57,144.9,M,-34.4,M,,*55
$GPRMC,170023.250,A,4308.4640,N,07726.4022,W,16.36,273.57,050721,,,A*42
$GPGGA,170023.500,4308.4641,N,07726.4036,W,1,05,2.57,145.2,M,-34.4,M,,*58
$GPRMC,170023.750,A,4308.4642,N,07726.4051,W,16.26,275.06,050721,,,A*42
$GPGGA,170024.000,4308.4644,N,07726.4066,W,1,05,2.57,145.2,M,-34.4,M,,*5A
$GPRMC,170024.250,A,4308.4646,N,07726.4081,W,16.30,275.53,050721,,,A*4E
$GPGGA,170024.500,4308.4648,N,07726.4097,W,1,05,2.57,145.2,M,-34.4,M,,*5D
$GPRMC,170024.750,A,4308.4649,N,07726.4112,W,16.10,276.53,050721,,,A*4E
$GPGGA,170025.000,4308.4648,N,07726.4130,W,1,05,2.57,145.3,M,-34.4,M,,*54
$GPRMC,170025.250,A,4308.4648,N,07726.4146,W,15.55,277.10,050721,,,A*4E
$GPGGA,170025.500,4308.4648,N,07726.4161,W,1,05,2.57,145.3,M,-34.4,M,,*55
$GPRMC,170025.750,A,4308.4649,N,07726.4175,W,14.72,276.91,050721,,,A*46
$GPGGA,170026.000,4308.4650,N,07726.4188,W,1,05,2.57,145.7,M,-34.4,M,,*59
$GPRMC,170026.250,A,4308.4651,N,07726.4201,W,13.78,276.96,050721,,,A*43
$GPGGA,170026.500,4308.4652,N,07726.4213,W,1,05,2.57,146.0,M,-34.4,M,,*5B
$GPRMC,170026.750,A,4308.4653,N,07726.4225,W,12.46,277.21,050721,,,A*43
$GPGGA,170027.000,4308.4653,N,07726.4235,W,1,05,2.57,146.2,M,-34.4,M,,*58
$GPRMC,170027.250,A,4308.4654,N,07726.4245,W,10.51,277.54,050721,,,A*40
$GPGGA,170027.500,4308.4655,N,07726.4253,W,1,05,2.57,146.5,M,-34.4,M,,*5C
$GPRMC,170027.750,A,4308.4657,N,07726.4260,W,8.81,278.45,050721,,,A*7A
$GPGGA,170028.000,4308.4659,N,07726.4267,W,1,05,2.57,146.5,M,-34.4,M,,*5D
$GPRMC,170028.250,A,4308.4660,N,07726.4272,W,6.90,279.73,050721,,,A*7D
$GPGGA,170028.500,4308.4660,N,07726.4277,W,1,05,2.57,146.4,M,-34.4,M,,*52
$GPRMC,170028.750,A,4308.4660,N,07726.4282,W,5.37,278.72,050721,,,A*79
$GPGGA,170029.000,4308.4659,N,07726.4285,W,1,05,2.57,146.4,M,-34.4,M,,*51
$GPRMC,170029.250,A,4308.4658,N,07726.4288,W,3.75,275.53,050721,,,A*72
$GPGGA,170029.500,4308.4656,N,07726.4290,W,1,05,2.54,146.6,M,-34.4,M,,*5E
$GPRMC,170029.750,A,4308.4655,N,07726.4292,W,2.12,275.53,050721,,,A*71
$GPGGA,170030.000,4308.4655,N,07726.4293,W,1,05,2.54,146.9,M,-34.4,M,,*5C
$GPRMC,170030.250,A,4308.4654,N,07726.4293,W,0.77,275.53,050721,,,A*7D
$GPGGA,170030.500,4308.4655,N,07726.4293,W,1,05,2.54,147.2,M,-34.4,M,,*53
$GPRMC,170030.750,A,4308.4655,N,07726.4292,W,0.21,275.53,050721,,,A*7B
$GPGGA,170031.000,4308.4656,N,07726.4292,W,1,05,2.54,147.4,M,-34.4,M,,*53
$GPRMC,170031.250,A,4308.4655,N,07726.4292,W,0.11,275.53,050721,,,A*7C
$GPGGA,170031.500,4308.4654,N,07726.4292,W,1,05,2.54,147.8,M,-34.4,M,,*58
$GPRMC,170031.750,A,4308.4654,N,07726.4292,W,0.19,275.53,050721,,,A*70
$GPGGA,170032.000,4308.4654,N,07726.4291,W,1,05,2.54,148.0,M,-34.4,M,,*5A
$GPRMC,170032.250,A,4308.4654,N,07726.4291,W,0.25,275.53,050721,,,A*7A
$GPGGA,170032.500,4308.4653,N,07726.4291,W,1,05,2.54,148.1,M,-34.4,M,,*59
$GPRMC,170032.750,A,4308.4653,N,07726.4291,W,0.31,275.53,050721,,,A*7D
$GPGGA,170033.000,4308.4654,N,07726.4291,W,1,05,2.54,148.3,M,-34.4,M,,*58
$GPRMC,170033.250,A,4308.4654,N,07726.4291,W,0.30,275.53,050721,,,A*7F
$GPGGA,170033.500,4308.4654,N,07726.4291,W,1,05,2.54,148.4,M,-34.4,M,,*5A
$GPRMC,170033.750,A,4308.4654,N,07726.4291,W,0.23,275.53,050721,,,A*78
$GPGGA,170034.000,4308.4654,N,07726.4291,W,1,05,2.54,148.4,M,-34.4,M,,*58
$GPRMC,170034.250,A,4308.4654,N,07726.4291,W,0.26,275.53,050721,,,A*7F
$GPGGA,170034.500,4308.4654,N,07726.4291,W,1,05,2.54,148.4,M,-34.4,M,,*5D
$GPRMC,170034.750,A,4308.4654,N,07726.4292,W,0.39,275.53,050721,,,A*77
$GPGGA,170035.000,4308.4654,N,07726.4292,W,1,05,2.54,148.4,M,-34.4,M,,*5A
$GPRMC,170035.250,A,4308.4654,N,07726.4292,W,0.55,275.53,050721,,,A*79
$GPGGA,170035.500,4308.4653,N,07726.4293,W,1,05,2.54,148.4,M,-34.4,M,,*59
$GPRMC,170035.750,A,4308.4653,N,07726.4293,W,0.71,275.53,050721,,,A*7C
$GPGGA,170036.000,4308.4653,N,07726.4294,W,1,05,2.54,148.4,M,-34.4,M,,*58
$GPRMC,170036.250,A,4308.4653,N,07726.4295,W,0.89,275.53,050721,,,A*7B
$GPGGA,170036.500,4308.4653,N,07726.4296,W,1,05,2.54,148.4,M,-34.4,M,,*5F
$GPRMC,170036.750,A,4308.4653,N,07726.4297,W,1.07,275.53,050721,,,A*7B
$GPGGA,170037.000,4308.4653,N,07726.4298,W,1,05,2.54,148.4,M,-34.4,M,,*55
$GPRMC,170037.250,A,4308.4653,N,07726.4299,W,1.28,275.53,050721,,,A*7C
$GPGGA,170037.500,4308.4653,N,07726.4300,W,1,05,2.54,148.4,M,-34.4,M,,*50
$GPRMC,170037.750,A,4308.4653,N,07726.4301,W,1.43,275.53,050721,,,A*74
$GPGGA,170038.000,4308.4653,N,07726.4303,W,1,05,2.54,148.3,M,-34.4,M,,*5E
$GPRMC,170038.250,A,4308.4653,N,07726.4304,W,1.51,275.53,050721,,,A*78
$GPGGA,170038.500,4308.4654,N,07726.4305,W,1,05,2.54,148.3,M,-34.4,M,,*5A
$GPRMC,170038.750,A,4308.4654,N,07726.4307,W,1.43,275.53,050721,,,A*7A
$GPGGA,170039.000,4308.4654,N,07726.4308,W,1,05,2.54,148.3,M,-34.4,M,,*53
$GPRMC,170039.250,A,4308.4654,N,07726.4309,W,1.17,275.53,050721,,,A*71
$GPGGA,170039.500,4308.4654,N,07726.4310,W,1,05,2.54,148.3,M,-34.4,M,,*5F
$GPRMC,170039.750,A,4308.4655,N,07726.4311,W,0.89,275.53,050721,,,A*7A
$GPGGA,170040.000,4308.4655,N,07726.4312,W,1,05,2.54,148.3,M,-34.4,M,,*57
$GPRMC,170040.250,A,4308.4655,N,07726.4313,W,0.61,275.53,050721,,,A*75
$GPGGA,170040.500,4308.4655,N,07726.4313,W,1,05,2.54,148.3,M,-34.4,M,,*53
$GPRMC,170040.750,A,4308.4655,N,07726.4314,W,0.45,275.53,050721,,,A*71
$GPGGA,170041.000,4308.4655,N,07726.4314,W,1,05,2.54,148.3,M,-34.4,M,,*50
$GPRMC,170041.250,A,4308.4656,N,07726.4314,W,0.33,275.53,050721,,,A*77
$GPGGA,170041.500,4308.4656,N,07726.4314,W,1,05,2.54,148.3,M,-34.4,M,,*56
$GPRMC,170041.750,A,4308.4656,N,07726.4315,W,0.25,275.53,050721,,,A*74
$GPGGA,170042.000,4308.4656,N,07726.4315,W,1,05,2.54,148.3,M,-34.4,M,,*51
$GPRMC,170042.250,A,4308.4656,N,07726.4315,W,0.24,275.53,050721,,,A*73
$GPGGA,170042.500,4308.4656,N,07726.4315,W,1,05,2.54,148.3,M,-34.4,M,,*54
$GPRMC,170042.750,A,4308.4656,N,07726.4315,W,0.23,275.53,050721,,,A*71
$GPGGA,170043.000,4308.4657,N,07726.4315,W,1,05,2.58,148.3,M,-34.4,M,,*5D
$GPRMC,170043.250,A,4308.4657,N,07726.4315,W,0.23,275.53,050721,,,A*74
$GPGGA,170043.500,4308.4657,N,07726.4315,W,1,05,2.58,148.3,M,-34.4,M,,*58
$GPRMC,170043.750,A,4308.4657,N,07726.4315,W,0.00,275.53,050721,,,A*70
$GPGGA,170044.000,4308.4657,N,07726.4315,W,1,05,2.58,148.3,M,-34.4,M,,*5A
$GPRMC,170044.250,A,4308.4657,N,07726.4315,W,0.00,275.53,050721,,,A*72
$GPGGA,170044.500,4308.4657,N,07726.4315,W,1,05,2.58,148.3,M,-34.4,M,,*5F
$GPRMC,170044.750,A,4308.4657,N,07726.4315,W,0.04,275.53,050721,,,A*73
$GPGGA,170045.000,4308.4657,N,07726.4315,W,1,05,2.55,148.3,M,-34.4,M,,*56
$GPRMC,170045.250,A,4308.4657,N,07726.4315,W,0.10,275.53,050721,,,A*72
$GPGGA,170045.500,4308.4657,N,07726.4315,W,1,05,2.55,148.3,M,-34.4,M,,*53
$GPRMC,170045.750,A,4308.4657,N,07726.4315,W,0.14,275.53,050721,,,A*73
$GPGGA,170046.000,4308.4657,N,07726.4315,W,1,05,2.55,148.3,M,-34.4,M,,*55
$GPRMC,170046.250,A,4308.4658,N,07726.4315,W,0.17,275.53,050721,,,A*79
$GPGGA,170046.500,4308.4658,N,07726.4315,W,1,05,2.55,148.3,M,-34.4,M,,*5F
$GPRMC,170046.750,A,4308.4658,N,07726.4315,W,0.23,275.53,050721,,,A*7B
$GPGGA,170047.000,4308.4658,N,07726.4316,W,1,05,2.55,148.3,M,-34.4,M,,*58
$GPRMC,170047.250,A,4308.4658,N,07726.4316,W,0.32,275.53,050721,,,A*7C
$GPGGA,170047.500,4308.4658,N,07726.4316,W,1,05,2.55,148.3,M,-34.4,M,,*5D
$GPRMC,170047.750,A,4308.4659,N,07726.4316,W,0.34,275.53,050721,,,A*7E
$GPGGA,170048.000,4308.4659,N,07726.4316,W,1,05,2.55,148.3,M,-34.4,M,,*56
$GPRMC,170048.250,A,4308.4659,N,07726.4316,W,0.38,275.53,050721,,,A*78
$GPGGA,170048.500,4308.4659,N,07726.4316,W,1,05,2.55,148.3,M,-34.4,M,,*53
$GPRMC,170048.750,A,4308.4660,N,07726.4316,W,0.39,275.53,050721,,,A*76
$GPGGA,170049.000,4308.4660,N,07726.4317,W,1,05,2.55,148.3,M,-34.4,M,,*5C
$GPRMC,170049.250,A,4308.4660,N,07726.4317,W,0.39,275.53,050721,,,A*73
$GPGGA,170049.500,4308.4660,N,07726.4317,W,1,05,2.58,148.3,M,-34.4,M,,*54
$GPRMC,170049.750,A,4308.4661,N,07726.4317,W,0.39,275.53,050721,,,A*77
$GPGGA,170050.000,4308.4661,N,07726.4317,W,1,05,2.58,148.3,M,-34.4,M,,*58
$GPRMC,170050.250,A,4308.4661,N,07726.4317,W,0.39,275.53,050721,,,A*7A
$GPGGA,170050.500,4308.4661,N,07726.4317,W,1,05,2.58,148.3,M,-34.4,M,,*5D
$GPRMC,170050.750,A,4308.4662,N,07726.4317,W,0.40,275.53,050721,,,A*72
$GPGGA,170051.000,4308.4662,N,07726.4317,W,1,05,2.58,148.3,M,-34.4,M,,*5A
$GPRMC,170051.250,A,4308.4662,N,07726.4317,W,0.39,275.53,050721,,,A*78
$GPGGA,170051.500,4308.4663,N,07726.4317,W,1,05,2.58,148.3,M,-34.4,M,,*5E
$GPRMC,170051.750,A,4308.4663,N,07726.4317,W,0.41,275.53,050721,,,A*73
$GPGGA,170052.000,4308.4663,N,07726.4317,W,1,05,2.55,148.3,M,-34.4,M,,*55
$GPRMC,170052.250,A,4308.4663,N,07726.4316,W,0.43,275.53,050721,,,A*76
$GPGGA,170052.500,4308.4664,N,07726.4316,W,1,05,2.55,148.3,M,-34.4,M,,*56
$GPRMC,170052.750,A,4308.4664,N,07726.4316,W,0.45,275.53,050721,,,A*72
$GPGGA,170053.000,4308.4664,N,07726.4316,W,1,05,2.55,148.3,M,-34.4,M,,*52
$GPRMC,170053.250,A,4308.4665,N,07726.4316,W,0.47,275.53,050721,,,A*75
$GPGGA,170053.500,4308.4665,N,07726.4315,W,1,05,2.55,148.3,M,-34.4,M,,*55
$GPRMC,170053.750,A,4308.4665,N,07726.4315,W,0.47,275.53,050721,,,A*73
$GPGGA,170054.000,4308.4666,N,07726.4315,W,1,05,2.55,148.3,M,-34.4,M,,*54
$GPRMC,170054.250,A,4308.4666,N,07726.4315,W,0.47,275.53,050721,,,A*72
$GPGGA,170054.500,4308.4666,N,07726.4315,W,1,05,2.59,148.3,M,-34.4,M,,*5D
$GPRMC,170054.750,A,4308.4667,N,07726.4315,W,0.00,275.53,050721,,,A*75
$GPGGA,170055.000,4308.4667,N,07726.4315,W,1,05,2.59,148.3,M,-34.4,M,,*58
$GPRMC,170055.250,A,4308.4667,N,07726.4315,W,0.34,275.53,050721,,,A*76
$GPGGA,170055.500,4308.4667,N,07726.4315,W,1,05,2.55,148.3,M,-34.4,M,,*51
$GPRMC,170055.750,A,4308.4667,N,07726.4316,W,0.70,275.53,050721,,,A*70
$GPGGA,170056.000,4308.4667,N,07726.4316,W,1,05,2.55,148.3,M,-34.4,M,,*54
$GPRMC,170056.250,A,4308.4667,N,07726.4317,W,1.20,275.53,050721,,,A*73
$GPGGA,170056.500,4308.4668,N,07726.4318,W,1,05,2.56,148.3,M,-34.4,M,,*53
$GPRMC,170056.750,A,4308.4668,N,07726.4320,W,1.63,275.53,050721,,,A*7A
$GPGGA,170057.000,4308.4668,N,07726.4321,W,1,05,2.56,148.3,M,-34.4,M,,*5D
$GPRMC,170057.250,A,4308.4669,N,07726.4323,W,1.97,275.53,050721,,,A*77
$GPGGA,170057.500,4308.4671,N,07726.4326,W,1,05,2.56,148.3,M,-34.4,M,,*57
$GPRMC,170057.750,A,4308.4672,N,07726.4329,W,2.20,286.65,050721,,,A*74
$GPGGA,170058.000,4308.4673,N,07726.4332,W,1,05,2.56,148.4,M,-34.4,M,,*5D
$GPRMC,170058.250,A,4308.4674,N,07726.4335,W,2.46,286.15,050721,,,A*72
$GPGGA,170058.500,4308.4675,N,07726.4339,W,1,05,2.56,148.5,M,-34.4,M,,*54
$GPRMC,170058.750,A,4308.4676,N,07726.4342,W,2.70,285.56,050721,,,A*74
$GPGGA,170059.000,4308.4678,N,07726.4345,W,1,05,2.56,148.5,M,-34.4,M,,*56
$GPRMC,170059.250,A,4308.4678,N,07726.4350,W,3.68,285.15,050721,,,A*72
$GPGGA,170059.500,4308.4680,N,07726.4354,W,1,05,2.56,148.6,M,-34.4,M,,*57
$GPRMC,170059.750,A,4308.4681,N,07726.4360,W,4.80,285.89,050721,,,A*76
$GPGGA,170100.000,4308.4682,N,07726.4366,W,1,05,2.59,148.7,M,-34.4,M,,*52
$GPRMC,170100.250,A,4308.4683,N,07726.4372,W,5.91,283.56,050721,,,A*7A
$GPGGA,170100.500,4308.4684,N,07726.4379,W,1,05,2.59,148.7,M,-34.4,M,,*5F
$GPRMC,170100.750,A,4308.4685,N,07726.4387,W,7.49,280.72,050721,,,A*71
$GPGGA,170101.000,4308.4687,N,07726.4396,W,1,05,2.59,148.8,M,-34.4,M,,*56
$GPRMC,170101.250,A,4308.4688,N,07726.4405,W,9.09,278.73,050721,,,A*79
$GPGGA,170101.500,4308.4689,N,07726.4416,W,1,05,2.59,148.8,M,-34.4,M,,*52
$GPRMC,170101.750,A,4308.4691,N,07726.4426,W,10.62,278.83,050721,,,A*4F
$GPGGA,170102.000,4308.4693,N,07726.4438,W,1,05,2.59,148.8,M,-34.4,M,,*53
$GPRMC,170102.250,A,4308.4696,N,07726.4449,W,11.90,281.84,050721,,,A*4A
$GPGGA,170102.500,4308.4699,N,07726.4462,W,1,05,2.59,148.7,M,-34.4,M,,*5C
$GPRMC,170102.750,A,4308.4702,N,07726.4474,W,13.15,284.04,050721,,,A*4F
$GPGGA,170103.000,4308.4705,N,07726.4488,W,1,05,2.59,148.6,M,-34.4,M,,*59
$GPRMC,170103.250,A,4308.4707,N,07726.4502,W,14.33,284.03,050721,,,A*4A
$GPGGA,170103.500,4308.4709,N,07726.4517,W,1,05,2.59,148.7,M,-34.4,M,,*56
$GPRMC,170103.750,A,4308.4712,N,07726.4533,W,15.55,282.14,050721,,,A*48
$GPGGA,170104.000,4308.4714,N,07726.4549,W,1,05,2.59,148.8,M,-34.4,M,,*5C
$GPRMC,170104.250,A,4308.4713,N,07726.4567,W,16.97,279.24,050721,,,A*40
$GPGGA,170104.500,4308.4715,N,07726.4585,W,1,05,2.59,148.8,M,-34.4,M,,*58
$GPRMC,170104.750,A,4308.4716,N,07726.4604,W,18.08,278.23,050721,,,A*48
$GPGGA,170105.000,4308.4714,N,07726.4624,W,1,05,2.59,148.9,M,-34.4,M,,*54
$GPRMC,170105.250,A,4308.4713,N,07726.4644,W,19.24,276.89,050721,,,A*4C
$GPGGA,170105.500,4308.4712,N,07726.4665,W,1,05,2.59,148.8,M,-34.4,M,,*53
$GPRMC,170105.750,A,4308.4712,N,07726.4686,W,20.12,276.50,050721,,,A*4D
$GPGGA,170106.000,4308.4713,N,07726.4706,W,1,05,2.59,148.7,M,-34.4,M,,*5F
$GPRMC,170106.250,A,4308.4714,N,07726.4727,W,20.68,276.36,050721,,,A*4A
$GPGGA,170106.500,4308.4714,N,07726.4748,W,1,05,2.59,148.7,M,-34.4,M,,*57
$GPRMC,170106.750,A,4308.4716,N,07726.4768,W,21.17,276.10,050721,,,A*4B
$GPGGA,170107.000,4308.4716,N,07726.4790,W,1,05,2.59,148.6,M,-34.4,M,,*55
$GPRMC,170107.250,A,4308.4718,N,07726.4812,W,21.87,276.73,050721,,,A*4F
$GPGGA,170107.500,4308.4720,N,07726.4835,W,1,05,2.59,148.5,M,-34.4,M,,*56
$GPRMC,170107.750,A,4308.4720,N,07726.4857,W,22.44,277.02,050721,,,A*4B
$GPGGA,170108.000,4308.4723,N,07726.4880,W,1,05,2.60,148.5,M,-34.4,M,,*5B
$GPRMC,170108.250,A,4308.4726,N,07726.4904,W,23.31,278.41,050721,,,A*4B
$GPGGA,170108.500,4308.4728,N,07726.4927,W,1,05,2.59,148.4,M,-34.4,M,,*52
$GPRMC,170108.750,A,4308.4731,N,07726.4950,W,23.77,278.73,050721,,,A*4A
$GPGGA,170109.000,4308.4733,N,07726.4975,W,1,05,2.59,148.4,M,-34.4,M,,*5B
$GPRMC,170109.250,A,4308.4736,N,07726.5000,W,24.82,278.97,050721,,,A*43
$GPGGA,170109.500,4308.4738,N,07726.5026,W,1,05,2.60,148.5,M,-34.4,M,,*50
$GPRMC,170109.750,A,4308.4740,N,07726.5051,W,25.74,278.44,050721,,,A*45
$GPGGA,170110.000,4308.4743,N,07726.5077,W,1,05,2.60,148.5,M,-34.4,M,,*55
$GPRMC,170110.250,A,4308.4744,N,07726.5104,W,26.70,276.63,050721,,,A*41
$GPGGA,170110.500,4308.4746,N,07726.5130,W,1,05,2.60,148.5,M,-34.4,M,,*57
$GPRMC,170110.750,A,4308.4748,N,07726.5156,W,27.45,275.77,050721,,,A*4E
$GPGGA,170111.000,4308.4749,N,07726.5183,W,1,05,2.60,148.4,M,-34.4,M,,*55
$GPRMC,170111.250,A,4308.4750,N,07726.5211,W,27.98,274.70,050721,,,A*45
$GPGGA,170111.500,4308.4751,N,07726.5239,W,1,05,2.60,148.2,M,-34.4,M,,*5D
$GPRMC,170111.750,A,4308.4752,N,07726.5266,W,28.81,273.67,050721,,,A*44
$GPGGA,170112.000,4308.4752,N,07726.5294,W,1,05,2.60,148.0,M,-34.4,M,,*5D
$GPRMC,170112.250,A,4308.4752,N,07726.5323,W,29.31,273.06,050721,,,A*4F
$GPGGA,170112.500,4308.4752,N,07726.5352,W,1,05,2.60,147.8,M,-34.4,M,,*54
$GPRMC,170112.750,A,4308.4753,N,07726.5381,W,29.57,272.70,050721,,,A*43
$GPGGA,170113.000,4308.4753,N,07726.5410,W,1,05,2.60,147.6,M,-34.4,M,,*5E
$GPRMC,170113.250,A,4308.4753,N,07726.5440,W,30.66,273.10,050721,,,A*40
$GPGGA,170113.500,4308.4753,N,07726.5470,W,1,05,2.60,147.5,M,-34.4,M,,*5E
$GPRMC,170113.750,A,4308.4752,N,07726.5501,W,31.26,272.43,050721,,,A*42
$GPGGA,170114.000,4308.4752,N,07726.5531,W,1,05,2.60,147.3,M,-34.4,M,,*5F
$GPRMC,170114.250,A,4308.4752,N,07726.5563,W,31.37,271.82,050721,,,A*4A
$GPGGA,170114.500,4308.4752,N,07726.5594,W,1,05,2.60,147.3,M,-34.4,M,,*55
$GPRMC,170114.750,A,4308.4753,N,07726.5625,W,31.71,271.88,050721,,,A*47
$GPGGA,170115.000,4308.4753,N,07726.5657,W,1,05,2.60,147.2,M,-34.4,M,,*5D
$GPRMC,170115.250,A,4308.4754,N,07726.5688,W,32.00,271.76,050721,,,A*47
$GPGGA,170115.500,4308.4754,N,07726.5721,W,1,05,2.60,147.1,M,-34.4,M,,*5C
$GPRMC,170115.750,A,4308.4754,N,07726.5753,W,33.49,271.47,050721,,,A*4B
$GPGGA,170116.000,4308.4755,N,07726.5785,W,1,05,2.60,146.9,M,-34.4,M,,*5C
$GPRMC,170116.250,A,4308.4757,N,07726.5817,W,33.89,272.19,050721,,,A*45
$GPGGA,170116.500,4308.4757,N,07726.5849,W,1,05,2.60,146.7,M,-34.4,M,,*5A
$GPRMC,170116.750,A,4308.4758,N,07726.5881,W,33.88,272.11,050721,,,A*49
$GPGGA,170117.000,4308.4759,N,07726.5913,W,1,05,2.60,146.6,M,-34.4,M,,*5F
$GPRMC,170117.250,A,4308.4759,N,07726.5946,W,33.87,272.36,050721,,,A*4C
$GPGGA,170117.500,4308.4760,N,07726.5978,W,1,05,2.60,146.6,M,-34.4,M,,*5D
$GPRMC,170117.750,A,4308.4761,N,07726.6011,W,34.20,272.76,050721,,,A*44
$GPGGA,170118.000,4308.4762,N,07726.6044,W,1,05,2.60,146.6,M,-34.4,M,,*50
$GPRMC,170118.250,A,4308.4764,N,07726.6078,W,34.54,273.15,050721,,,A*43
$GPGGA,170118.500,4308.4766,N,07726.6110,W,1,05,2.60,146.5,M,-34.4,M,,*52
$GPRMC,170118.750,A,4308.4767,N,07726.6143,W,34.56,273.33,050721,,,A*4A
$GPGGA,170119.000,4308.4768,N,07726.6177,W,1,05,2.57,146.5,M,-34.4,M,,*5D
$GPRMC,170119.250,A,4308.4767,N,07726.6210,W,34.93,272.15,050721,,,A*47
$GPGGA,170119.500,4308.4767,N,07726.6244,W,1,05,2.60,146.4,M,-34.4,M,,*51
$GPRMC,170119.750,A,4308.4768,N,07726.6277,W,34.87,271.21,050721,,,A*4D
$GPGGA,170120.000,4308.4768,N,07726.6309,W,1,05,2.60,146.3,M,-34.4,M,,*5E
$GPRMC,170120.250,A,4308.4769,N,07726.6341,W,34.13,270.35,050721,,,A*4E
$GPGGA,170120.500,4308.4769,N,07726.6373,W,1,05,2.60,146.0,M,-34.4,M,,*54
$GPRMC,170120.750,A,4308.4769,N,07726.6405,W,33.60,269.50,050721,,,A*44
$GPGGA,170121.000,4308.4770,N,07726.6436,W,1,05,2.60,145.8,M,-34.4,M,,*55
$GPRMC,170121.250,A,4308.4771,N,07726.6467,W,33.16,268.87,050721,,,A*47
$GPGGA,170121.500,4308.4772,N,07726.6497,W,1,05,2.60,145.6,M,-34.4,M,,*57
$GPRMC,170121.750,A,4308.4773,N,07726.6528,W,32.65,268.93,050721,,,A*4A
$GPGGA,170122.000,4308.4773,N,07726.6558,W,1,05,2.60,145.4,M,-34.4,M,,*50
$GPRMC,170122.250,A,4308.4773,N,07726.6590,W,32.34,268.51,050721,,,A*45
$GPGGA,170122.500,4308.4772,N,07726.6621,W,1,05,2.60,145.2,M,-34.4,M,,*5F
$GPRMC,170122.750,A,4308.4772,N,07726.6652,W,32.38,268.02,050721,,,A*46
$GPGGA,170123.000,4308.4773,N,07726.6682,W,1,05,2.60,145.1,M,-34.4,M,,*50
$GPRMC,170123.250,A,4308.4772,N,07726.6714,W,32.37,268.05,050721,,,A*49
$GPGGA,170123.500,4308.4772,N,07726.6745,W,1,05,2.60,144.9,M,-34.4,M,,*57
$GPRMC,170123.750,A,4308.4771,N,07726.6777,W,32.87,268.19,050721,,,A*4C
$GPGGA,170124.000,4308.4771,N,07726.6808,W,1,05,2.60,144.9,M,-34.4,M,,*50
